city,attraction_name,attraction_id,description,attraction_type,address,latitude,longitude,rating,opening_time,closing_time,closing_dates,min_visit_hours,max_visit_hours,ticket_price
Beijing,National Aquatics Center (Water Cube),B000A80ZU6,"The Olympic swimming competition venue, a unique membrane-structure building, now serves as the Ice Cube Ice Sports Center.",City Landmark,,39.992834,116.390397,4.7,09:00,18:00,,0.0,1.5,30
Beijing,Beihai Park,B000A80UL1,"One of China's oldest surviving imperial gardens, with the White Pagoda as its iconic structure.",Historical and Cultural,,39.928775,116.391802,4.9,06:00,21:00,Monday,1.0,2.5,20
Beijing,Beijing Dashilan,B000A84KJP,"A commercial district with over 500 years of history, preserving the traditional Beijing hutong style and commercial culture.",Historical and Cultural,,39.895715,116.395042,4.8,Open 24 Hours,Open 24 Hours,,0.0,1.5,0
Beijing,Guozijian Street,BZDCPW025K,"The street where China's highest ancient educational institution was located, featuring well-preserved traditional architecture and a rich cultural atmosphere.",Historical and Cultural,,39.947000,116.419000,4.5,Open 24 Hours,Open 24 Hours,,0.5,2.0,0
Beijing,Monument to the People's Heroes,B000A7B211,"The Monument to the People's Heroes standing at the center of Tiananmen Square, a sacred memorial structure honoring revolutionary martyrs.",Historical and Cultural,,39.904632,116.397691,4.8,Open 24 Hours,Open 24 Hours,,0.0,1.5,0
Beijing,Nanluoguxiang,B0FFFAH7I9,"A famous hutong commercial street in Beijing, featuring unique shops and local delicacies, offering an experience of traditional courtyard culture.",Historical and Cultural,,39.937182,116.402394,4.8,Open 24 Hours,Open 24 Hours,,1.5,3.0,0
Beijing,National Stadium (Bird's Nest),B000A7GWO5,"The main stadium of the 2008 Olympic Games, a masterpiece of modern architectural art and a symbol of the Olympic spirit.",City Landmark,,39.993330,116.395784,4.9,09:00,19:00,,0.5,2.0,50
Beijing,Yangmeizhu Xiejie,B0FFH6JM2W,"A distinctive artistic hutong in Beijing, home to creative shops and cafes, offering an experience of old Beijing hutong culture.",Historical and Cultural,,39.895280,116.390844,4.5,Open 24 Hours,Open 24 Hours,,0.5,2.0,0
Beijing,Beijing Zoo,B000A87IUX,"One of the earliest zoos opened in China, renowned for rare animals such as giant pandas.",Leisure Experience,,39.942105,116.336701,4.8,07:30,18:00,,2.0,3.5,10
