poi_name,latitude,longitude,address,poi_type
Erqi Square,34.751860,113.666451,,attraction
Henan Museum,34.788263,113.672097,,attraction
Zhengzhou Museum New Branch,34.739600,113.546720,,attraction
Qianxi Square (Big Corn),34.769955,113.726322,,attraction
Huanghe Huayuankou Tourist Area,34.903629,113.676636,,attraction
Zhengzhou Museum (Songshan Road Branch),34.723400,113.632600,,attraction
Zijing Mountain Park,34.761890,113.687708,,attraction
Zhengzhou Shang Dynasty Ruins,34.755497,113.671988,,attraction
Sanhuangzhai,34.473496,112.952063,,attraction
Yellow River Scenic Area,34.920000,113.630000,,attraction
Han Feng Yuan Barbecue and Hot Pot Buffet Restaurant (Asia Joy City Branch),34.751785,113.667704,,restaurant
Yuehai Hotel Xuan Palace Western Restaurant (Erqi Square),34.749629,113.667658,,restaurant
Yuehai Hotel - Yuehai Xuan Chinese Restaurant,34.749142,113.667796,,restaurant
Huya Stir-fried Chicken (Henan Zhengzhou Erqi Mixc Store),34.754815,113.662798,,restaurant
A Few Folk Songs Barbecue Restaurant (Zhengzhou Guangcai Branch),34.755287,113.669676,,restaurant
Green Tea Restaurant (Zhengzhou MixC Branch),34.754667,113.662403,,restaurant
Zhengzhou Zhengbai Restaurant (Zhengzhou Department Store Branch),34.756286,113.668080,,restaurant
Datong Hotel Restaurant,34.747498,113.663838,,restaurant
Route 5 Restaurant Stone-Grilled Steak (David Plaza Branch),34.756777,113.666316,,restaurant
Dingyuan Buffet Restaurant,34.786308,113.672932,,restaurant
Enjoy House Tea Restaurant (Century Star Building Branch),34.786292,113.671079,,restaurant
Century Star Garden Restaurant,34.786256,113.671176,,restaurant
Gourmet Restaurant (Zhengzhou Times International Plaza Building 70 Store),34.786608,113.670287,,restaurant
Nongda Jiayuan Faculty Restaurant (Cultural Road No. 52 Courtyard Branch),34.785268,113.668041,,restaurant
Nongda Jiayuan Faculty Restaurant,34.784879,113.666814,,restaurant
Mao Zhangzhang Oil-Braised Skewers (Guomao 360 Branch),34.783597,113.675687,,restaurant
Hongyan RED SALT Modern Indian-Pakistani Restaurant,34.793421,113.677088,,restaurant
Wentong Ice Room (Guomao 360 Branch),34.784943,113.679565,,restaurant
Wanda Vista Hotel Pinzhen Chinese Restaurant,34.792621,113.678848,,restaurant
Manyu (Dennis · David Plaza Branch),34.756848,113.666241,,restaurant
Xiao Zhiwei Restaurant,34.740996,113.539988,,restaurant
Zhengzhou Olympic Jian Guo Hotel - Seafood Buffet Restaurant,34.739770,113.537534,,restaurant
Zhengdi Olympic Sports Jianguo Hotel All-Day Dining Restaurant,34.740659,113.537609,,restaurant
Jiuguo Restaurant,34.739579,113.561973,,restaurant
Peony Restaurant (Yi'er Hotel Management Company),34.739995,113.562140,,restaurant
M Art Restaurant Qidesheng · Beef Noodles,34.739800,113.563173,,restaurant
Waku No. 50 (Kaixuan Road Branch),34.740377,113.563327,,restaurant
Haiyu Premium Seafood Restaurant,34.769787,113.726419,,restaurant
Zhengzhou Greenland JW Marriott Hotel (Marriott Chinese Restaurant),34.770905,113.727350,,restaurant
Qianxi Cloud Restaurant (Qianxi Plaza Branch),34.771075,113.727225,,restaurant
Zhengzhou Big Corn G PLUS Skyview Restaurant,34.770914,113.727493,,restaurant
Zhengzhou Greenland JW Marriott Hotel · Urban Shangshan Buffet Restaurant,34.771054,113.727309,,restaurant
Zui Baxian Grilled Fish (Qianxi Plaza Store),34.770902,113.727580,,restaurant
Yu Jian Tea Restaurant (Xin'ao Building Branch),34.767928,113.723581,,restaurant
Xinhuose (Freshly Cooked Restaurant),34.767451,113.723530,,restaurant
Jinyue Tea Restaurant (Henan Media Building Branch),34.767405,113.722783,,restaurant
Two Birds One Stone (Wood Color Branch),34.767030,113.730428,,restaurant
Luoshan Fisherman's Delight Restaurant,34.903556,113.670261,,restaurant
Wangwang Small Restaurant,34.901524,113.668069,,restaurant
Sofitel Zhengzhou International Hotel · Dome Pavilion Western Restaurant,34.761863,113.692708,,restaurant
Hongyuan Restaurant,34.761674,113.693653,,restaurant
Sofitel International Hotel (Yuewei Xian Chinese Restaurant),34.761932,113.692486,,restaurant
Jiang A Qiao Tarta Noodles (Da Shanghai Branch),34.755928,113.670393,,restaurant
Fangzhongshan Spicy Soup (Flagship Store),34.760065,113.682462,,restaurant
Daoben Dao Unmanned Restaurant (Shenglong City Branch),34.721237,113.632227,,restaurant
Music Restaurant & Bar,34.725040,113.629748,,restaurant
Little Lotus Restaurant,34.721666,113.636146,,restaurant
Zanbala Flower Market Second Floor Restaurant,34.726575,113.626975,,restaurant
Kunlun Leju Business Hotel Chinese Restaurant (Huaihe Road Branch),34.729111,113.631083,,restaurant
Mipiji Halal Restaurant (Huainan Street),34.728594,113.636312,,restaurant
Zhengzhou Second People's Hospital Main Campus Nutrition Restaurant (Lianxinli Branch),34.721965,113.639981,,restaurant
Zhuang Bar Music Restaurant,34.726061,113.640451,,restaurant
Huashang Music Restaurant & Bar,34.717961,113.626270,,restaurant
Suyi Xiang Vegetarian Buffet Restaurant,34.725310,113.641557,,restaurant
Supreme Qiangzai (Zhengguang North Street Store),34.771566,113.754982,,restaurant
Yulongxuan Tea Restaurant (Yuhang Center Branch),34.771871,113.755230,,restaurant
Guangyi Xinyang Maojian Tea Restaurant (Yuhang Branch),34.771881,113.755782,,restaurant
Ginkgo Tree Seafood Restaurant (Jinshui Road Branch),34.763326,113.684358,,restaurant
Government Office Restaurant Fast Food Section,34.764882,113.689757,,restaurant
Tanghou Tea Banquet,34.764738,113.684978,,restaurant
Holiday Inn Express Zhengzhou Zhongzhou Restaurant,34.762887,113.692533,,restaurant
Xingcan Restaurant,34.764980,113.691112,,restaurant
Zijing Mountain Hotel - Restaurant,34.764942,113.691889,,restaurant
Henan University of Chinese Medicine First Affiliated Hospital Renmin Road Campus Restaurant,34.758033,113.673949,,restaurant
Alley Community Canteen·Mama Restaurant,34.752730,113.674692,,restaurant
Heji (Old Street Snack Street Store),34.758132,113.675030,,restaurant
Mipiji Halal Restaurant (West Street Branch),34.751298,113.673507,,restaurant
Chinese Delicious Fast Food Restaurant,34.759118,113.676308,,restaurant
Guangdong Restaurant (Erma Road),34.749825,113.660012,,restaurant
Nutrition and Health Restaurant,34.744171,113.652484,,restaurant
A Xiang Rice Noodles (Zhengzhou Erqi Shanshan Outlet Restaurant),34.526573,113.855171,,restaurant
Zhengzhou Airport Hotel Chinese Restaurant,34.528534,113.843450,,restaurant
Lounge Restaurant,34.754747,113.783314,,restaurant
Zhengzhou Hesheng Yiside Hotel · Xindi Restaurant (Greenland Colorful City Branch),34.761864,113.772727,,restaurant
Lantingxu Tea Restaurant,34.753801,113.774832,,restaurant
Yunduo Xuan Restaurant (Financial Plaza Store),34.537244,113.826908,,restaurant
Fangzhongshan Spicy Soup (Port Area Branch One),34.537354,113.833042,,restaurant
Qiyu Cantonese Tea Restaurant,34.540161,113.830394,,restaurant
Zhengzhou Aviation Port District Hongyin Themed Bar,34.530293,113.823391,,restaurant
Old Mo Seafood in Sauce,34.723986,113.716121,,restaurant
North Point Flavors Hong Kong-Style Tea Restaurant (Longtang · Vanke Plaza Branch),34.722045,113.718822,,restaurant
DBe's Da Bai Russian BBQ Western Restaurant (Futian Xintiandi Store),34.721373,113.712549,,restaurant
Mipi Ji Halal Restaurant (Yaozhai Road Branch),34.776594,113.704493,,restaurant
Yuanfuyuan Grand Canteen (Jincheng Times Square Branch),34.776707,113.706486,,restaurant
Super Deer Squad Fitness and Fat Loss Restaurant (Jincheng Times Square Branch),34.777542,113.706140,,restaurant
Youjinsheng Jewelry Tea Restaurant (Weiye Xianghu Garden Branch),34.769988,113.864010,,restaurant
Xinwaku Tea Restaurant (Weiye Xianghu Yuan Branch),34.769990,113.864126,,restaurant
Tongshantang Experience Restaurant,34.764509,113.745962,,restaurant
Qingyuan Tea Restaurant,34.765092,113.744012,,restaurant
Chu Jing Restaurant (Provincial Government Branch),34.767275,113.746025,,restaurant
Rongyu Restaurant,34.754245,113.770035,,restaurant
Soonsoo Fried Chicken Cuisine,34.754378,113.771221,,restaurant
Liuyuan · Leisure Tea and Dining,34.802265,113.740183,,restaurant
Wuwei Academy · Laozi Cultural Tea Dining Space,34.800876,113.734358,,restaurant
Jilu Restaurant (Kailin Building Branch),34.802746,113.733842,,restaurant
Taste of Shrimp Small Eatery,34.759727,113.853131,,restaurant
Bounce Music Restaurant,34.369146,113.919410,,restaurant
New Yijia (Zhengzhou Aviation Port District) Themed Dining Restaurant (Individual Business),34.365406,113.918814,,restaurant
Water Margin Barbecue (Yongshun Road Branch),34.773371,113.856956,,restaurant
Creekside Tea Restaurant,34.781870,113.687685,,restaurant
Kaka Light Meal Restaurant,34.780128,113.685970,,restaurant
Hailan Restaurant,34.781419,113.684659,,restaurant
O'Kara Steak Buffet Restaurant (Zhengdong Commercial Center Zone A Branch),34.745247,113.760006,,restaurant
Mi Pi Ji Halal Restaurant (Yunshang Branch),34.745125,113.760153,,restaurant
Muyuan Hotel (Zhengzhou East High-Speed Rail Station Branch) · Guteng Tack German Restaurant,34.755419,113.789670,,restaurant
Guten Tag German Restaurant,34.755935,113.789800,,restaurant
Fuyuxuan Seafood Fusion Restaurant,34.756247,113.790010,,restaurant
Thirty-Three Flavors Restaurant,34.752661,113.769800,,restaurant
And Tea,34.612306,113.736545,,restaurant
Qingtang Buffet Restaurant (South China City Branch),34.609475,113.732425,,restaurant
Han Feng Yuan BBQ and Hotpot Buffet Restaurant (Longhu Jinyi City Direct Branch),34.613777,113.726277,,restaurant
Henan Yellow River Guesthouse Chinese Restaurant,34.872199,113.648259,,restaurant
Aoli Family Restaurant,34.869788,113.636415,,restaurant
Haokelai Steak (Zhengzhou Huiji Wanda Restaurant),34.868938,113.636045,,restaurant
Yaser Lakeside Restaurant,34.775577,113.858407,,restaurant
Qiantusihai Creative Fusion Restaurant,34.773400,113.854577,,restaurant
Yunman Hotel (Zhengzhou Airport Area BYD Factory Branch),34.368782,113.919851,"3-5 floors, Intersection of Linggang Avenue and Deyu Street, Gangli Township, Zhengzhou Aviation Port Area",hotel
Kunlun Leju Select Hotel (Zhengzhou South China City Jinyi City Branch),34.613066,113.733835,"Northeast corner of the intersection of Shuanghu Avenue and Yufeng Road, Mengzhuang Town, Xinzheng City, Zhengzhou, Henan Province, Feiyu Electromechanical City, Building 23, North side of the 1st floor, and 3-10 floors",hotel
Future Livable Hotel (Health Road Night Market Second Affiliated Hospital of Zhengzhou University Branch),34.769325,113.669130,No. 15 Weisan Road,hotel
Zhengzhou Zhongmu Zhipu Hotel (Only Henan Film Town Branch),34.786329,113.955310,"Building 6, Rongxin City Window, East of Jiaotong Road, South of Fugui Road, Green Expo Cultural Industry Park",hotel
Zhengzhou Yaser International Hotel (Provincial Science and Technology Museum Xianghu Branch),34.775698,113.858697,"No. 76 Zhengkai Avenue, Zhengdong New District, Zhengzhou, Henan Province",hotel
Zhengzhou Jinshen Zhongzhou Yihe Hotel,34.781424,113.686953,"No. 27 Zhengqi Street, Jinshui District, Zhengzhou",hotel
Chenxi Hotel (Zhengzhou Convention and Exhibition Center Branch),34.764990,113.745222,"No. 16 Jinshui East Road, Jinshui District, Zhengzhou, Northeast corner of the intersection of Jinshui East Road and Huanghe South Road",hotel
Henan Yellow River Guesthouse,34.872278,113.648540,"No. 1 Yingbin Road, Zhengzhou (near Zhengzhou Cultural Road, close to Yellow River Scenic Area)",hotel
Ji Hotel Zhengzhou Convention and Exhibition Center Future Road,34.772300,113.707000,"No. 60 Weilai Road, Jinshui District, Zhengzhou",hotel
Zhengzhou Beilonghu Financial Center Financial Island Atour Hotel,34.801804,113.740044,"Southwest corner of the intersection of Longxiang First Street and East of Ruyi River Second Street, Zhengdong New District, Zhengzhou (Hao Mulin. Ruyi Fang), Building 7, Units 147-149 on the 1st floor, and entire floors of 3, 4, and 5",hotel
Courtyard by Marriott Zhengzhou Huayi,34.753708,113.770139,"Building B, No. 77 Shangding Road, Zhengdong New District, Zhengzhou",hotel
Hampton by Hilton Zhengzhou Zhengdong New District,34.745195,113.763361,No. 67 Shangdu Road,hotel
Home Inn - Zhengzhou Zhongyuan Tower East Metro Station Branch,34.722713,113.746504,"No. 110 Jingkai Third Street, Minghu Subdistrict, Economic Development Zone, Guancheng Hui District, Zhengzhou, Zhongrun Building",hotel
Under Home Inn - Zhengzhou Xinzheng International Airport Rezen Hotel,34.532732,113.827800,"No. 186 Feixiang Road, Xingang Subdistrict, Xinzheng City, Zhengzhou, Henan Province, Home Inn Reibai Cloud Hotel (Xinzheng International Airport Branch)",hotel
Hanting Zhengzhou Erqi Square Hotel,34.754346,113.671977,"No. 231 Shangcheng Road, Guancheng District",hotel
Hanting Zhengzhou Hanghai East Road Hotel,34.725246,113.718570,No. 69 Shihua Road (intersection of Zhongzhou Avenue and Shihua Road),hotel
Hanting Zhengzhou Xianghu Science and Technology Museum Hotel,34.763200,113.863000,"100 meters west of the intersection of Yangqiao Avenue and Liangxiu Road, Yangqiao Town, Zhongmou County, south side of the road",hotel
Hanting Hotel (Zhengzhou East Station East Square Shangding Road Branch),34.755908,113.787360,"Building 4, China Resources Land New Era Plaza, intersection of Shangding Road and Jiayuan Road, Guancheng Hui District, Zhengzhou, China",hotel
Orange Hotel Zhengzhou Provincial Government Mixc Branch,34.771074,113.755528,"Southwest corner of the intersection of Zhengguang North Street and Dehou Street, Zhengdong New District, Zhengzhou, Meijian Building, East Unit of Block B, partial area on the 1st floor, and 3-14 floors",hotel
Orange Hotel Zhengzhou Zhengdong New District Convention and Exhibition Center,34.779780,113.702020,"No. 119 Hongzhuan Road, Jinshui District, Zhengzhou",hotel
Xinzheng International Airport,34.528476,113.856808,"No. 1 Yingbin Avenue, Zhengzhou Airport Economic Zone",airport
Zhoushuizi Airport,38.964154,121.542585,No. 100 Yingke Road,airport
Lishe International Airport,29.821287,121.466363,Konggang Avenue,airport
Baiyun International Airport,23.387375,113.307392,"No. 888 East Airport Avenue, Huadong Town",airport
Zhengzhou East Station,34.759081,113.779558,No. 199 Xinyi Road,train_station
Ningbo Station,29.861949,121.536631,No. 19 South Station East Road,train_station
Hefei South Station,31.797955,117.290331,Between Huizhou Avenue and Luzhou Avenue,train_station
Zhengzhou Aviation Port Station,34.486036,113.932772,"West side of National Highway 107, Sanguanmiao, Airport Economic Zone",train_station
Fuyang West Station,34.744948,113.425242,Yulong Subdistrict,train_station
Xinzheng Airport Station,34.525290,113.854665,"B2 Floor, Terminal 2, Zhengzhou Xinzheng International Airport, Airport Economic Zone",train_station
Hangzhou East Station,34.759081,113.779558,No. 199 Xinyi Road,train_station
Xuancheng Station,30.947421,118.774463,No. 110 Diezhang East Road,train_station
Wuhu Station,31.347988,118.391536,Station East Road,train_station
Nanjing South Station,34.697547,113.659600,Southeast corner of the intersection of South Third Ring Road and Jingguang South Road,train_station
Huainan South Station,29.861949,121.536631,No. 19 South Station East Road,train_station
Yiwei Mountain House Vegetarian Restaurant (Official Store of Songshan Shaolin Scenic Area),34.513012,112.952106,,restaurant
Shaolin Service Area Express Restaurant,34.427016,112.929723,,restaurant
Zenwu Grand Hotel - Chinese Restaurant,34.471305,113.017117,,restaurant
Songshan Extraordinary Water Banquet Cultural Restaurant,34.449754,113.018493,,restaurant
Yunshe Tea Restaurant,34.468766,113.028504,,restaurant
Western Restaurant,34.768817,113.933939,,restaurant
Ultraman Theme Restaurant Monster Store,34.789259,113.986234,,restaurant
Ultraman Theme Restaurant - Hero Store,34.786826,113.988821,,restaurant
Zhongmu Yang's Big Plate Chicken Small Restaurant,34.756800,113.944461,,restaurant
Brothers Gourmet Small Restaurant,34.805008,113.919082,,restaurant
Old Local Flavor Roasted Whole Lamb,34.902822,113.633591,,restaurant
Fusion Restaurant (Yifeng Forest Lake Branch),34.897770,113.618020,,restaurant
Vegetable Basket Sister Eco-Organic Restaurant,34.897676,113.617674,,restaurant
Zhengzhou Xinzheng International Airport,34.528476,113.856808,"No. 1 Yingbin Avenue, Zhengzhou Airport Economic Zone",airport
Ningbo Lishe International Airport,29.821287,121.466363,Konggang Avenue,airport
Zhengzhou Xinzheng Airport Station,34.525290,113.854665,"B2 Floor, Terminal 2, Zhengzhou Xinzheng International Airport, Airport Economic Zone",train_station
Huangjuewei Convenient Restaurant (Rongan Shijia Branch),29.860538,121.536445,,restaurant
Fish Come Fish Go Restaurant,29.862175,121.539025,,restaurant
Fubang Grand Hotel - Sunday Eight Western Restaurant,29.863910,121.538790,,restaurant
Xiao Duomi Korean Restaurant,29.864725,121.537875,,restaurant
Mingyi Restaurant (Mayuanfang Business Building Store),29.864964,121.537985,,restaurant
People Come and Go Gourmet Restaurant,29.825749,121.476645,,restaurant
Shiyi Hotel Seafood Restaurant,29.830943,121.471005,,restaurant
Senkai Restaurant,29.823596,121.485451,,restaurant
Backyard Tea Restaurant (New Dongyi SPACE Branch),34.779601,113.699724,,restaurant
Hu Lamb Chops · Shrimp Hot Pot · Nutrition Restaurant (Hongqi Road),34.777006,113.702984,,restaurant
Yuanwei Fusion Tea Restaurant,34.778131,113.706295,,restaurant
Shisui Hot Pot Restaurant (Future Road Branch),34.771161,113.707663,,restaurant
Meilun Chinese Restaurant (Future Road Branch),34.773957,113.708770,,restaurant
Futures Restaurant (Future Building Branch),34.769968,113.708708,,restaurant
Future Hotel · Golden Future Restaurant,34.769025,113.707177,,restaurant
Chaozhou Tea Restaurant,34.723058,113.748498,,restaurant
Liu Yang and Barbecue (Second Avenue Branch),34.723605,113.743651,,restaurant
Management Committee Restaurant,34.721704,113.743254,,restaurant
Quanxin Beiai Baby Restaurant (Dennis Hanghai Tiandi Branch),34.721934,113.739210,,restaurant
Zhuli Tea Restaurant (Xinghua Building Block B),34.717975,113.741775,,restaurant
Thai Cheng Xing Thai Fusion Restaurant (Renzhai North Street Branch),34.770650,113.668814,,restaurant
Old Courtyard Restaurant,34.769141,113.670762,,restaurant
Zhengzhou University Second Affiliated Hospital Main Campus Nutrition Restaurant,34.766250,113.670538,,restaurant
Harbor Leisure & Entertainment Restaurant - Romantic Leisure Couple's Meal,34.772217,113.666670,,restaurant
Fuxiangyue Restaurant,34.773575,113.669409,,restaurant
Jinshan Yushui Tea Restaurant (Zhengshang Dongfang Gangwan Branch),34.748100,113.763304,,restaurant
Xiaoling Western Restaurant (Retro American Theme) Halal,34.743902,113.759606,,restaurant
Momo & Han Western Food · Desserts · Birthday Party,34.743317,113.759315,,restaurant
Chenghuang Temple,34.752061,113.686977,,attraction
Henan University Affiliated Zhengzhou First People's Hospital · Nutrition Restaurant,34.750370,113.685219,,restaurant
Henan Provincial TCM Research Institute Affiliated Hospital Restaurant,34.755083,113.685722,,restaurant
Old Wu's Meow Cafe Restaurant (New World Department Store Branch),34.752925,113.682675,,restaurant
Mama Restaurant (Chengdong Road Store),34.748675,113.691225,,restaurant
Minyu Chinese Restaurant (Jinduo Yinduo Jewelry Store),34.748684,113.681630,,restaurant
Zhen Yuchuan Banquet Center,34.747760,113.691761,,restaurant
Erguang Restaurant,34.757454,113.691651,,restaurant
Song Laosan Su Meat and Lamb Soup Old Shop,34.751635,113.677244,,restaurant
Jingxinyuan Restaurant,34.757702,113.678788,,restaurant
Yellow River Museum,34.871840,113.677764,,attraction
Zhang Zhanggui Goose Burger,34.870717,113.670712,,restaurant
Datang Restaurant Shrimp Dumpling Specialty Store (Yingbin Road Branch),34.871556,113.665047,,restaurant
Radisson Blu Hotel Zhengzhou - Pin Buffet Restaurant,34.859568,113.678526,,restaurant
Zhengzhou Normal University East Campus Jingxinyuan Restaurant,34.863435,113.659282,,restaurant
Ruyi Lake Scenic Area,34.772895,113.724204,,attraction
No. 5 Restaurant (Henan International Chamber of Commerce Building Branch),34.770632,113.719294,,restaurant
Huayu Sichuan Restaurant (Dennis Seven Worlds Branch),34.777780,113.722674,,restaurant
Dexian Zhijian · Teahouse · Ecological Xinyang Cuisine (CBD Branch),34.774628,113.718260,,restaurant
Zhengzhou Shangdu National Archaeological Site Park,34.753775,113.690498,,attraction
Yutong Retired Staff Restaurant (Yutong Garden Zhengbian Road No. 42 Courtyard Branch),34.747100,113.697080,,restaurant
Zhengdong New District CBD,34.769100,113.753400,,attraction
Third Hospital Nutrition Restaurant,34.767625,113.751240,,restaurant
Hairong Grand Hotel Western Restaurant,34.768486,113.749551,,restaurant
Xinshi Lin Holiday Hotel - Element Restaurant,34.771175,113.757935,,restaurant
Sheraton Grand Zhengzhou Hotel - Feast Signature Restaurant,34.764000,113.754711,,restaurant
Sheng·Xingting Steakhouse,34.763882,113.754664,,restaurant
Tianmingfang Five-Flavored Medicinal Cuisine Restaurant,34.772309,113.759111,,restaurant
Song Style Banquet · Song Culture Restaurant (Shangzuo Center Branch),34.763443,113.756145,,restaurant
Beilong Lake Wetland Park,34.812300,113.789100,,attraction
Twin Seasons Dessert Fusion Restaurant (Yaoqiao Community North Courtyard Branch),34.813115,113.795071,,restaurant
Xuan Ge Music Restaurant & Bar,34.809266,113.793947,,restaurant
Shijianli Fusion Restaurant,34.818459,113.794111,,restaurant
Lakeside Restaurant,34.803494,113.786967,,restaurant
Coarse Grain Kitchen Lamb Skewers and Stir-Fried Chicken,34.809780,113.800337,,restaurant
Enjoy Hundred Flavors Hotpot Buffet for 29 Yuan (Shigeng Community Branch) (Temporarily Closed),34.808834,113.797840,,restaurant
Erqi Memorial Hall,34.752186,113.666494,,attraction
