restaurant_name,city,latitude,longitude,price_per_person,cuisine,opening_time,closing_time,nearby_attraction_name,nearby_attraction_coords,query_latitude,query_longitude,rating,tags
Hengwang Self-Service Restaurant,Guangzhou,23.083208,113.431319,100.0,Chinese Restaurant;Chinese Restaurant,11:00,20:30,Huangpu Military Academy Memorial Site,"113.424710,23.086062",23.086062,113.424710,3.9,Must-Eat Top 10
Huayi Tea Restaurant,Guangzhou,23.074308,113.425782,49.0,Food Service Related;Food Service Related,11:00,21:00,Huangpu Military Academy Memorial Site,"113.424710,23.086062",23.086062,113.424710,3.9,Outdoor Seating;Birthday Package
Changzhou Family Farmhouse Restaurant (Jinzhou North Road Branch),Guangzhou,23.074295,113.425732,96.0,Chinese Restaurant;Chinese Restaurant|商务住宅;商务住宅相关;商务住宅相关,11:00,21:00,Huangpu Military Academy Memorial Site,"113.424710,23.086062",23.086062,113.424710,4.1,Birthday Package
Lung Kee Hong Kong-Style Tea Restaurant (Changzhou Island Branch),Guangzhou,23.074165,113.416949,42.0,Fast Food Restaurant;Tea Restaurant,10:30,20:30,Huangpu Military Academy Memorial Site,"113.424710,23.086062",23.086062,113.424710,4.4,Private Room
Liangcheng Shengyan Restaurant,Guangzhou,23.095602,113.438176,433.0,Chinese Restaurant;Chinese Restaurant,10:00,22:00,Huangpu Military Academy Memorial Site,"113.424710,23.086062",23.086062,113.424710,4.6,Online Queue
Xinzhou Restaurant,Guangzhou,23.088022,113.407714,100.0,Chinese Restaurant;Chinese Restaurant,11:00,21:00,Huangpu Military Academy Memorial Site,"113.424710,23.086062",23.086062,113.424710,3.9,Must-Eat Top 10;Waiting Area
RICK BELLA Restaurant (Yuzhu Port North District Branch),Guangzhou,23.101556,113.419258,134.0,Foreign Restaurant;Italian Restaurant,11:00,24:00,Huangpu Military Academy Memorial Site,"113.424710,23.086062",23.086062,113.424710,4.6,Must-Eat Top 10;Private Room
Dalinyuan Refined Chaozhou Cuisine (Guangzhou First Branch),Guangzhou,23.101671,113.418249,349.0,Chinese Restaurant;Chinese Restaurant,17:00,21:00,Huangpu Military Academy Memorial Site,"113.424710,23.086062",23.086062,113.424710,4.2,Online Queue
Changzhou Island Tent Restaurant,Guangzhou,23.068401,113.425651,84.0,Chinese Restaurant;Chinese Restaurant,11:00,21:00,Huangpu Military Academy Memorial Site,"113.424710,23.086062",23.086062,113.424710,4.1,Private Room;Waiting Area
Song Ji Restaurant,Guangzhou,23.101548,113.415402,100.0,Chinese Restaurant;Chinese Restaurant,11:00,21:00,Huangpu Military Academy Memorial Site,"113.424710,23.086062",23.086062,113.424710,4.0,Outdoor Seating;Online Queue
Jingbao Restaurant · Established in 1994,Guangzhou,23.125349,113.268271,32.0,Chinese Restaurant;Chinese Restaurant,10:30,22:00,Millennium Ancient Path Ruins,"113.268844,23.124873",23.124873,113.268844,3.8,Must-Eat Top 10;Online Queue
"Sunset Gourmet Micro Restaurant - Day Café, Night Bar",Guangzhou,23.125125,113.269625,100.0,Chinese Restaurant;Chinese Restaurant,11:00,21:00,Millennium Ancient Path Ruins,"113.268844,23.124873",23.124873,113.268844,2.9,Must-Eat Top 10
Green Island Western Restaurant · Birthday Theme Restaurant (New Dashin Department Store Branch),Guangzhou,23.125801,113.268465,94.0,Foreign Restaurant;Foreign Restaurant,11:00,21:00,Millennium Ancient Path Ruins,"113.268844,23.124873",23.124873,113.268844,4.2,Outdoor Seating;Private Room
Taiping Guan (Beijing Road Branch),Guangzhou,23.126347,113.268959,111.0,Foreign Restaurant;Western Restaurant,11:00,22:00,Millennium Ancient Path Ruins,"113.268844,23.124873",23.124873,113.268844,4.3,Private Room;Birthday Package
Weiyuan Canteen (Beijing Road Branch),Guangzhou,23.124060,113.270218,40.0,Food Service Related;Food Service Related,10:30,21:00,Millennium Ancient Path Ruins,"113.268844,23.124873",23.124873,113.268844,4.6,Private Room
Bazhen Restaurant (Guangda Road Branch),Guangzhou,23.126140,113.267649,26.0,Chinese Restaurant;Chinese Restaurant,07:00,21:00,Millennium Ancient Path Ruins,"113.268844,23.124873",23.124873,113.268844,4.4,Must-Eat Top 10
DimDouDe (Beijing Road Second Branch),Guangzhou,23.126571,113.268955,60.0,Chinese Restaurant;Chinese Restaurant,16:30,21:00,Millennium Ancient Path Ruins,"113.268844,23.124873",23.124873,113.268844,4.7,Waiting Area
Cheese Castle Italian Pasta Restaurant (Old Brand Street Branch),Guangzhou,23.126345,113.267659,58.0,Foreign Restaurant;Italian Restaurant,11:00,21:00,Millennium Ancient Path Ruins,"113.268844,23.124873",23.124873,113.268844,4.6,Birthday Package
Wang Ye Ice Room (Junyi Hui Branch),Guangzhou,23.123499,113.267525,51.0,Cold Beverage Shop;Cold Beverage Shop,10:30,22:30,Millennium Ancient Path Ruins,"113.268844,23.124873",23.124873,113.268844,4.2,Online Queue
Green Tea Restaurant (Guangzhou Yuexiu Mayflower Branch),Guangzhou,23.125839,113.267017,60.0,Chinese Restaurant;Chinese Restaurant,10:00,22:00,Millennium Ancient Path Ruins,"113.268844,23.124873",23.124873,113.268844,4.7,Waiting Area
Tai Heng Ice Room (Wanling Plaza Branch),Guangzhou,23.114886,113.262822,37.0,Fast Food Restaurant;Tea Restaurant|Cold Beverage Shop;Cold Beverage Shop,08:00,21:00,Sacred Heart Cathedral of Guangzhou,"113.260262,23.114589",23.114589,113.260262,4.3,Online Queue
Sheng Kee Seafood Restaurant,Guangzhou,23.111838,113.261435,459.0,Chinese Restaurant;Seafood Restaurant,11:00,24:00,Sacred Heart Cathedral of Guangzhou,"113.260262,23.114589",23.114589,113.260262,4.2,Outdoor Seating;Birthday Package
Datai Tea Restaurant (Haizhu Square Branch),Guangzhou,23.112610,113.262807,30.0,Fast Food Restaurant;Fast Food Restaurant,09:30,21:30,Sacred Heart Cathedral of Guangzhou,"113.260262,23.114589",23.114589,113.260262,4.4,Online Queue
Yang Kee Tea Restaurant,Guangzhou,23.113892,113.256611,26.0,Fast Food Restaurant;Tea Restaurant,07:00,21:00,Sacred Heart Cathedral of Guangzhou,"113.260262,23.114589",23.114589,113.260262,4.2,Must-Eat Top 10;Birthday Package
Kowloon Ice Room (Guangzhou Starry Mall Branch),Guangzhou,23.114047,113.264026,32.0,Food Service Related;Food Service Related,10:00,22:00,Sacred Heart Cathedral of Guangzhou,"113.260262,23.114589",23.114589,113.260262,4.3,Outdoor Seating;Birthday Package
DimDouDuk (Xinghuan Branch),Guangzhou,23.113551,113.264038,100.0,Chinese Restaurant;Chinese Restaurant,08:00,21:00,Sacred Heart Cathedral of Guangzhou,"113.260262,23.114589",23.114589,113.260262,4.6,Must-Eat Top 10
Yipinxuan Hainanese Chicken Rice (Changdi Branch),Guangzhou,23.111040,113.258709,16.0,Fast Food Restaurant;Fast Food Restaurant,08:00,21:00,Sacred Heart Cathedral of Guangzhou,"113.260262,23.114589",23.114589,113.260262,4.2,Must-Eat Top 10;Outdoor Seating
Haxnbauer German Restaurant (Guangzhou Starry Mall Branch),Guangzhou,23.113636,113.264520,139.0,Foreign Restaurant;German Cuisine,10:00,22:00,Sacred Heart Cathedral of Guangzhou,"113.260262,23.114589",23.114589,113.260262,4.4,Private Room;Waiting Area
Haiguanglou Cantonese Cuisine Restaurant,Guangzhou,23.116348,113.264768,76.0,Chinese Restaurant;Chinese Restaurant,17:00,21:30,Sacred Heart Cathedral of Guangzhou,"113.260262,23.114589",23.114589,113.260262,4.1,Online Queue
Hakka Restaurant (Gaodi West Shoe Street Branch),Guangzhou,23.118181,113.263428,56.0,Chinese Restaurant;Cantonese Cuisine,17:30,22:00,Sacred Heart Cathedral of Guangzhou,"113.260262,23.114589",23.114589,113.260262,3.9,Must-Eat Top 10;Birthday Package
Tao Tao Ju Restaurant (Jiefang North Road Branch),Guangzhou,23.133583,113.261670,106.0,Chinese Restaurant;Chinese Restaurant,17:00,21:00,Sun Yat-sen Memorial Hall,"113.264692,23.132860",23.132860,113.264692,4.5,Waiting Area
Kaisar Xinjiang Restaurant,Guangzhou,23.134685,113.261613,86.0,Chinese Restaurant;Halal Restaurant,10:00,23:00,Sun Yat-sen Memorial Hall,"113.264692,23.132860",23.132860,113.264692,3.6,Private Room
YuZhi · Wine-Themed Fusion Restaurant (Beijing Road Branch),Guangzhou,23.131136,113.261513,137.0,Chinese Restaurant;Chinese Restaurant,11:00,22:00,Sun Yat-sen Memorial Hall,"113.264692,23.132860",23.132860,113.264692,4.3,Online Queue
Fuxi Hong Kong-style Tea House (Yuexiu Branch),Guangzhou,23.133575,113.260425,100.0,Fast Food Restaurant;Fast Food Restaurant,11:00,21:00,Sun Yat-sen Memorial Hall,"113.264692,23.132860",23.132860,113.264692,2.8,Birthday Package
Tai Tai Tea Restaurant (Galaxy Asian Financial Center Branch),Guangzhou,23.132695,113.259374,100.0,Fast Food Restaurant;Fast Food Restaurant,11:00,21:00,Sun Yat-sen Memorial Hall,"113.264692,23.132860",23.132860,113.264692,3.6,Outdoor Seating;Private Room
Sofu Tea Restaurant (Asia Financial Center Branch),Guangzhou,23.132560,113.259242,37.0,Fast Food Restaurant;Tea Restaurant,11:00,21:30,Sun Yat-sen Memorial Hall,"113.264692,23.132860",23.132860,113.264692,4.4,Birthday Package
Cantonese Flavor (Jiefang North Road Branch),Guangzhou,23.137298,113.262015,40.0,Chinese Restaurant;Chinese Restaurant,11:00,20:30,Sun Yat-sen Memorial Hall,"113.264692,23.132860",23.132860,113.264692,4.2,Must-Eat Top 10;Private Room
Green Bamboo Tea Restaurant,Guangzhou,23.130588,113.259629,21.0,Fast Food Restaurant;Tea Restaurant,11:00,20:00,Sun Yat-sen Memorial Hall,"113.264692,23.132860",23.132860,113.264692,4.2,Outdoor Seating
Casual Tea Restaurant,Guangzhou,23.130588,113.259456,23.0,Fast Food Restaurant;Fast Food Restaurant,10:30,20:30,Sun Yat-sen Memorial Hall,"113.264692,23.132860",23.132860,113.264692,4.2,Must-Eat Top 10
Zhou Zhi Ji Tea Restaurant (Guangren Road Branch),Guangzhou,23.128350,113.267806,20.0,Fast Food Restaurant;Tea Restaurant,10:00,20:30,Sun Yat-sen Memorial Hall,"113.264692,23.132860",23.132860,113.264692,4.3,Waiting Area
Yunshan Drunken Restaurant (Minghui Branch),Guangzhou,23.114582,113.247940,49.0,Chinese Restaurant;Chinese Restaurant,11:00,21:00,Shangxiajiu Pedestrian Street,"113.246895,23.114228",23.114228,113.246895,3.8,Private Room
Saizeriya Italian Restaurant (002 Shangxiajiu Branch),Guangzhou,23.114666,113.248337,40.0,Foreign Restaurant;Italian Restaurant,11:00,22:00,Shangxiajiu Pedestrian Street,"113.246895,23.114228",23.114228,113.246895,4.8,Outdoor Seating;Private Room
Kowloon Tea Restaurant · World Culinary Master Chef Restaurant (Tokyu New World Shopping Plaza Branch),Guangzhou,23.114505,113.248544,100.0,Fast Food Restaurant;Tea Restaurant,11:00,22:00,Shangxiajiu Pedestrian Street,"113.246895,23.114228",23.114228,113.246895,4.1,Private Room
Shifuxuan Chinese Restaurant (Shifu Mingdu Mall Branch),Guangzhou,23.113319,113.245509,70.0,Chinese Restaurant;Chinese Restaurant,11:00,21:00,Shangxiajiu Pedestrian Street,"113.246895,23.114228",23.114228,113.246895,4.1,Must-Eat Top 10
Guangzhou Shifu voco Hotel · TOCO Cafe · Giant Mouth Buffet Restaurant,Guangzhou,23.113153,113.245444,100.0,Accommodation Related;Accommodation Related,11:00,21:00,Shangxiajiu Pedestrian Street,"113.246895,23.114228",23.114228,113.246895,4.1,Must-Eat Top 10;Private Room
Xi Chuan Music Bar,Guangzhou,23.113075,113.245125,100.0,Chinese Restaurant;Chinese Restaurant,19:30,03:00,Shangxiajiu Pedestrian Street,"113.246895,23.114228",23.114228,113.246895,3.5,Waiting Area;Online Queue
Tao Tao Ju Restaurant (Dishifu Road Branch),Guangzhou,23.113365,113.242484,51.0,Chinese Restaurant;Cantonese Cuisine,08:00,21:00,Shangxiajiu Pedestrian Street,"113.246895,23.114228",23.114228,113.246895,4.6,Must-Eat Top 10;Private Room
Wenji Yixin Chicken,Guangzhou,23.115184,113.241926,54.0,Chinese Restaurant;Chinese Restaurant,17:00,21:00,Shangxiajiu Pedestrian Street,"113.246895,23.114228",23.114228,113.246895,4.3,Must-Eat Top 10;Online Queue
Chen Tian Ji,Guangzhou,23.114907,113.241602,20.0,Chinese Restaurant;Chinese Restaurant,10:00,22:00,Shangxiajiu Pedestrian Street,"113.246895,23.114228",23.114228,113.246895,4.3,Birthday Package
Kin Kee Noodle Shop (Yi Fu Noodles),Guangzhou,23.118214,113.250498,11.0,Chinese Restaurant;Chinese Restaurant,06:30,20:00,Shangxiajiu Pedestrian Street,"113.246895,23.114228",23.114228,113.246895,4.3,Must-Eat Top 10
gaga Central (Taikoo Hui Flagship Store),Guangzhou,23.134451,113.332881,131.0,Foreign Restaurant;Western Restaurant,10:00,21:30,Taikoo Hui,"113.332479,23.134218",23.134218,113.332479,4.5,Waiting Area
Jade Garden (Taikoo Hui Branch),Guangzhou,23.133972,113.332932,234.0,Chinese Restaurant;Cantonese Cuisine,09:00,22:00,Taikoo Hui,"113.332479,23.134218",23.134218,113.332479,4.3,Online Queue
PUTIEN Restaurant (Tianhe Taikoo Hui Branch),Guangzhou,23.133982,113.331318,119.0,Chinese Restaurant;Chinese Restaurant,11:00,21:30,Taikoo Hui,"113.332479,23.134218",23.134218,113.332479,4.6,Outdoor Seating;Private Room
Saizeriya Italian Restaurant (242 Shipaiqiao Branch),Guangzhou,23.132920,113.332130,39.0,Foreign Restaurant;Italian Restaurant,10:00,21:30,Taikoo Hui,"113.332479,23.134218",23.134218,113.332479,4.5,Outdoor Seating
Zhang Zhengfa Tea Restaurant (Guangzhou Tianhe Branch),Guangzhou,23.132694,113.332189,28.0,Fast Food Restaurant;Fast Food Restaurant,11:00,21:00,Taikoo Hui,"113.332479,23.134218",23.134218,113.332479,3.9,Outdoor Seating
Brother Pig Coffee Restaurant (Taikoo Hui Branch),Guangzhou,23.133774,113.330771,41.0,Chinese Restaurant;Cantonese Cuisine,10:30,21:30,Taikoo Hui,"113.332479,23.134218",23.134218,113.332479,4.5,Birthday Package
Sunny Grounds Western Kitchen,Guangzhou,23.132186,113.331902,78.0,Foreign Restaurant;Foreign Restaurant,11:00,22:00,Taikoo Hui,"113.332479,23.134218",23.134218,113.332479,4.1,Waiting Area;Birthday Package
Wait for Me Seafood Food Stall (Tianhe South Branch),Guangzhou,23.132189,113.331517,140.0,Chinese Restaurant;Seafood Restaurant,17:00,01:00,Taikoo Hui,"113.332479,23.134218",23.134218,113.332479,4.7,Outdoor Seating
Stone Slab Street Hong Kong-Macau Restaurant (Onelink Walk Branch),Guangzhou,23.132824,113.330010,62.0,Chinese Restaurant;Chinese Restaurant,10:00,22:00,Taikoo Hui,"113.332479,23.134218",23.134218,113.332479,4.4,Must-Eat Top 10
Biaoshao Tea Restaurant (Tianhe South Branch),Guangzhou,23.131451,113.333356,50.0,Fast Food Restaurant;Fast Food Restaurant,11:00,21:00,Taikoo Hui,"113.332479,23.134218",23.134218,113.332479,4.3,Outdoor Seating
Yuexiu Park. Yundao Soup Garden Restaurant,Guangzhou,23.141657,113.268382,100.0,Chinese Restaurant;Chinese Restaurant,17:00,02:00,Yuexiu Park,"113.265561,23.140096",23.140096,113.265561,4.0,Must-Eat Top 10;Outdoor Seating
Green Island Western Restaurant · Birthday Theme · Lawn Terrace Restaurant,Guangzhou,23.142096,113.268446,70.0,Foreign Restaurant;Foreign Restaurant,11:00,10:00,Yuexiu Park,"113.265561,23.140096",23.140096,113.265561,4.6,Private Room
Kowloon Ice Room (China Hotel Branch),Guangzhou,23.139943,113.260837,50.0,Chinese Restaurant;Chinese Restaurant,10:00,22:00,Yuexiu Park,"113.265561,23.140096",23.140096,113.265561,4.3,Waiting Area;Birthday Package
Huachengli · Mosshang Huakai,Guangzhou,23.138076,113.269909,79.0,Foreign Restaurant;Western Restaurant,11:00,20:30,Yuexiu Park,"113.265561,23.140096",23.140096,113.265561,4.5,Outdoor Seating;Private Room
Meat Times Restaurant · Mitan Restaurant,Guangzhou,23.141163,113.270362,117.0,Food Service Related;Food Service Related,10:00,24:00,Yuexiu Park,"113.265561,23.140096",23.140096,113.265561,4.1,Must-Eat Top 10;Birthday Package
Keming Ice Room,Guangzhou,23.140969,113.260656,100.0,Fast Food Restaurant;Tea Restaurant,11:00,21:00,Yuexiu Park,"113.265561,23.140096",23.140096,113.265561,4.0,Online Queue
Harriman Restaurant,Guangzhou,23.141023,113.270484,17.0,Chinese Restaurant;Halal Restaurant,11:30,24:00,Yuexiu Park,"113.265561,23.140096",23.140096,113.265561,3.8,Online Queue
Keming Ice Room (Guangzhou Chengyi Hui · Liuhua Branch),Guangzhou,23.141229,113.260475,48.0,Fast Food Restaurant;Tea Restaurant|Cold Beverage Shop;Cold Beverage Shop,11:00,21:00,Yuexiu Park,"113.265561,23.140096",23.140096,113.265561,4.2,Private Room;Online Queue
China Hotel - Liyang Restaurant (Liuhua Road Branch),Guangzhou,23.140133,113.259995,100.0,Chinese Restaurant;Chinese Restaurant,11:00,21:00,Yuexiu Park,"113.265561,23.140096",23.140096,113.265561,4.1,Waiting Area
Ho Lan Zheng · Thai Tea Restaurant (Beijing Road Branch),Guangzhou,23.121068,113.267693,100.0,Food Service Related;Food Service Related,11:00,22:00,Beijing Road Pedestrian Street,"113.267679,23.120946",23.120946,113.267679,4.7,Outdoor Seating
Fenglai Fresh Coconut Chicken Theme Restaurant (Beijing Road Branch),Guangzhou,23.121033,113.267523,56.0,Chinese Restaurant;Chinese Restaurant,11:00,24:00,Beijing Road Pedestrian Street,"113.267679,23.120946",23.120946,113.267679,4.5,Birthday Package
Wentong Ice Room (Beijing Road Branch),Guangzhou,23.120918,113.266893,57.0,Chinese Restaurant;Cantonese Cuisine,10:30,22:30,Beijing Road Pedestrian Street,"113.267679,23.120946",23.120946,113.267679,4.5,Outdoor Seating;Waiting Area
Big Head Shrimp Vietnamese Cuisine (Guangming Plaza Branch),Guangzhou,23.121692,113.267495,100.0,Foreign Restaurant;泰国/越南菜品餐厅,11:00,22:00,Beijing Road Pedestrian Street,"113.267679,23.120946",23.120946,113.267679,4.7,Private Room;Waiting Area
Mu Ke Flower House (Beijing Road Branch),Guangzhou,23.120698,113.268698,75.0,Chinese Restaurant;Chinese Restaurant,11:30,21:30,Beijing Road Pedestrian Street,"113.267679,23.120946",23.120946,113.267679,4.8,Waiting Area
Yongying Tea Restaurant (Huifu East Branch),Guangzhou,23.121535,113.268576,36.0,Fast Food Restaurant;Tea Restaurant,07:00,23:59,Beijing Road Pedestrian Street,"113.267679,23.120946",23.120946,113.267679,4.3,Must-Eat Top 10
Public Canteen Korean Cuisine (Beijing Road Pedestrian Street Branch),Guangzhou,23.120519,113.268863,67.0,Foreign Restaurant;韩国料理,11:30,21:30,Beijing Road Pedestrian Street,"113.267679,23.120946",23.120946,113.267679,4.4,Private Room;Online Queue
Yue Xiaoman (Guangming Plaza Branch),Guangzhou,23.122225,113.267375,62.0,Fast Food Restaurant;Fast Food Restaurant,11:00,22:00,Beijing Road Pedestrian Street,"113.267679,23.120946",23.120946,113.267679,4.2,Outdoor Seating
Auntie Beef Offal,Guangzhou,23.120272,113.268924,20.0,Fast Food Restaurant;Fast Food Restaurant,12:00,23:00,Beijing Road Pedestrian Street,"113.267679,23.120946",23.120946,113.267679,4.4,Waiting Area
Twin Treasures Restaurant (Beijing Road Branch),Guangzhou,23.121331,113.269182,62.0,Chinese Restaurant;Chinese Restaurant,11:00,22:00,Beijing Road Pedestrian Street,"113.267679,23.120946",23.120946,113.267679,4.1,Private Room;Waiting Area
MansionC Mansen Si Restaurant,Guangzhou,23.127180,113.285253,150.0,Foreign Restaurant;Foreign Restaurant,11:00,21:00,Dongshankou Arts District,"113.286000,23.129000",23.129000,113.286000,3.9,Private Room;Waiting Area
Big Orange Fat Cat Tea Restaurant (Future City Branch),Guangzhou,23.126484,113.284485,100.0,Fast Food Restaurant;Fast Food Restaurant,10:30,21:30,Dongshankou Arts District,"113.286000,23.129000",23.129000,113.286000,4.5,Outdoor Seating;Online Queue
Kowloon Ice Room (Future City Branch),Guangzhou,23.127187,113.283287,46.0,Chinese Restaurant;Sichuan Cuisine,07:00,21:30,Dongshankou Arts District,"113.286000,23.129000",23.129000,113.286000,3.9,Online Queue
Nanxiong Xiongzhou Local Cuisine Restaurant (Yuebei Building Branch),Guangzhou,23.131419,113.283697,72.0,Fast Food Restaurant;Fast Food Restaurant,16:30,21:00,Dongshankou Arts District,"113.286000,23.129000",23.129000,113.286000,4.4,Must-Eat Top 10
Kowloon Ice Room (Guangzhou Hero Plaza Branch),Guangzhou,23.125920,113.284598,41.0,Food Service Related;Food Service Related,10:30,21:00,Dongshankou Arts District,"113.286000,23.129000",23.129000,113.286000,4.6,Waiting Area;Online Queue
Shengke Tea House (Wufu Commercial Building Branch),Guangzhou,23.132201,113.288402,97.0,Chinese Restaurant;Chinese Restaurant,06:00,23:30,Dongshankou Arts District,"113.286000,23.129000",23.129000,113.286000,4.3,Birthday Package
Guangdong Provincial People's Hospital Staff Canteen,Guangzhou,23.124901,113.287533,16.0,Chinese Restaurant;Chinese Restaurant,17:00,18:30,Dongshankou Arts District,"113.286000,23.129000",23.129000,113.286000,3.9,Private Room;Birthday Package
Saizeriya Italian Restaurant (Zhonghua Plaza Branch),Guangzhou,23.125876,113.282639,37.0,Food Service Related;Food Service Related,10:00,22:00,Dongshankou Arts District,"113.286000,23.129000",23.129000,113.286000,4.4,Must-Eat Top 10
Huo Qilin Vegetarian Cuisine Restaurant,Guangzhou,23.126789,113.281801,100.0,Chinese Restaurant;Chinese Restaurant,17:00,21:00,Dongshankou Arts District,"113.286000,23.129000",23.129000,113.286000,3.7,Must-Eat Top 10;Private Room
Mong Kok Tea Restaurant (Risheng Building Branch),Guangzhou,23.133376,113.287225,31.0,Fast Food Restaurant;Tea Restaurant,11:00,21:00,Dongshankou Arts District,"113.286000,23.129000",23.129000,113.286000,4.1,Private Room
Dongfang Hotel - Coffee Mill Buffet Restaurant (Guangzhou Dongfang Hotel Branch),Guangzhou,23.139025,113.258375,250.0,Chinese Restaurant;Chinese Restaurant,11:00,21:00,Museum of the Nanyue King (Tomb Exhibition Area),"113.261015,23.137823",23.137823,113.261015,4.1,Private Room;Online Queue
Peacock Tower Restaurant,Guangzhou,23.138957,113.256959,100.0,Chinese Restaurant;Chinese Restaurant,17:00,22:00,Museum of the Nanyue King (Tomb Exhibition Area),"113.261015,23.137823",23.137823,113.261015,4.1,Birthday Package
Happy Little Lamb Hot Pot Restaurant (Liuhua Branch),Guangzhou,23.141243,113.258321,121.0,Chinese Restaurant;Chinese Restaurant,10:00,22:00,Museum of the Nanyue King (Tomb Exhibition Area),"113.261015,23.137823",23.137823,113.261015,4.6,Online Queue
Fuxi Tea Restaurant,Guangzhou,28.191205,113.012477,74.0,Fast Food Restaurant;Tea Restaurant,07:30,22:00,Changsha Station,"113.014603,28.193580",28.193580,113.014603,4.3,Private Room;Online Queue
South Tea North Rice (KeJia Computer City Branch),Guangzhou,28.192326,113.010582,100.0,Chinese Restaurant;Chinese Restaurant,10:00,24:00,Changsha Station,"113.014603,28.193580",28.193580,113.014603,3.9,Birthday Package;Online Queue
Good Taste Restaurant (Changsha Apartment Branch),Guangzhou,28.190254,113.012442,100.0,Chinese Restaurant;Chinese Restaurant,09:00,22:00,Changsha Station,"113.014603,28.193580",28.193580,113.014603,4.1,Private Room;Online Queue
Xiangwei Song Restaurant,Guangzhou,28.190158,113.012252,28.0,Chinese Restaurant;Hunan Cuisine,04:30,21:00,Changsha Station,"113.014603,28.193580",28.193580,113.014603,4.0,Waiting Area
Zidongge Lotte Hotel (Ziyun Tea Restaurant),Guangzhou,28.197640,113.013476,100.0,Fast Food Restaurant;Tea Restaurant,11:00,21:00,Changsha Station,"113.014603,28.193580",28.193580,113.014603,3.8,Must-Eat Top 10
Chao Yue Xuan Restaurant,Guangzhou,22.988580,113.277198,100.0,Chinese Restaurant;Chinese Restaurant,06:00,01:30,Guangzhou South Station,"113.269097,22.988344",22.988344,113.269097,3.9,Outdoor Seating
Xiangyu Jiawei Restaurant,Guangzhou,22.981550,113.265371,100.0,Chinese Restaurant;Chinese Restaurant,11:00,24:00,Guangzhou South Station,"113.269097,22.988344",22.988344,113.269097,3.7,Must-Eat Top 10;Birthday Package
Chao Garden Restaurant,Guangzhou,22.988778,113.277390,100.0,Fast Food Restaurant;Fast Food Restaurant,11:00,21:00,Guangzhou South Station,"113.269097,22.988344",22.988344,113.269097,3.5,Waiting Area
Station Gourmet Restaurant,Guangzhou,28.145051,113.063126,100.0,Chinese Restaurant;Chinese Restaurant,07:00,19:30,Changsha South Station,"113.065510,28.147093",28.147093,113.065510,3.7,Outdoor Seating
Changsha Country Chef Restaurant,Guangzhou,28.144634,113.071766,100.0,Chinese Restaurant;Chinese Restaurant,09:00,22:00,Changsha South Station,"113.065510,28.147093",28.147093,113.065510,3.7,Must-Eat Top 10;Waiting Area
Changsha Country Chef Barbecue Restaurant,Guangzhou,28.152676,113.060013,100.0,Chinese Restaurant;Chinese Restaurant,00:00,03:00,Changsha South Station,"113.065510,28.147093",28.147093,113.065510,4.1,Private Room
Homestyle Restaurant,Guangzhou,28.153587,113.059848,100.0,Chinese Restaurant;Chinese Restaurant,06:30,22:30,Changsha South Station,"113.065510,28.147093",28.147093,113.065510,4.1,Birthday Package
Hampton by Hilton Changsha South Railway Station · Western Restaurant,Guangzhou,28.142508,113.057616,100.0,Foreign Restaurant;Foreign Restaurant,11:00,21:00,Changsha South Station,"113.065510,28.147093",28.147093,113.065510,4.1,Must-Eat Top 10
Kao Shang Gong Korean Buffet Restaurant (Food City Branch),Guangzhou,23.376713,113.207555,49.0,Chinese Restaurant;Halal Restaurant,10:00,21:00,Guangzhou North Station,"113.203846,23.377273",23.377273,113.203846,3.9,Outdoor Seating;Birthday Package
Yaxin Gourmet (Jincheng Plaza Branch),Guangzhou,23.378887,113.208881,15.0,Chinese Restaurant;Chinese Restaurant,17:00,21:00,Guangzhou North Station,"113.203846,23.377273",23.377273,113.203846,4.2,Must-Eat Top 10;Outdoor Seating
China Hotel Chinese Restaurant,Guangzhou,23.382846,113.203017,100.0,Hotel;三星级宾馆,11:00,21:00,Guangzhou North Station,"113.203846,23.377273",23.377273,113.203846,4.3,Outdoor Seating;Online Queue
Man Mai Lai Thai Restaurant (Guangzhou Eastern Center · Guanghui New World Branch),Guangzhou,23.133988,113.599260,100.0,Foreign Restaurant;Western Restaurant,17:00,22:00,Guangzhou Xintang Station,"113.606262,23.134057",23.134057,113.606262,4.8,Outdoor Seating
Four Seasons Fusion Cuisine Restaurant (Guanghui Tiandi Branch),Guangzhou,23.134272,113.599019,146.0,Chinese Restaurant;Chinese Restaurant,11:00,22:00,Guangzhou Xintang Station,"113.606262,23.134057",23.134057,113.606262,4.3,Birthday Package;Online Queue
MINBURN Mingben · Macau,Guangzhou,23.133767,113.599015,100.0,体育休闲服务场所;体育休闲服务场所,11:00,21:00,Guangzhou Xintang Station,"113.606262,23.134057",23.134057,113.606262,3.8,Online Queue
Guangzhou FENG · Attitude Hotel Restaurant,Guangzhou,23.150938,113.258589,100.0,Chinese Restaurant;Chinese Restaurant,11:00,21:00,Guangzhou Station,"113.257331,23.149243",23.149243,113.257331,3.6,Private Room;Waiting Area
iFUNANYA FOOD (Ifunanya Restaurant),Guangzhou,23.151352,113.256330,100.0,Foreign Restaurant;Foreign Restaurant,11:00,21:00,Guangzhou Station,"113.257331,23.149243",23.149243,113.257331,3.6,Outdoor Seating;Private Room
A Pinch of Salt Restaurant and Café,Guangzhou,23.146393,113.257404,100.0,Food Service Related;Food Service Related,11:00,21:00,Guangzhou Station,"113.257331,23.149243",23.149243,113.257331,3.6,Outdoor Seating;Online Queue
Pullman Guangzhou Baiyun Airport Hotel · Tianyuan Creative Chinese Restaurant,Guangzhou,23.388786,113.303939,195.0,Chinese Restaurant;Cantonese Cuisine,17:30,21:00,Baiyun International Airport,"113.307392,23.387375",23.387375,113.307392,4.3,Outdoor Seating
Pullman Guangzhou Baiyun Airport Hotel · U8 Flavors Restaurant,Guangzhou,23.388920,113.303728,175.0,Foreign Restaurant;Western Restaurant,11:00,21:00,Baiyun International Airport,"113.307392,23.387375",23.387375,113.307392,4.2,Must-Eat Top 10;Waiting Area
Zhongtu Restaurant (Guangzhou Baiyun International Airport Terminal 1),Guangzhou,23.382661,113.305204,100.0,Fast Food Restaurant;Fast Food Restaurant,11:00,21:00,Baiyun International Airport,"113.307392,23.387375",23.387375,113.307392,3.7,Private Room;Birthday Package
Saizeriya Italian Restaurant (299 Baiyun Station Yue Sheng Plaza Area A Branch),Guangzhou,23.191281,113.246364,100.0,Foreign Restaurant;Foreign Restaurant,11:00,21:00,Guangzhou Baiyun Station,"113.246341,23.190910",23.190910,113.246341,4.1,Outdoor Seating
Saizeriya Italian Restaurant (Guangzhou Baiyun Station Branch),Guangzhou,23.192478,113.247958,31.0,Foreign Restaurant;Foreign Restaurant,10:00,22:00,Guangzhou Baiyun Station,"113.246341,23.190910",23.190910,113.246341,4.4,Must-Eat Top 10
Guangzhou Baiyun Station Even Hotel · Balance Restaurant,Guangzhou,23.193638,113.244280,102.0,Food Service Related;Food Service Related,11:00,21:00,Guangzhou Baiyun Station,"113.246341,23.190910",23.190910,113.246341,4.3,Private Room
Hong Kong Flavor Tea Restaurant (Dongjing Garden Branch),Guangzhou,23.122928,113.361741,40.0,Fast Food Restaurant;Tea Restaurant,09:00,23:10,Lavande Hotel · Guangzhou Financial City Tianhe Park Metro Station Branch,"113.361862,23.122901",23.122901,113.361862,4.5,Private Room;Birthday Package
Gongzi Zhou Spicy Flavor Restaurant (Leyayuan Branch),Guangzhou,23.123356,113.360335,93.0,Chinese Restaurant;Chinese Restaurant,17:00,21:30,Lavande Hotel · Guangzhou Financial City Tianhe Park Metro Station Branch,"113.361862,23.122901",23.122901,113.361862,4.7,Private Room;Waiting Area
Langli Restaurant (Tairan Building Branch),Guangzhou,23.124856,113.359089,57.0,Chinese Restaurant;Chinese Restaurant,09:30,21:30,Lavande Hotel · Guangzhou Financial City Tianhe Park Metro Station Branch,"113.361862,23.122901",23.122901,113.361862,4.2,Private Room;Birthday Package
Guangzhou Sunshine Hotel Buffet Restaurant (Yuancun Branch),Guangzhou,23.122510,113.366486,178.0,Foreign Restaurant;Western Restaurant,11:00,21:00,Lavande Hotel · Guangzhou Financial City Tianhe Park Metro Station Branch,"113.361862,23.122901",23.122901,113.361862,4.2,Private Room
Royal Banquet Chinese Restaurant (Guangzhou Sunshine Hotel),Guangzhou,23.122441,113.366540,100.0,Chinese Restaurant;Chinese Restaurant,08:00,20:00,Lavande Hotel · Guangzhou Financial City Tianhe Park Metro Station Branch,"113.361862,23.122901",23.122901,113.361862,4.2,Waiting Area
KFC Drive-Thru Restaurant (Shashan DT Branch),Guangzhou,23.173558,113.340981,100.0,Food Service Related;Food Service Related,11:00,21:00,Home Inn·Neo - Guangzhou Tianhe Bus Station Metro Station Branch,"113.340815,23.173725",23.173725,113.340815,3.7,Outdoor Seating
Cat's Up · Cat-Themed Restaurant,Guangzhou,23.171299,113.340200,29.0,Cafe;Cafe,11:00,20:00,Home Inn·Neo - Guangzhou Tianhe Bus Station Metro Station Branch,"113.340815,23.173725",23.173725,113.340815,4.4,Outdoor Seating
Thai Time · Sunset-Themed Thai Restaurant,Guangzhou,23.172019,113.343226,61.0,Foreign Restaurant;Foreign Restaurant,17:00,21:30,Home Inn·Neo - Guangzhou Tianhe Bus Station Metro Station Branch,"113.340815,23.173725",23.173725,113.340815,4.5,Outdoor Seating
Coconut Enjoyment · Exquisite Coconut Chicken (Tianhe New World Branch),Guangzhou,23.171574,113.343771,86.0,Chinese Restaurant;Hot Pot,10:00,22:00,Home Inn·Neo - Guangzhou Tianhe Bus Station Metro Station Branch,"113.340815,23.173725",23.173725,113.340815,4.1,Waiting Area;Birthday Package
Saizeriya Italian Restaurant (Tianhe New World Branch),Guangzhou,23.171565,113.343926,39.0,Foreign Restaurant;Foreign Restaurant,10:00,22:00,Home Inn·Neo - Guangzhou Tianhe Bus Station Metro Station Branch,"113.340815,23.173725",23.173725,113.340815,4.7,Birthday Package
Xiaoyuanli Restaurant,Guangzhou,23.463175,113.165925,100.0,Chinese Restaurant;Chinese Restaurant,11:00,21:00,Mehood Liz Hotel (Guangzhou Huadu Cultural Tourism City Shiling Branch),"113.166543,23.463106",23.463106,113.166543,3.9,Online Queue
Wanxi Hongchuan Cantonese Restaurant,Guangzhou,23.461010,113.164497,31.0,Chinese Restaurant;Chinese Restaurant,10:00,23:00,Mehood Liz Hotel (Guangzhou Huadu Cultural Tourism City Shiling Branch),"113.166543,23.463106",23.463106,113.166543,4.2,Must-Eat Top 10;Private Room
Hunan Flavor Restaurant (Xianghe Street Branch),Guangzhou,23.459836,113.165743,100.0,Chinese Restaurant;Local Specialty Restaurant,09:00,21:00,Mehood Liz Hotel (Guangzhou Huadu Cultural Tourism City Shiling Branch),"113.166543,23.463106",23.463106,113.166543,3.5,Must-Eat Top 10;Waiting Area
Northwest Valley Tea Restaurant,Guangzhou,23.141476,113.272774,141.0,Fast Food Restaurant;Tea Restaurant,12:00,01:30,Vattos Hotel Apartment (Guangzhou Beijing Road Pedestrian Street Yuexiu Park Branch),"113.270371,23.141297",23.141297,113.270371,4.2,Online Queue
Khushboo Restaurant,Guangzhou,23.149832,113.262173,52.0,Chinese Restaurant;Chinese Restaurant,11:00,21:00,Hampton by Hilton Guangzhou Railway Station,"113.262023,23.150488",23.150488,113.262023,4.0,Private Room;Waiting Area
Hampton by Hilton · Hampton Restaurant,Guangzhou,23.149500,113.262126,100.0,Chinese Restaurant;Chinese Restaurant,11:00,21:00,Hampton by Hilton Guangzhou Railway Station,"113.262023,23.150488",23.150488,113.262023,3.8,Private Room
Wenming Restaurant (Hengsheng Building Branch),Guangzhou,23.146570,113.265508,100.0,Chinese Restaurant;Chinese Restaurant,11:00,21:00,Hampton by Hilton Guangzhou Railway Station,"113.262023,23.150488",23.150488,113.262023,3.9,Waiting Area
Zhenyuepin Chinese Stewed Soup Seasonal Cuisine Restaurant,Guangzhou,22.764866,113.610661,100.0,Chinese Restaurant;Chinese Restaurant,11:00,21:00,Guangzhou Nansha Grand Hotel,"113.613836,22.766739",22.766739,113.613836,3.9,Private Room;Online Queue
Yue Xiang Yuan Hong Kong-Style Chinese Restaurant,Guangzhou,22.765033,113.610435,47.0,Chinese Restaurant;Chinese Restaurant,09:00,21:30,Guangzhou Nansha Grand Hotel,"113.613836,22.766739",22.766739,113.613836,4.0,Outdoor Seating;Waiting Area
Lucky Sea Southeast Asian Restaurant (Cruise Terminal Branch),Guangzhou,22.772071,113.609848,96.0,Chinese Restaurant;Chinese Restaurant,17:00,21:30,Guangzhou Nansha Grand Hotel,"113.613836,22.766739",22.766739,113.613836,4.3,Must-Eat Top 10;Online Queue
Junmanfu Restaurant (Yongsheng Garden Branch),Guangzhou,23.225475,113.301675,143.0,Chinese Restaurant;Chinese Restaurant,17:00,21:30,Home Inn Selected - Guangzhou Baiyun Mountain Baiyun Avenue North Metro Station Branch,"113.302653,23.225614",23.225614,113.302653,3.9,Outdoor Seating
Huihui Cantonese Tea Restaurant (Yongsheng Court Branch),Guangzhou,23.224528,113.302362,100.0,Chinese Restaurant;Chinese Restaurant,11:00,21:00,Home Inn Selected - Guangzhou Baiyun Mountain Baiyun Avenue North Metro Station Branch,"113.302653,23.225614",23.225614,113.302653,3.7,Must-Eat Top 10;Waiting Area
Drive-Thru Restaurant,Guangzhou,23.227363,113.301735,100.0,Chinese Restaurant;Chinese Restaurant,11:00,21:00,Home Inn Selected - Guangzhou Baiyun Mountain Baiyun Avenue North Metro Station Branch,"113.302653,23.225614",23.225614,113.302653,3.6,Outdoor Seating;Online Queue
Rong Ji · Tea Restaurant,Guangzhou,23.226734,113.304435,26.0,Fast Food Restaurant;Tea Restaurant,10:00,22:00,Home Inn Selected - Guangzhou Baiyun Mountain Baiyun Avenue North Metro Station Branch,"113.302653,23.225614",23.225614,113.302653,4.0,Must-Eat Top 10;Waiting Area
Hong Kee Hong Kong-Style Tea Restaurant,Guangzhou,23.226761,113.304434,100.0,Fast Food Restaurant;Tea Restaurant,11:00,21:00,Home Inn Selected - Guangzhou Baiyun Mountain Baiyun Avenue North Metro Station Branch,"113.302653,23.225614",23.225614,113.302653,3.4,Birthday Package;Online Queue
Weldon Hotel Chiu Chow Chinese Restaurant (Luogang Branch),Guangzhou,23.196692,113.561938,81.0,Chinese Restaurant;Chinese Restaurant,17:00,21:30,Guangzhou Huangpu Jincheng Hotel,"113.561527,23.196334",23.196334,113.561527,4.1,Private Room;Online Queue
Hong Wah Ice Room (Huangpu Clara Plaza Branch),Guangzhou,23.195747,113.559589,37.0,Fast Food Restaurant;Tea Restaurant,10:00,22:00,Guangzhou Huangpu Jincheng Hotel,"113.561527,23.196334",23.196334,113.561527,4.3,Online Queue
Yue Yuan Signature Dim Sum (Country Garden Clara Plaza Branch),Guangzhou,23.195942,113.559363,71.0,Fast Food Restaurant;Tea Restaurant,07:00,23:30,Guangzhou Huangpu Jincheng Hotel,"113.561527,23.196334",23.196334,113.561527,4.4,Private Room;Waiting Area
Min Ji Claypot Rice (Beijing Road Pedestrian Street Branch),Guangzhou,23.120474,113.265251,27.0,Chinese Restaurant;Chinese Restaurant,10:30,21:00,Orange Hotel Guangzhou Beijing Road Pedestrian Street Qiyi Road,"113.264087,23.119949",23.119949,113.264087,4.6,Birthday Package
DimDouDuk (Jufu Building),Guangzhou,23.120454,113.265327,65.0,Chinese Restaurant;Chinese Restaurant,17:00,21:00,Orange Hotel Guangzhou Beijing Road Pedestrian Street Qiyi Road,"113.264087,23.119949",23.119949,113.264087,4.8,Birthday Package
Fulam Palace (Huifu East Road),Guangzhou,23.120676,113.265291,79.0,Chinese Restaurant;Cantonese Cuisine,17:00,22:00,Orange Hotel Guangzhou Beijing Road Pedestrian Street Qiyi Road,"113.264087,23.119949",23.119949,113.264087,4.3,Must-Eat Top 10;Private Room
Chaoji Clay Pot Rice (Huifu East Road Branch),Guangzhou,23.120733,113.265670,24.0,Chinese Restaurant;Chinese Restaurant,10:00,21:00,Orange Hotel Guangzhou Beijing Road Pedestrian Street Qiyi Road,"113.264087,23.119949",23.119949,113.264087,4.5,Birthday Package
Yu Yue Bistro · Signature Hainan Chicken,Guangzhou,23.120833,113.265698,62.0,Chinese Restaurant;Chinese Restaurant,17:00,21:30,Orange Hotel Guangzhou Beijing Road Pedestrian Street Qiyi Road,"113.264087,23.119949",23.119949,113.264087,4.7,Must-Eat Top 10;Waiting Area
Youmi Restaurant New-style Tea House,Guangzhou,23.395991,113.217650,23.0,Chinese Restaurant;Cantonese Cuisine,10:00,21:00,Fairfield by Marriott Guangzhou Huadu,"113.217646,23.398005",23.398005,113.217646,4.3,Outdoor Seating;Waiting Area
Lihua Ice Room,Guangzhou,23.397792,113.215302,100.0,Cold Beverage Shop;Cold Beverage Shop,09:00,21:00,Fairfield by Marriott Guangzhou Huadu,"113.217646,23.398005",23.398005,113.217646,4.1,Online Queue
Sanbanzi Pickled Fish (Huadu Branch),Guangzhou,23.393800,113.220016,100.0,Chinese Restaurant;Chinese Restaurant,16:30,21:30,Fairfield by Marriott Guangzhou Huadu,"113.217646,23.398005",23.398005,113.217646,4.3,Waiting Area
Yushan Hotel (Yushan Shopping Center Branch),Guangzhou,22.940722,113.366235,100.0,Chinese Restaurant;Cantonese Cuisine,06:30,22:00,Xin Hao Mei International Hotel (Guangzhou Shiqiao Metro Station Zuanhui Plaza Branch),"113.366452,22.941250",22.941250,113.366452,4.1,Birthday Package
Saizeriya Italian Restaurant (015 Dabeilu Branch),Guangzhou,22.940618,113.366439,54.0,Foreign Restaurant;Italian Restaurant,10:00,22:00,Xin Hao Mei International Hotel (Guangzhou Shiqiao Metro Station Zuanhui Plaza Branch),"113.366452,22.941250",22.941250,113.366452,4.7,Private Room;Birthday Package
Puyuan Western Restaurant,Guangzhou,22.942360,113.366925,91.0,Foreign Restaurant;Western Restaurant,06:30,23:00,Xin Hao Mei International Hotel (Guangzhou Shiqiao Metro Station Zuanhui Plaza Branch),"113.366452,22.941250",22.941250,113.366452,3.8,Waiting Area
Katyusha Russian Western Restaurant (Guangzhou Branch),Guangzhou,23.140583,113.315580,110.0,Foreign Restaurant;俄国菜,17:00,22:00,Hampton by Hilton Guangzhou Tianhe Sports Center,"113.315759,23.141132",23.141132,113.315759,4.3,Outdoor Seating;Online Queue
Thunder Seven Restaurant (Tianhebei Road Branch),Guangzhou,23.140553,113.315546,100.0,Chinese Restaurant;Chinese Restaurant,11:00,21:00,Hampton by Hilton Guangzhou Tianhe Sports Center,"113.315759,23.141132",23.141132,113.315759,2.4,Outdoor Seating
Hong Kong Qitai (Times Square Branch),Guangzhou,23.140533,113.317672,100.0,医疗保健服务;医药保健销售店;医疗保健用品,11:00,21:00,Hampton by Hilton Guangzhou Tianhe Sports Center,"113.315759,23.141132",23.141132,113.315759,4.5,Waiting Area;Birthday Package
Sofitel Sunrich Guangzhou · Nanyue Palace Chinese Restaurant,Guangzhou,23.138114,113.315791,165.0,Chinese Restaurant;Cantonese Cuisine,17:30,21:30,Hampton by Hilton Guangzhou Tianhe Sports Center,"113.315759,23.141132",23.141132,113.315759,4.3,Must-Eat Top 10;Waiting Area
Get Holiday Flip-Flops and Caviar,Guangzhou,23.140456,113.319335,397.0,服装鞋帽皮具店;服装鞋帽皮具店|Food Service Related;Food Service Related,12:00,23:00,Hampton by Hilton Guangzhou Tianhe Sports Center,"113.315759,23.141132",23.141132,113.315759,4.6,Must-Eat Top 10
Jiangnan Garden Tea Restaurant (Agile · Hongxi Huating Phase 1 Branch),Guangzhou,22.953600,113.361785,31.0,Fast Food Restaurant;Tea Restaurant,10:00,21:30,Ji Hotel Guangzhou Panyu Shiqiao Metro Station,"113.360497,22.955410",22.955410,113.360497,4.2,Birthday Package
Xianji Tea Restaurant (Shiqiao Branch),Guangzhou,22.952276,113.361172,36.0,Fast Food Restaurant;Tea Restaurant,11:00,20:30,Ji Hotel Guangzhou Panyu Shiqiao Metro Station,"113.360497,22.955410",22.955410,113.360497,4.1,Must-Eat Top 10;Online Queue
Concerto Panyu Branch,Guangzhou,22.951497,113.359082,106.0,汽车销售;汽车销售;汽车销售,11:00,21:00,Ji Hotel Guangzhou Panyu Shiqiao Metro Station,"113.360497,22.955410",22.955410,113.360497,4.3,Outdoor Seating;Private Room
New Shun Fat Restaurant (Shiqiao Branch),Guangzhou,22.954572,113.365491,142.0,Chinese Restaurant;Chinese Restaurant,17:00,04:00,Ji Hotel Guangzhou Panyu Shiqiao Metro Station,"113.360497,22.955410",22.955410,113.360497,4.4,Waiting Area
Dim Dou Dak (Huiying Plaza Branch),Guangzhou,22.950529,113.360292,67.0,Chinese Restaurant;Cantonese Cuisine,16:30,21:00,Ji Hotel Guangzhou Panyu Shiqiao Metro Station,"113.360497,22.955410",22.955410,113.360497,4.8,Private Room;Online Queue
Chunlan Italian Tea Restaurant,Guangzhou,23.126625,113.343725,40.0,Fast Food Restaurant;Fast Food Restaurant,10:00,21:00,Hampton by Hilton Guangzhou Zhujiang New Town,"113.342619,23.126354",23.126354,113.342619,4.5,Online Queue
Music Bar,Guangzhou,23.127911,113.343284,100.0,Entertainment Venue;Bar|Food Service Related;Food Service Related,11:00,21:00,Hampton by Hilton Guangzhou Zhujiang New Town,"113.342619,23.126354",23.126354,113.342619,4.2,Outdoor Seating;Birthday Package
Happy Ice Room (Guangzhou Tianhe Link Square Branch),Guangzhou,23.124285,113.343945,51.0,Cold Beverage Shop;Cold Beverage Shop,10:00,22:00,Hampton by Hilton Guangzhou Zhujiang New Town,"113.342619,23.126354",23.126354,113.342619,4.3,Online Queue
Chaojia Xinglongjiang Restaurant (Hai'an Road Market Branch),Guangzhou,23.124770,113.340382,24.0,Chinese Restaurant;Chinese Restaurant,11:00,21:00,Hampton by Hilton Guangzhou Zhujiang New Town,"113.342619,23.126354",23.126354,113.342619,3.8,Must-Eat Top 10;Waiting Area
Ma Kee Tea Stall (Link REIT Zhujiang New Town Branch),Guangzhou,23.124035,113.344353,35.0,Chinese Restaurant;Chinese Restaurant,09:30,21:00,Hampton by Hilton Guangzhou Zhujiang New Town,"113.342619,23.126354",23.126354,113.342619,4.5,Outdoor Seating;Waiting Area
Hilton Hampton Hotel · Buffet Breakfast Restaurant,Guangzhou,23.331510,113.288599,100.0,Chinese Restaurant;Chinese Restaurant,11:00,21:00,Hampton by Hilton Guangzhou Renhe Baiyun Airport,"113.288792,23.331582",23.331582,113.288792,4.4,Outdoor Seating
Shizai Xiang (Guangzhou Baiyun International Airport Renhe Metro Station Kyriad Hotel Branch),Guangzhou,23.333869,113.290031,63.0,Chinese Restaurant;Hunan Cuisine,11:00,22:00,Hampton by Hilton Guangzhou Renhe Baiyun Airport,"113.288792,23.331582",23.331582,113.288792,4.5,Waiting Area
Fumanlai Restaurant,Guangzhou,23.331234,113.285392,100.0,Chinese Restaurant;Chinese Restaurant,11:00,21:00,Hampton by Hilton Guangzhou Renhe Baiyun Airport,"113.288792,23.331582",23.331582,113.288792,3.9,Must-Eat Top 10
Zhiwei Garden Restaurant (Longde Building Branch),Guangzhou,23.133739,113.330800,100.0,Chinese Restaurant;Chinese Restaurant,11:00,21:00,Yumanju · High-Rise City View Service Apartment (Guangzhou Tianhe Sports Center Shipaiqiao Metro Station Branch),"113.329790,23.133973",23.133973,113.329790,3.8,Must-Eat Top 10
Almaty Restaurant,Guangzhou,23.145460,113.258026,100.0,Chinese Restaurant;Chinese Restaurant,11:00,21:00,Hanting Hotel Guangzhou Yuexiu Park,"113.258515,23.145542",23.145542,113.258515,3.9,Must-Eat Top 10;Online Queue
Damascus Light Music Restaurant,Guangzhou,23.145499,113.257968,77.0,Chinese Restaurant;Chinese Restaurant,10:00,23:30,Hanting Hotel Guangzhou Yuexiu Park,"113.258515,23.145542",23.145542,113.258515,4.2,Private Room;Waiting Area
Tong She Hotel Western Restaurant (Fuli International Plaza Branch),Guangzhou,23.145325,113.259407,100.0,Foreign Restaurant;Foreign Restaurant,11:00,21:00,Hanting Hotel Guangzhou Yuexiu Park,"113.258515,23.145542",23.145542,113.258515,4.1,Online Queue
Nine's Salmon (Zhucun Branch),Guangzhou,23.118469,113.418351,104.0,Chinese Restaurant;Chinese Restaurant,10:00,23:00,Hanting Hotel Guangzhou Tianhe Zhucun Metro Station,"113.417960,23.119457",23.119457,113.417960,4.0,Online Queue
Shangpin Seafood Restaurant,Guangzhou,23.121009,113.417834,78.0,Chinese Restaurant;General Restaurant,17:00,22:30,Hanting Hotel Guangzhou Tianhe Zhucun Metro Station,"113.417960,23.119457",23.119457,113.417960,4.5,Outdoor Seating;Private Room
Home Taste Restaurant (Zhucun Branch),Guangzhou,23.121114,113.417412,100.0,Food Service Related;Food Service Related,17:00,22:00,Hanting Hotel Guangzhou Tianhe Zhucun Metro Station,"113.417960,23.119457",23.119457,113.417960,4.8,Private Room;Waiting Area
Minghui Restaurant,Guangzhou,23.093496,113.314336,26.0,Chinese Restaurant;Chinese Restaurant,07:00,20:00,Home Inn NEO - Guangzhou Sun Yat-sen University Lujiang Metro Station Branch,"113.312352,23.095946",23.095946,113.312352,4.1,Outdoor Seating
Rooftop Restaurant (Second Normal College Branch),Guangzhou,23.097542,113.315580,100.0,Chinese Restaurant;Chinese Restaurant,14:00,23:00,Home Inn NEO - Guangzhou Sun Yat-sen University Lujiang Metro Station Branch,"113.312352,23.095946",23.095946,113.312352,4.0,Waiting Area;Online Queue
ilili Bistro,Guangzhou,23.121997,113.292728,122.0,Foreign Restaurant;Western Restaurant,11:00,22:00,Hanting Hotel Guangzhou Dongshankou Metro Station,"113.291612,23.122330",23.122330,113.291612,4.5,Private Room
Guangzhou Shangchuan Yan Yue Modern Cuisine,Guangzhou,23.122160,113.293018,152.0,Chinese Restaurant;Chinese Restaurant,11:00,22:30,Hanting Hotel Guangzhou Dongshankou Metro Station,"113.291612,23.122330",23.122330,113.291612,4.3,Waiting Area
8 Courses Premium Cantonese Cuisine Bar,Guangzhou,23.121988,113.292999,72.0,Chinese Restaurant;Chinese Restaurant,11:00,01:00,Hanting Hotel Guangzhou Dongshankou Metro Station,"113.291612,23.122330",23.122330,113.291612,4.3,Must-Eat Top 10;Online Queue
Panxi Restaurant,Guangzhou,23.121321,113.236214,81.0,Chinese Restaurant;General Restaurant|糕饼店;糕饼店,17:00,21:00,Xiguan Folk Customs Museum,"113.236027,23.119581",23.119581,113.236027,4.5,Birthday Package;Online Queue
Shun Ji Ice Room (Lychee Bay Branch),Guangzhou,23.121364,113.236807,24.0,Food Service Related;Food Service Related,12:00,22:00,Xiguan Folk Customs Museum,"113.236027,23.119581",23.119581,113.236027,4.3,Waiting Area;Birthday Package
Xiyue Boya Private Kitchen,Guangzhou,23.121817,113.234791,178.0,Chinese Restaurant;Cantonese Cuisine,17:00,21:30,Xiguan Folk Customs Museum,"113.236027,23.119581",23.119581,113.236027,4.4,Private Room
Dimdouduck (Lihong Building),Guangzhou,23.117959,113.231403,53.0,Chinese Restaurant;Cantonese Cuisine,07:30,20:00,Xiguan Folk Customs Museum,"113.236027,23.119581",23.119581,113.236027,4.7,Birthday Package
DimDouDe (Beijing Road Second Branch),Guangzhou,23.126571,113.268955,60.0,Chinese Restaurant;Chinese Restaurant,16:30,21:00,Museum of the Nanyue King (Palace Exhibition Area),"113.269853,23.126878",23.126878,113.269853,4.7,Private Room;Birthday Package
Taiping Guan (Beijing Road Branch),Guangzhou,23.126347,113.268959,111.0,Foreign Restaurant;Western Restaurant,11:00,22:00,Museum of the Nanyue King (Palace Exhibition Area),"113.269853,23.126878",23.126878,113.269853,4.3,Outdoor Seating
Burton Western Restaurant (New Daxin Guofeng Beijing Road Branch),Guangzhou,23.125939,113.268547,100.0,Foreign Restaurant;Foreign Restaurant,11:00,21:00,Museum of the Nanyue King (Palace Exhibition Area),"113.269853,23.126878",23.126878,113.269853,3.6,Private Room
Dim Dou Dak (Beijing Road First Branch),Guangzhou,23.126218,113.271378,65.0,Fast Food Restaurant;Tea Restaurant,16:30,21:00,Museum of the Nanyue King (Palace Exhibition Area),"113.269853,23.126878",23.126878,113.269853,4.7,Must-Eat Top 10;Outdoor Seating
Green Island Western Restaurant · Birthday Theme Restaurant (New Dashin Department Store Branch),Guangzhou,23.125801,113.268465,94.0,Foreign Restaurant;Foreign Restaurant,11:00,21:00,Museum of the Nanyue King (Palace Exhibition Area),"113.269853,23.126878",23.126878,113.269853,4.2,Private Room
"Sunset Gourmet Micro Restaurant - Day Café, Night Bar",Guangzhou,23.125125,113.269625,100.0,Chinese Restaurant;Chinese Restaurant,11:00,21:00,Museum of the Nanyue King (Palace Exhibition Area),"113.269853,23.126878",23.126878,113.269853,2.9,Waiting Area
Guoxiang Cantonese Tea Restaurant,Guangzhou,23.127325,113.267925,100.0,Fast Food Restaurant;Fast Food Restaurant,11:00,21:00,Museum of the Nanyue King (Palace Exhibition Area),"113.269853,23.126878",23.126878,113.269853,3.8,Must-Eat Top 10;Online Queue
Nafu Food Court (Guangda Road Branch),Guangzhou,23.126882,113.267679,70.0,Chinese Restaurant;Chinese Restaurant,07:30,21:30,Museum of the Nanyue King (Palace Exhibition Area),"113.269853,23.126878",23.126878,113.269853,4.4,Outdoor Seating
Cheese Castle Italian Pasta Restaurant (Old Brand Street Branch),Guangzhou,23.126345,113.267659,58.0,Foreign Restaurant;Italian Restaurant,11:00,21:00,Museum of the Nanyue King (Palace Exhibition Area),"113.269853,23.126878",23.126878,113.269853,4.6,Birthday Package
Jingbao Restaurant · Established in 1994,Guangzhou,23.125349,113.268271,32.0,Chinese Restaurant;Chinese Restaurant,10:30,22:00,Museum of the Nanyue King (Palace Exhibition Area),"113.269853,23.126878",23.126878,113.269853,3.8,Must-Eat Top 10
Green Tea Restaurant (Guangzhou Tianhe City Branch),Guangzhou,23.132316,113.322802,56.0,Chinese Restaurant;Jiangsu Cuisine,11:00,22:30,Tianhe City,"113.322605,23.132333",23.132333,113.322605,4.6,Must-Eat Top 10;Waiting Area
Portofino Restaurant (Tianhe City),Guangzhou,23.132300,113.322385,87.0,Chinese Restaurant;Cantonese Cuisine|Chinese Restaurant;Local Specialty Restaurant,10:30,22:00,Tianhe City,"113.322605,23.132333",23.132333,113.322605,4.5,Private Room;Online Queue
Sheraton Guangzhou Hotel · Feast Buffet Restaurant,Guangzhou,23.132377,113.322218,200.0,Foreign Restaurant;Western Restaurant,12:00,02:30,Tianhe City,"113.322605,23.132333",23.132333,113.322605,4.3,Must-Eat Top 10;Private Room
deli&leisure Ule Restaurant Banquet Hall (Teemall Branch),Guangzhou,23.131964,113.322664,98.0,Chinese Restaurant;Chinese Restaurant,11:00,21:30,Tianhe City,"113.322605,23.132333",23.132333,113.322605,4.4,Must-Eat Top 10;Waiting Area
Man Wah Ice Room (Tianhe City Branch),Guangzhou,23.131845,113.322562,62.0,Cold Beverage Shop;Cold Beverage Shop,10:00,21:30,Tianhe City,"113.322605,23.132333",23.132333,113.322605,4.2,Private Room
Thai Fragrant Rice Thai Restaurant (Tee Mall Branch),Guangzhou,23.131850,113.322861,117.0,Foreign Restaurant;其它亚洲菜,08:30,18:00,Tianhe City,"113.322605,23.132333",23.132333,113.322605,4.4,Birthday Package
Sheraton Guangzhou Hotel · Celestial Court Chinese Restaurant,Guangzhou,23.132707,113.322167,182.0,Chinese Restaurant;Chinese Restaurant,17:30,22:00,Tianhe City,"113.322605,23.132333",23.132333,113.322605,4.5,Outdoor Seating;Online Queue
U · Le (Parc Central Tianhe Branch),Guangzhou,23.131926,113.323116,98.0,Chinese Restaurant;Chinese Restaurant,10:00,22:00,Tianhe City,"113.322605,23.132333",23.132333,113.322605,4.3,Must-Eat Top 10
Sheraton Guangzhou Hotel · Bene Seafood Restaurant,Guangzhou,23.132999,113.322371,103.0,Foreign Restaurant;Western Restaurant|Foreign Restaurant;Italian Restaurant,17:30,21:30,Tianhe City,"113.322605,23.132333",23.132333,113.322605,4.5,Birthday Package
Wentong Ice Room (Tiyu West Road LAB Branch),Guangzhou,23.132085,113.321283,100.0,Chinese Restaurant;Cantonese Cuisine,10:30,22:00,Tianhe City,"113.322605,23.132333",23.132333,113.322605,4.7,Outdoor Seating
Li Xuan Chinese Restaurant,Guangzhou,23.116173,113.327470,400.0,Chinese Restaurant;Cantonese Cuisine,17:30,22:00,Guangdong Museum,"113.326346,23.114743",23.114743,113.326346,4.4,Waiting Area
Bingsheng Mansion (Zhujiang New Town Branch),Guangzhou,23.114802,113.328308,530.0,Chinese Restaurant;Cantonese Cuisine|旅馆招待所;旅馆招待所,17:00,22:00,Guangdong Museum,"113.326346,23.114743",23.114743,113.326346,4.6,Outdoor Seating
Bingsheng Taste (Zhujiang New Town Flagship Store),Guangzhou,23.114953,113.328317,240.0,Chinese Restaurant;Cantonese Cuisine,17:00,22:00,Guangdong Museum,"113.326346,23.114743",23.114743,113.326346,4.5,Private Room;Online Queue
Yixuan · Italian Restaurant (Zhujiang New Town Branch),Guangzhou,23.116427,113.327203,350.0,Foreign Restaurant;Italian Restaurant,11:00,21:00,Guangdong Museum,"113.326346,23.114743",23.114743,113.326346,4.0,Waiting Area;Birthday Package
Yihong Happy Restaurant,Guangzhou,23.116415,113.325245,26.0,Chinese Restaurant;Chinese Restaurant,17:00,19:00,Guangdong Museum,"113.326346,23.114743",23.114743,113.326346,4.0,Waiting Area
Mingmen Feast Artistic Seafood Creations (Zhujiang New Town Branch),Guangzhou,23.114306,113.328962,464.0,Chinese Restaurant;Seafood Restaurant,18:00,21:30,Guangdong Museum,"113.326346,23.114743",23.114743,113.326346,4.7,Waiting Area
Xu Museum,Guangzhou,23.114407,113.329132,100.0,Chinese Restaurant;Cantonese Cuisine,17:30,22:00,Guangdong Museum,"113.326346,23.114743",23.114743,113.326346,4.6,Waiting Area
Keming Ice Room (K11 Branch),Guangzhou,23.117511,113.325991,47.0,Fast Food Restaurant;Tea Restaurant|Cold Beverage Shop;Cold Beverage Shop,11:00,21:00,Guangdong Museum,"113.326346,23.114743",23.114743,113.326346,4.4,Outdoor Seating;Waiting Area
OST Restaurant (Guangzhou Chow Tai Fook Finance Centre Branch),Guangzhou,23.117788,113.326131,152.0,Foreign Restaurant;Foreign Restaurant,11:30,21:30,Guangdong Museum,"113.326346,23.114743",23.114743,113.326346,4.4,Private Room;Online Queue
Haixinsha No. 2 Restaurant · Banquet Hall,Guangzhou,23.111725,113.327939,100.0,Chinese Restaurant;Chinese Restaurant,11:00,21:00,Guangdong Museum,"113.326346,23.114743",23.114743,113.326346,3.6,Must-Eat Top 10;Private Room
Gulichike Russian Western Restaurant,Guangzhou,23.132148,113.327017,100.0,Foreign Restaurant;Foreign Restaurant,11:00,21:00,Grandview Mall,"113.327019,23.132145",23.132145,113.327019,4.3,Must-Eat Top 10;Private Room
Li Chateau (Grandview Mall Branch),Guangzhou,23.132126,113.327019,210.0,Foreign Restaurant;Western Restaurant,17:00,22:00,Grandview Mall,"113.327019,23.132145",23.132145,113.327019,4.4,Must-Eat Top 10
Tsui Wah Restaurant (Grandview Mall Branch),Guangzhou,23.132202,113.327063,73.0,Chinese Restaurant;Chinese Restaurant,10:00,21:30,Grandview Mall,"113.327019,23.132145",23.132145,113.327019,4.5,Private Room;Online Queue
Weixin Flower Kitchen (Grandview Mall Branch),Guangzhou,23.132086,113.327063,100.0,Chinese Restaurant;Chinese Restaurant,11:00,22:41,Grandview Mall,"113.327019,23.132145",23.132145,113.327019,3.9,Private Room;Waiting Area
Kowloon Ice Room (Grandview Mall Branch),Guangzhou,23.132125,113.327449,43.0,Chinese Restaurant;Cantonese Cuisine,10:00,22:00,Grandview Mall,"113.327019,23.132145",23.132145,113.327019,4.2,Must-Eat Top 10;Outdoor Seating
Wen Tong Ice Room (Grandview Mall Branch),Guangzhou,23.131747,113.326965,45.0,Cold Beverage Shop;Cold Beverage Shop,10:30,21:30,Grandview Mall,"113.327019,23.132145",23.132145,113.327019,4.6,Birthday Package
Tao Tao Ju (Grandview Mall Branch),Guangzhou,23.131723,113.327286,92.0,Chinese Restaurant;General Restaurant,10:00,21:30,Grandview Mall,"113.327019,23.132145",23.132145,113.327019,4.7,Must-Eat Top 10;Private Room
Mr. Steak · Thick-Cut Marbled Steak Western Restaurant (Grandview Mall Branch),Guangzhou,23.131541,113.326537,73.0,Foreign Restaurant;Foreign Restaurant,10:30,22:00,Grandview Mall,"113.327019,23.132145",23.132145,113.327019,4.6,Must-Eat Top 10
Latin Restaurant (Grandview Mall Branch),Guangzhou,23.132942,113.326957,104.0,Foreign Restaurant;巴西菜,17:00,22:00,Grandview Mall,"113.327019,23.132145",23.132145,113.327019,4.4,Online Queue
Guangzhou Grandview Mall Marriott Hotel · Marriott Cantonese Restaurant,Guangzhou,23.132717,113.326294,179.0,Food Service Related;Food Service Related,17:00,22:00,Grandview Mall,"113.327019,23.132145",23.132145,113.327019,4.3,Must-Eat Top 10
