restaurant_name,city,latitude,longitude,price_per_person,cuisine,opening_time,closing_time,nearby_attraction_name,nearby_attraction_coords,query_latitude,query_longitude,rating,tags
Yue Weidao (Jiefang North Road Branch),Guangzhou,23.137298,113.262015,40.0,Chinese Restaurant;Chinese Restaurant,11:00,20:30,Guangzhou Museum (Zhenhai Tower Exhibition Area),"113.265698,23.137723",23.137723,113.265698,4.2,Online Queue
Huachengli · Blossoms on the Road,Guangzhou,23.138076,113.269909,79.0,Foreign Restaurant;Western Restaurant,11:00,20:30,Guangzhou Museum (Zhenhai Tower Exhibition Area),"113.265698,23.137723",23.137723,113.265698,4.5,Outdoor Seating;Birthday Package
Yuexiu Park · Yundao Soup and Garden Restaurant,Guangzhou,23.141657,113.268382,100.0,Chinese Restaurant;Chinese Restaurant,17:00,02:00,Guangzhou Museum (Zhenhai Tower Exhibition Area),"113.265698,23.137723",23.137723,113.265698,4.0,Birthday Package
Kaiser Xinjiang Restaurant,Guangzhou,23.134685,113.261613,86.0,Chinese Restaurant;Halal Restaurant,10:00,23:00,Guangzhou Museum (Zhenhai Tower Exhibition Area),"113.265698,23.137723",23.137723,113.265698,3.6,Outdoor Seating
Kowloon Ice Room (China Hotel Branch),Guangzhou,23.139943,113.260837,50.0,Chinese Restaurant;Chinese Restaurant,10:00,22:00,Guangzhou Museum (Zhenhai Tower Exhibition Area),"113.265698,23.137723",23.137723,113.265698,4.3,Must-Eat Top 10;Private Room
Green Island Western Restaurant · Birthday Theme · Lawn Terrace Restaurant,Guangzhou,23.142096,113.268446,70.0,Foreign Restaurant;Foreign Restaurant,11:00,10:00,Guangzhou Museum (Zhenhai Tower Exhibition Area),"113.265698,23.137723",23.137723,113.265698,4.6,Outdoor Seating
Meat Times Restaurant Mitan Restaurant,Guangzhou,23.141163,113.270362,117.0,Food Service Related;Food Service Related,10:00,24:00,Guangzhou Museum (Zhenhai Tower Exhibition Area),"113.265698,23.137723",23.137723,113.265698,4.1,Outdoor Seating;Online Queue
Harriman Restaurant,Guangzhou,23.141023,113.270484,17.0,Chinese Restaurant;Halal Restaurant,11:30,24:00,Guangzhou Museum (Zhenhai Tower Exhibition Area),"113.265698,23.137723",23.137723,113.265698,3.8,Birthday Package
Tao Tao Ju Restaurant (Jiefang North Road Branch),Guangzhou,23.133583,113.261670,106.0,Chinese Restaurant;Chinese Restaurant,17:00,21:00,Guangzhou Museum (Zhenhai Tower Exhibition Area),"113.265698,23.137723",23.137723,113.265698,4.5,Private Room;Online Queue
Keming Ice Room,Guangzhou,23.140969,113.260656,100.0,Fast Food Restaurant;Tea Restaurant,11:00,21:00,Guangzhou Museum (Zhenhai Tower Exhibition Area),"113.265698,23.137723",23.137723,113.265698,4.0,Private Room;Online Queue
Thai Fresh Hot Pot,Guangzhou,23.112637,113.285343,68.0,Chinese Restaurant;Hot Pot,08:00,02:00,Pearl River Night Cruise,"113.284844,23.112517",23.112517,113.284844,4.4,Waiting Area;Birthday Package
Guangsheng Holdings · Dolphin Cruise Restaurant,Guangzhou,23.111677,113.285971,294.0,Chinese Restaurant;Chinese Restaurant,18:00,22:00,Pearl River Night Cruise,"113.284844,23.112517",23.112517,113.284844,3.8,Outdoor Seating
VINO Verona · New Concept Cruise Restaurant (Golden Fish Ship),Guangzhou,23.111641,113.286057,370.0,Food Service Related;Food Service Related,18:00,22:00,Pearl River Night Cruise,"113.284844,23.112517",23.112517,113.284844,4.1,Must-Eat Top 10
Lijiang Restaurant (Guangzhou Maritime Building Branch),Guangzhou,23.113268,113.283479,100.0,Chinese Restaurant;Chinese Restaurant,11:00,21:00,Pearl River Night Cruise,"113.284844,23.112517",23.112517,113.284844,3.9,Private Room
Elegant Hotel (Guangzhou Ersha Island Pearl River Night Cruise Branch) · Yayuet Xuan Restaurant,Guangzhou,23.113280,113.283400,100.0,Food Service Related;Food Service Related,11:00,21:00,Pearl River Night Cruise,"113.284844,23.112517",23.112517,113.284844,3.9,Must-Eat Top 10
Jimu BBQ Music Restaurant (Yanjiang Road Branch),Guangzhou,23.114006,113.283510,103.0,Chinese Restaurant;Local Specialty Restaurant,18:00,02:30,Pearl River Night Cruise,"113.284844,23.112517",23.112517,113.284844,4.6,Waiting Area;Online Queue
Double Wheel Tea Stall (Yingji Building Branch),Guangzhou,23.115390,113.283033,21.0,Fast Food Restaurant;Tea Restaurant,11:00,21:00,Pearl River Night Cruise,"113.284844,23.112517",23.112517,113.284844,4.2,Private Room
Gather Together Restaurant (Donghu West Road Branch),Guangzhou,23.117257,113.287107,100.0,Food Service Related;Food Service Related,17:00,21:30,Pearl River Night Cruise,"113.284844,23.112517",23.112517,113.284844,4.3,Waiting Area;Birthday Package
Weishui Tea and Rice (Haiyin Photography City Branch),Guangzhou,23.117657,113.283998,34.0,Chinese Restaurant;Chinese Restaurant,09:00,21:00,Pearl River Night Cruise,"113.284844,23.112517",23.112517,113.284844,4.2,Must-Eat Top 10;Private Room
Xixi Restaurant (Donghu Branch),Guangzhou,23.117833,113.286451,51.0,Cold Beverage Shop;Cold Beverage Shop,10:00,22:00,Pearl River Night Cruise,"113.284844,23.112517",23.112517,113.284844,4.6,Waiting Area;Online Queue
Yuzhi · Wine-Themed Fusion Restaurant (Beijing Road Branch),Guangzhou,23.131136,113.261513,137.0,Chinese Restaurant;Chinese Restaurant,11:00,22:00,Sun Yat-sen Memorial Hall,"113.264692,23.132860",23.132860,113.264692,4.3,Private Room
Fuxi Hong Kong-Style Tea Restaurant (Yuexiu Branch),Guangzhou,23.133575,113.260425,100.0,Fast Food Restaurant;Fast Food Restaurant,11:00,21:00,Sun Yat-sen Memorial Hall,"113.264692,23.132860",23.132860,113.264692,2.8,Must-Eat Top 10;Online Queue
Tai Tai Tea Restaurant (Galaxy Asia Financial Center Branch),Guangzhou,23.132695,113.259374,100.0,Fast Food Restaurant;Fast Food Restaurant,11:00,21:00,Sun Yat-sen Memorial Hall,"113.264692,23.132860",23.132860,113.264692,3.6,Outdoor Seating;Private Room
Sufu Tea Restaurant (Asia Financial Center Branch),Guangzhou,23.132560,113.259242,37.0,Fast Food Restaurant;Tea Restaurant,11:00,21:30,Sun Yat-sen Memorial Hall,"113.264692,23.132860",23.132860,113.264692,4.4,Waiting Area;Online Queue
Green Bamboo Tea Restaurant,Guangzhou,23.130588,113.259629,21.0,Fast Food Restaurant;Tea Restaurant,11:00,20:00,Sun Yat-sen Memorial Hall,"113.264692,23.132860",23.132860,113.264692,4.2,Waiting Area
Casual Tea Restaurant,Guangzhou,23.130588,113.259456,23.0,Fast Food Restaurant;Fast Food Restaurant,10:30,20:30,Sun Yat-sen Memorial Hall,"113.264692,23.132860",23.132860,113.264692,4.2,Outdoor Seating;Private Room
Chow Chik Kee Tea Restaurant (Guangren Road Branch),Guangzhou,23.128350,113.267806,20.0,Fast Food Restaurant;Tea Restaurant,10:00,20:30,Sun Yat-sen Memorial Hall,"113.264692,23.132860",23.132860,113.264692,4.3,Outdoor Seating;Online Queue
Panxi Restaurant,Guangzhou,23.121321,113.236214,81.0,Chinese Restaurant;General Restaurant|糕饼店;糕饼店,17:00,21:00,Xiguan Folk Custom Museum,"113.236027,23.119581",23.119581,113.236027,4.5,Outdoor Seating;Birthday Package
Shun Kee Ice Room (Lychee Bay Branch),Guangzhou,23.121364,113.236807,24.0,Food Service Related;Food Service Related,12:00,22:00,Xiguan Folk Custom Museum,"113.236027,23.119581",23.119581,113.236027,4.3,Must-Eat Top 10
Xiyue Boyahui Private Kitchen,Guangzhou,23.121817,113.234791,178.0,Chinese Restaurant;Cantonese Cuisine,17:00,21:30,Xiguan Folk Custom Museum,"113.236027,23.119581",23.119581,113.236027,4.4,Online Queue
San Paulo Cantonese Cuisine Restaurant,Guangzhou,23.116932,113.235996,38.0,Chinese Restaurant;Cantonese Cuisine,11:00,21:30,Xiguan Folk Custom Museum,"113.236027,23.119581",23.119581,113.236027,4.2,Outdoor Seating;Waiting Area
Wulin Chef Tea House (Duobao Road Branch),Guangzhou,23.116849,113.236430,65.0,Tea House;Tea House|Chinese Restaurant;Chinese Restaurant,11:00,21:00,Xiguan Folk Custom Museum,"113.236027,23.119581",23.119581,113.236027,4.6,Private Room
Big Sister Wok · Braised Abalone & Chicken Pot (Fengyuan Road Branch),Guangzhou,23.117656,113.239570,63.0,Chinese Restaurant;Chinese Restaurant,17:00,02:00,Xiguan Folk Custom Museum,"113.236027,23.119581",23.119581,113.236027,4.4,Must-Eat Top 10;Birthday Package
128 Fresh Simple Restaurant,Guangzhou,23.118674,113.240405,100.0,Chinese Restaurant;Cantonese Cuisine,10:00,20:00,Xiguan Folk Custom Museum,"113.236027,23.119581",23.119581,113.236027,4.2,Must-Eat Top 10
Sen Some Fusion (Liwan Branch),Guangzhou,23.118837,113.240548,75.0,Foreign Restaurant;Western Restaurant,11:30,21:30,Xiguan Folk Custom Museum,"113.236027,23.119581",23.119581,113.236027,4.6,Outdoor Seating
Man Kee Gourmet Shop,Guangzhou,23.118774,113.240604,26.0,Chinese Restaurant;Chinese Restaurant,17:00,20:00,Xiguan Folk Custom Museum,"113.236027,23.119581",23.119581,113.236027,4.3,Must-Eat Top 10;Outdoor Seating
Dim Dou Dak (Lihong Building),Guangzhou,23.117959,113.231403,53.0,Chinese Restaurant;Cantonese Cuisine,07:30,20:00,Xiguan Folk Custom Museum,"113.236027,23.119581",23.119581,113.236027,4.7,Private Room;Online Queue
Green Tea Restaurant (Guangzhou Teemall Branch),Guangzhou,23.132316,113.322802,56.0,Chinese Restaurant;Jiangsu Cuisine,11:00,22:30,Tianhe City,"113.322605,23.132333",23.132333,113.322605,4.6,Must-Eat Top 10;Online Queue
Hong Kong Style Restaurant (Teemall),Guangzhou,23.132300,113.322385,87.0,Chinese Restaurant;Cantonese Cuisine|Chinese Restaurant;Local Specialty Restaurant,10:30,22:00,Tianhe City,"113.322605,23.132333",23.132333,113.322605,4.5,Outdoor Seating;Waiting Area
deli&leisure Yo Le Restaurant Banquet Hall (Teemall Branch),Guangzhou,23.131964,113.322664,98.0,Chinese Restaurant;Chinese Restaurant,11:00,21:30,Tianhe City,"113.322605,23.132333",23.132333,113.322605,4.4,Must-Eat Top 10
Minhua Ice Hall (Tianhe City Branch),Guangzhou,23.131845,113.322562,62.0,Cold Beverage Shop;Cold Beverage Shop,10:00,21:30,Tianhe City,"113.322605,23.132333",23.132333,113.322605,4.2,Outdoor Seating
Thai Fragrant Rice Thai Restaurant (Teemall Branch),Guangzhou,23.131850,113.322861,117.0,Foreign Restaurant;其它亚洲菜,08:30,18:00,Tianhe City,"113.322605,23.132333",23.132333,113.322605,4.4,Outdoor Seating;Private Room
Sheraton Guangzhou Hotel · Cai Yue Xuan Chinese Restaurant,Guangzhou,23.132707,113.322167,182.0,Chinese Restaurant;Chinese Restaurant,17:30,22:00,Tianhe City,"113.322605,23.132333",23.132333,113.322605,4.5,Waiting Area
Yo · Le (Teemall Another City Branch),Guangzhou,23.131926,113.323116,98.0,Chinese Restaurant;Chinese Restaurant,10:00,22:00,Tianhe City,"113.322605,23.132333",23.132333,113.322605,4.3,Private Room;Birthday Package
Sheraton Guangzhou Hotel · Bene Seafood Restaurant,Guangzhou,23.132999,113.322371,103.0,Foreign Restaurant;Western Restaurant|Foreign Restaurant;Italian Restaurant,17:30,21:30,Tianhe City,"113.322605,23.132333",23.132333,113.322605,4.5,Waiting Area
Wen Tong Ice Room (Tiyu West Road LAB Branch),Guangzhou,23.132085,113.321283,100.0,Chinese Restaurant;Cantonese Cuisine,10:30,22:00,Tianhe City,"113.322605,23.132333",23.132333,113.322605,4.7,Private Room;Birthday Package
Li Xuan Chinese Restaurant,Guangzhou,23.116173,113.327470,400.0,Chinese Restaurant;Cantonese Cuisine,17:30,22:00,Guangdong Museum,"113.326346,23.114743",23.114743,113.326346,4.4,Outdoor Seating;Waiting Area
Bingsheng Mansion (Zhujiang New Town Branch),Guangzhou,23.114802,113.328308,530.0,Chinese Restaurant;Cantonese Cuisine|旅馆招待所;旅馆招待所,17:00,22:00,Guangdong Museum,"113.326346,23.114743",23.114743,113.326346,4.6,Must-Eat Top 10
Bingsheng Taste (Zhujiang New Town Flagship Store),Guangzhou,23.114953,113.328317,240.0,Chinese Restaurant;Cantonese Cuisine,17:00,22:00,Guangdong Museum,"113.326346,23.114743",23.114743,113.326346,4.5,Private Room
Yixuan · Italian Restaurant (Zhujiang New Town Branch),Guangzhou,23.116427,113.327203,350.0,Foreign Restaurant;Italian Restaurant,11:00,21:00,Guangdong Museum,"113.326346,23.114743",23.114743,113.326346,4.0,Must-Eat Top 10;Waiting Area
Yihong Happy Restaurant,Guangzhou,23.116415,113.325245,26.0,Chinese Restaurant;Chinese Restaurant,17:00,19:00,Guangdong Museum,"113.326346,23.114743",23.114743,113.326346,4.0,Must-Eat Top 10;Waiting Area
Mingmen Feast Art Seafood Creation (Zhujiang New Town Branch),Guangzhou,23.114306,113.328962,464.0,Chinese Restaurant;Seafood Restaurant,18:00,21:30,Guangdong Museum,"113.326346,23.114743",23.114743,113.326346,4.7,Outdoor Seating
Xu Museum,Guangzhou,23.114407,113.329132,100.0,Chinese Restaurant;Cantonese Cuisine,17:30,22:00,Guangdong Museum,"113.326346,23.114743",23.114743,113.326346,4.6,Waiting Area
Keming Ice Room (K11 Branch),Guangzhou,23.117511,113.325991,47.0,Fast Food Restaurant;Tea Restaurant|Cold Beverage Shop;Cold Beverage Shop,11:00,21:00,Guangdong Museum,"113.326346,23.114743",23.114743,113.326346,4.4,Must-Eat Top 10;Birthday Package
OST Restaurant (Guangzhou Chow Tai Fook Financial Center Branch),Guangzhou,23.117788,113.326131,152.0,Foreign Restaurant;Foreign Restaurant,11:30,21:30,Guangdong Museum,"113.326346,23.114743",23.114743,113.326346,4.4,Birthday Package;Online Queue
Haixinsha No. 2 Restaurant · Banquet Hall,Guangzhou,23.111725,113.327939,100.0,Chinese Restaurant;Chinese Restaurant,11:00,21:00,Guangdong Museum,"113.326346,23.114743",23.114743,113.326346,3.6,Must-Eat Top 10;Waiting Area
Wentong Ice Room (Zhujiang New Town Branch),Guangzhou,23.120523,113.324423,100.0,Chinese Restaurant;Cantonese Cuisine,10:30,22:00,Huacheng Square,"113.324593,23.120498",23.120498,113.324593,4.5,Online Queue
Gan Simido Yunnan Art Restaurant (Huachenghui Branch),Guangzhou,23.120155,113.324504,52.0,Food Service Related;Food Service Related,11:00,22:00,Huacheng Square,"113.324593,23.120498",23.120498,113.324593,4.3,Outdoor Seating;Private Room
Fugui Food Company Huachenghui Branch,Guangzhou,23.119710,113.324676,30.0,Chinese Restaurant;Chinese Restaurant,10:30,21:30,Huacheng Square,"113.324593,23.120498",23.120498,113.324593,4.4,Must-Eat Top 10
Succu Western Restaurant (GT Land · Summer Plaza Branch),Guangzhou,23.120175,113.323773,100.0,Food Service Related;Food Service Related,11:00,21:00,Huacheng Square,"113.324593,23.120498",23.120498,113.324593,4.0,Must-Eat Top 10;Birthday Package
Fat Cat Tea Restaurant (Flower City Square Central District Branch),Guangzhou,23.119706,113.324315,65.0,Chinese Restaurant;Chinese Restaurant,10:30,21:00,Huacheng Square,"113.324593,23.120498",23.120498,113.324593,4.5,Waiting Area
FRANCESCO YABE Garden Restaurant & Terrace Bar (GT Land Plaza · Autumn Branch),Guangzhou,23.119912,113.325607,226.0,Foreign Restaurant;Western Restaurant,11:30,24:00,Huacheng Square,"113.324593,23.120498",23.120498,113.324593,4.5,Online Queue
G·O Green Orexis New Green,Guangzhou,23.120745,113.323237,71.0,Foreign Restaurant;Western Restaurant,08:00,22:00,Huacheng Square,"113.324593,23.120498",23.120498,113.324593,4.3,Must-Eat Top 10
Zhisheng Restaurant,Guangzhou,23.120005,113.325952,100.0,Chinese Restaurant;Chinese Restaurant,11:00,21:00,Huacheng Square,"113.324593,23.120498",23.120498,113.324593,3.0,Outdoor Seating;Birthday Package
The Eating Table (Gaode Land Winter Plaza Branch),Guangzhou,23.119722,113.326446,187.0,Entertainment Venue;Bar|Chinese Restaurant;Chinese Restaurant,11:30,22:00,Huacheng Square,"113.324593,23.120498",23.120498,113.324593,4.6,Waiting Area
COLINMINT Simple Joy Kitchen,Guangzhou,23.120521,113.322541,104.0,Chinese Restaurant;Chinese Restaurant,17:00,21:30,Huacheng Square,"113.324593,23.120498",23.120498,113.324593,4.7,Outdoor Seating;Waiting Area
Yunshan Drunken Restaurant (Minghui Branch),Guangzhou,23.114582,113.247940,49.0,Chinese Restaurant;Chinese Restaurant,11:00,21:00,Shangxiajiu Pedestrian Street,"113.246895,23.114228",23.114228,113.246895,3.8,Must-Eat Top 10
Saizeriya Italian Restaurant (002 Shangxiajiu Branch),Guangzhou,23.114666,113.248337,40.0,Foreign Restaurant;Italian Restaurant,11:00,22:00,Shangxiajiu Pedestrian Street,"113.246895,23.114228",23.114228,113.246895,4.8,Online Queue
Kowloon Tea Restaurant · World Culinary Master Chef Restaurant (Tokyu New World Shopping Plaza Branch),Guangzhou,23.114505,113.248544,100.0,Fast Food Restaurant;Tea Restaurant,11:00,22:00,Shangxiajiu Pedestrian Street,"113.246895,23.114228",23.114228,113.246895,4.1,Private Room;Online Queue
Shifu Pavilion Chinese Restaurant (Shifu Mingdu Mall Branch),Guangzhou,23.113319,113.245509,70.0,Chinese Restaurant;Chinese Restaurant,11:00,21:00,Shangxiajiu Pedestrian Street,"113.246895,23.114228",23.114228,113.246895,4.1,Outdoor Seating;Online Queue
Guangzhou Shifu voco Hotel · TOCO Cafe · Giant Mouth Buffet Restaurant,Guangzhou,23.113153,113.245444,100.0,Accommodation Related;Accommodation Related,11:00,21:00,Shangxiajiu Pedestrian Street,"113.246895,23.114228",23.114228,113.246895,4.1,Must-Eat Top 10
Xi Chuan Music Bar,Guangzhou,23.113075,113.245125,100.0,Chinese Restaurant;Chinese Restaurant,19:30,03:00,Shangxiajiu Pedestrian Street,"113.246895,23.114228",23.114228,113.246895,3.5,Online Queue
Tao Tao Ju Restaurant (Dishifu Road Branch),Guangzhou,23.113365,113.242484,51.0,Chinese Restaurant;Cantonese Cuisine,08:00,21:00,Shangxiajiu Pedestrian Street,"113.246895,23.114228",23.114228,113.246895,4.6,Online Queue
Man Kee Yixin Chicken,Guangzhou,23.115184,113.241926,54.0,Chinese Restaurant;Chinese Restaurant,17:00,21:00,Shangxiajiu Pedestrian Street,"113.246895,23.114228",23.114228,113.246895,4.3,Must-Eat Top 10;Private Room
Chen Tian Kee,Guangzhou,23.114907,113.241602,20.0,Chinese Restaurant;Chinese Restaurant,10:00,22:00,Shangxiajiu Pedestrian Street,"113.246895,23.114228",23.114228,113.246895,4.3,Waiting Area
Jian Kee Noodle Shop (Yi Fu Noodles),Guangzhou,23.118214,113.250498,11.0,Chinese Restaurant;Chinese Restaurant,06:30,20:00,Shangxiajiu Pedestrian Street,"113.246895,23.114228",23.114228,113.246895,4.3,Waiting Area
Dim Dou Dak (Beijing Road Second Branch),Guangzhou,23.126571,113.268955,60.0,Chinese Restaurant;Chinese Restaurant,16:30,21:00,Museum of the Nanyue King (Palace Exhibition Area),"113.269853,23.126878",23.126878,113.269853,4.7,Must-Eat Top 10;Private Room
Taiping Guan (Beijing Road Branch),Guangzhou,23.126347,113.268959,111.0,Foreign Restaurant;Western Restaurant,11:00,22:00,Museum of the Nanyue King (Palace Exhibition Area),"113.269853,23.126878",23.126878,113.269853,4.3,Outdoor Seating
Burton Western Restaurant (New Daxin Guofeng Beijing Road Branch),Guangzhou,23.125939,113.268547,100.0,Foreign Restaurant;Foreign Restaurant,11:00,21:00,Museum of the Nanyue King (Palace Exhibition Area),"113.269853,23.126878",23.126878,113.269853,3.6,Must-Eat Top 10;Online Queue
Dimdoude (Beijing Road No.1 Branch),Guangzhou,23.126218,113.271378,65.0,Fast Food Restaurant;Tea Restaurant,16:30,21:00,Museum of the Nanyue King (Palace Exhibition Area),"113.269853,23.126878",23.126878,113.269853,4.7,Outdoor Seating;Birthday Package
Green Island Western Cuisine · Birthday Theme Restaurant (New Daxin Department Store Branch),Guangzhou,23.125801,113.268465,94.0,Foreign Restaurant;Foreign Restaurant,11:00,21:00,Museum of the Nanyue King (Palace Exhibition Area),"113.269853,23.126878",23.126878,113.269853,4.2,Waiting Area
Sunset Ultimate Micro Restaurant - Day Coffee Night Bar,Guangzhou,23.125125,113.269625,100.0,Chinese Restaurant;Chinese Restaurant,11:00,21:00,Museum of the Nanyue King (Palace Exhibition Area),"113.269853,23.126878",23.126878,113.269853,2.9,Must-Eat Top 10;Online Queue
Guoxiang Cantonese Flavor Tea Restaurant,Guangzhou,23.127325,113.267925,100.0,Fast Food Restaurant;Fast Food Restaurant,11:00,21:00,Museum of the Nanyue King (Palace Exhibition Area),"113.269853,23.126878",23.126878,113.269853,3.8,Must-Eat Top 10;Outdoor Seating
Nafu Food Court (Guangda Road Branch),Guangzhou,23.126882,113.267679,70.0,Chinese Restaurant;Chinese Restaurant,07:30,21:30,Museum of the Nanyue King (Palace Exhibition Area),"113.269853,23.126878",23.126878,113.269853,4.4,Must-Eat Top 10
Cheeseburg Italian Pasta Restaurant (Old Brand Street Branch),Guangzhou,23.126345,113.267659,58.0,Foreign Restaurant;Italian Restaurant,11:00,21:00,Museum of the Nanyue King (Palace Exhibition Area),"113.269853,23.126878",23.126878,113.269853,4.6,Must-Eat Top 10;Waiting Area
Jingbao Restaurant · Established in 1994,Guangzhou,23.125349,113.268271,32.0,Chinese Restaurant;Chinese Restaurant,10:30,22:00,Museum of the Nanyue King (Palace Exhibition Area),"113.269853,23.126878",23.126878,113.269853,3.8,Birthday Package
Guangzhou Drip Water Silent Restaurant,Guangzhou,23.107725,113.308325,111.0,Food Service Related;Food Service Related,09:30,21:00,Guangdong Museum of Art (Ersha Island Branch),"113.307228,23.107950",23.107950,113.307228,4.8,Must-Eat Top 10;Outdoor Seating
Peninsula Imperial Treasure Restaurant,Guangzhou,23.107510,113.308425,100.0,Chinese Restaurant;General Restaurant,17:00,22:00,Guangdong Museum of Art (Ersha Island Branch),"113.307228,23.107950",23.107950,113.307228,4.6,Must-Eat Top 10
Jinya Garden Restaurant (Ersha Island Branch),Guangzhou,23.111082,113.309855,88.0,休闲场所;休闲场所,11:00,21:00,Guangdong Museum of Art (Ersha Island Branch),"113.307228,23.107950",23.107950,113.307228,4.2,Outdoor Seating;Private Room
Nanhai Fishing Village · Ersha No.1,Guangzhou,23.108066,113.302397,174.0,Chinese Restaurant;Local Specialty Restaurant,17:30,22:00,Guangdong Museum of Art (Ersha Island Branch),"113.307228,23.107950",23.107950,113.307228,4.6,Must-Eat Top 10;Birthday Package
Renaissance Italian Restaurant · The Renaissance (Wenlifang Branch),Guangzhou,23.107809,113.302307,174.0,Foreign Restaurant;Italian Restaurant,11:00,22:00,Guangdong Museum of Art (Ersha Island Branch),"113.307228,23.107950",23.107950,113.307228,4.3,Birthday Package
Qiu Da Liu Zai Ji (Binjiang East Road Branch),Guangzhou,23.102754,113.306846,60.0,Chinese Restaurant;Cantonese Cuisine,17:00,21:30,Guangdong Museum of Art (Ersha Island Branch),"113.307228,23.107950",23.107950,113.307228,4.5,Waiting Area
PIPA Trattoria Bipa Bistro,Guangzhou,23.102758,113.308383,126.0,Food Service Related;Food Service Related,11:00,22:00,Guangdong Museum of Art (Ersha Island Branch),"113.307228,23.107950",23.107950,113.307228,4.5,Must-Eat Top 10;Outdoor Seating
Pearl River Dim Sum · Authentic Chaoshan Restaurant,Guangzhou,23.102602,113.308909,100.0,Chinese Restaurant;Chinese Restaurant,11:00,21:00,Guangdong Museum of Art (Ersha Island Branch),"113.307228,23.107950",23.107950,113.307228,4.1,Private Room
37°2 Magic Kitchen · French-Vietnamese Cuisine (North Gate of Sun Yat-sen University Branch),Guangzhou,23.102089,113.304220,59.0,Foreign Restaurant;Western Restaurant|Foreign Restaurant;French Restaurant|Foreign Restaurant;泰国/越南菜品餐厅,11:00,21:00,Guangdong Museum of Art (Ersha Island Branch),"113.307228,23.107950",23.107950,113.307228,4.7,Birthday Package
Yue Shi Fang Vegetarian Restaurant,Guangzhou,23.100684,113.308799,65.0,Chinese Restaurant;Chinese Restaurant,17:00,20:30,Guangdong Museum of Art (Ersha Island Branch),"113.307228,23.107950",23.107950,113.307228,4.7,Online Queue
Chao Yue Xuan Restaurant,Guangzhou,22.988580,113.277198,100.0,Chinese Restaurant;Chinese Restaurant,06:00,01:30,Guangzhou South Station,"113.269097,22.988344",22.988344,113.269097,3.9,Online Queue
Xiang Yu Jiawei Restaurant,Guangzhou,22.981550,113.265371,100.0,Chinese Restaurant;Chinese Restaurant,11:00,24:00,Guangzhou South Station,"113.269097,22.988344",22.988344,113.269097,3.7,Outdoor Seating;Birthday Package
Chao Yuan Restaurant,Guangzhou,22.988778,113.277390,100.0,Fast Food Restaurant;Fast Food Restaurant,11:00,21:00,Guangzhou South Station,"113.269097,22.988344",22.988344,113.269097,3.5,Waiting Area
Keming Ice Room (Huanyu City Branch),Guangzhou,22.233733,113.525141,47.0,Cold Beverage Shop;Cold Beverage Shop,11:00,21:00,Qianshan Station,"113.525641,22.234499",22.234499,113.525641,4.4,Online Queue
BAKER&SPICE (Zhuhai Huanyu City Branch),Guangzhou,22.233734,113.524951,79.0,糕饼店;糕饼店,10:00,22:00,Qianshan Station,"113.525641,22.234499",22.234499,113.525641,4.4,Private Room;Waiting Area
Not Bad Bligh8 · COFFEE & BRUNCH (Qianshan Branch),Guangzhou,22.235622,113.525102,100.0,Cafe;Cafe,11:30,20:30,Qianshan Station,"113.525641,22.234499",22.234499,113.525641,4.7,Private Room;Birthday Package
Renaissance Guangzhou Hotel Shanhelou Chinese Restaurant,Guangzhou,22.232598,113.525658,100.0,Chinese Restaurant;Cantonese Cuisine,10:30,21:00,Qianshan Station,"113.525641,22.234499",22.234499,113.525641,4.3,Must-Eat Top 10;Outdoor Seating
Yuji Tea Restaurant (Qianshan Branch),Guangzhou,22.233298,113.523801,100.0,Chinese Restaurant;Cantonese Cuisine,11:00,20:00,Qianshan Station,"113.525641,22.234499",22.234499,113.525641,4.6,Online Queue
Saizeriya Italian Restaurant (257 Zhuhai Mingzhu Station Bilecheng Branch),Guangzhou,22.267928,113.514842,39.0,Foreign Restaurant;Italian Restaurant,10:00,21:00,Mingzhu Station,"113.515572,22.268481",22.268481,113.515572,4.5,Must-Eat Top 10;Outdoor Seating
Golden Danyang Kee Seafood Restaurant (Shangbao Garden Branch),Guangzhou,22.267749,113.516897,75.0,Chinese Restaurant;Seafood Restaurant,11:00,24:00,Mingzhu Station,"113.515572,22.268481",22.268481,113.515572,4.0,Must-Eat Top 10;Private Room
Tianji Cha Chaan Teng (Palm Holiday Branch),Guangzhou,22.268238,113.511327,32.0,Fast Food Restaurant;Tea Restaurant,10:30,20:30,Mingzhu Station,"113.515572,22.268481",22.268481,113.515572,4.2,Must-Eat Top 10
Sichuan Flavor Hunan Restaurant (Regal Garden Branch),Guangzhou,22.266914,113.520097,100.0,Chinese Restaurant;Chinese Restaurant,10:00,22:30,Mingzhu Station,"113.515572,22.268481",22.268481,113.515572,4.0,Outdoor Seating;Waiting Area
Meixing Tech Park Smart Restaurant,Guangzhou,22.262879,113.517415,160.0,Chinese Restaurant;Chinese Restaurant,11:00,21:00,Mingzhu Station,"113.515572,22.268481",22.268481,113.515572,3.8,Private Room
Halal Lanzhou Muqiaowei Beef Noodles (Zhuhai Station),Guangzhou,22.216553,113.549793,100.0,Fast Food Restaurant;Fast Food Restaurant,08:00,00:30,Zhuhai Station,"113.549572,22.215378",22.215378,113.549572,3.8,Online Queue
Saizeriya Italian Restaurant (Charm Port City Branch),Guangzhou,22.215176,113.550900,47.0,Foreign Restaurant;Foreign Restaurant,10:00,22:00,Zhuhai Station,"113.549572,22.215378",22.215378,113.549572,4.6,Birthday Package
Tsui Wah Restaurant (Charm Port City Branch),Guangzhou,22.214949,113.550915,58.0,Fast Food Restaurant;Tea Restaurant,08:00,20:30,Zhuhai Station,"113.549572,22.215378",22.215378,113.549572,4.7,Private Room
Yuji Tea Restaurant (Changsheng Garden Branch),Guangzhou,22.216966,113.549919,100.0,Fast Food Restaurant;Tea Restaurant,11:00,21:30,Zhuhai Station,"113.549572,22.215378",22.215378,113.549572,4.7,Must-Eat Top 10;Waiting Area
Xinhexing Restaurant (Gongbei Port Branch),Guangzhou,22.216761,113.550750,118.0,Chinese Restaurant;Chinese Restaurant,10:00,02:00,Zhuhai Station,"113.549572,22.215378",22.215378,113.549572,4.5,Online Queue
Pullman Guangzhou Baiyun Airport Hotel · Tianyuan Creative Chinese Restaurant,Guangzhou,23.388786,113.303939,195.0,Chinese Restaurant;Cantonese Cuisine,17:30,21:00,Baiyun International Airport,"113.307392,23.387375",23.387375,113.307392,4.3,Must-Eat Top 10;Online Queue
Pullman Guangzhou Baiyun Airport Hotel · U8 Flavors Restaurant,Guangzhou,23.388920,113.303728,175.0,Foreign Restaurant;Western Restaurant,11:00,21:00,Baiyun International Airport,"113.307392,23.387375",23.387375,113.307392,4.2,Outdoor Seating;Waiting Area
Zhongtu Restaurant (Guangzhou Baiyun International Airport T1 Terminal),Guangzhou,23.382661,113.305204,100.0,Fast Food Restaurant;Fast Food Restaurant,11:00,21:00,Baiyun International Airport,"113.307392,23.387375",23.387375,113.307392,3.7,Online Queue
Marriott Hotel at Grandview Mall - Metropolitan Shangshan Wagyu Hotpot & Seafood Barbecue Buffet Restaurant,Guangzhou,23.132773,113.326234,168.0,Food Service Related;Food Service Related,18:00,21:30,Guangzhou Grandview Plaza Marriott Hotel,"113.326454,23.132645",23.132645,113.326454,4.1,Private Room
Old Xiang Village · Hunan Rustic Cuisine (Haizhu Yanhu Plaza Branch),Guangzhou,23.082032,113.277770,100.0,Chinese Restaurant;Hunan Cuisine,11:00,21:00,Jinjiang Inn (Guangzhou Haizhu Jiangtai Road Metro Station Branch),"113.278680,23.079970",23.079970,113.278680,4.4,Outdoor Seating;Private Room
Saizeriya Italian Restaurant (Yan Hui Plaza Branch),Guangzhou,23.082125,113.278021,37.0,Foreign Restaurant;Italian Restaurant,10:00,22:00,Jinjiang Inn (Guangzhou Haizhu Jiangtai Road Metro Station Branch),"113.278680,23.079970",23.079970,113.278680,4.4,Outdoor Seating;Online Queue
Tangdao · Tea Restaurant Health Soup (Vanke Li Branch),Guangzhou,23.082673,113.278639,48.0,Fast Food Restaurant;Tea Restaurant,10:00,22:00,Jinjiang Inn (Guangzhou Haizhu Jiangtai Road Metro Station Branch),"113.278680,23.079970",23.079970,113.278680,4.1,Online Queue
Keming Ice Room (Panyu Agile Plaza Branch),Guangzhou,23.002473,113.346599,49.0,Cold Beverage Shop;Cold Beverage Shop,11:00,21:00,Hanting Hotel Guangzhou Panyu Chimelong Wanda Plaza Center,"113.345855,23.002712",23.002712,113.345855,4.6,Outdoor Seating;Waiting Area
Yoting American BBQ Restaurant,Guangzhou,23.002723,113.347060,70.0,Foreign Restaurant;Foreign Restaurant,11:00,01:00,Hanting Hotel Guangzhou Panyu Chimelong Wanda Plaza Center,"113.345855,23.002712",23.002712,113.345855,4.7,Private Room;Online Queue
Big Orange Fat Cat Tea Restaurant (Starry Lane Branch),Guangzhou,23.004059,113.347155,32.0,Fast Food Restaurant;Fast Food Restaurant,11:00,21:00,Hanting Hotel Guangzhou Panyu Chimelong Wanda Plaza Center,"113.345855,23.002712",23.002712,113.345855,4.2,Online Queue
Man Wah Ice Room (Panyu Teemall Branch),Guangzhou,23.003212,113.348359,55.0,Fast Food Restaurant;Tea Restaurant,10:00,22:00,Hanting Hotel Guangzhou Panyu Chimelong Wanda Plaza Center,"113.345855,23.002712",23.002712,113.345855,4.2,Private Room;Birthday Package
Tao Tao Ju Restaurant (Panyu Tianhe City Branch),Guangzhou,23.004295,113.348532,100.0,Chinese Restaurant;Chinese Restaurant,10:00,21:30,Hanting Hotel Guangzhou Panyu Chimelong Wanda Plaza Center,"113.345855,23.002712",23.002712,113.345855,4.5,Must-Eat Top 10
Khushboo Restaurant,Guangzhou,23.149832,113.262173,52.0,Chinese Restaurant;Chinese Restaurant,11:00,21:00,Guangzhou Railway Station Hilton Hampton Hotel,"113.262023,23.150488",23.150488,113.262023,4.0,Must-Eat Top 10
Hampton by Hilton Hotel · Hampton Restaurant,Guangzhou,23.149500,113.262126,100.0,Chinese Restaurant;Chinese Restaurant,11:00,21:00,Guangzhou Railway Station Hilton Hampton Hotel,"113.262023,23.150488",23.150488,113.262023,3.8,Online Queue
Guangzhou Feng · Attitude Hotel Restaurant,Guangzhou,23.150938,113.258589,100.0,Chinese Restaurant;Chinese Restaurant,11:00,21:00,Guangzhou Railway Station Hilton Hampton Hotel,"113.262023,23.150488",23.150488,113.262023,3.6,Private Room;Birthday Package
Wenming Restaurant (Hengsheng Building Branch),Guangzhou,23.146570,113.265508,100.0,Chinese Restaurant;Chinese Restaurant,11:00,21:00,Guangzhou Railway Station Hilton Hampton Hotel,"113.262023,23.150488",23.150488,113.262023,3.9,Birthday Package
iFUNANYA FOOD (Ifunanya Restaurant),Guangzhou,23.151352,113.256330,100.0,Foreign Restaurant;Foreign Restaurant,11:00,21:00,Guangzhou Railway Station Hilton Hampton Hotel,"113.262023,23.150488",23.150488,113.262023,3.6,Online Queue
Tai Hang Ice Room (South Station Xijie Branch),Guangzhou,22.984517,113.280317,39.0,Cold Beverage Shop;Cold Beverage Shop,11:00,21:00,Victoria Hotel (Guangzhou High-Speed Railway South Station Branch),"113.277294,22.988918",22.988918,113.277294,4.6,Birthday Package
Easthampton Hotel · Royal View Pavilion Chinese Restaurant,Guangzhou,23.115217,113.373707,226.0,Chinese Restaurant;Chinese Restaurant,11:00,21:00,Guangzhou Easton Hotel,"113.374158,23.115536",23.115536,113.374158,3.9,Private Room;Birthday Package
Longhui Restaurant (Yuancun Fourth Heng Road Branch),Guangzhou,23.115301,113.370440,16.0,Chinese Restaurant;Chinese Restaurant,10:30,21:00,Guangzhou Easton Hotel,"113.374158,23.115536",23.115536,113.374158,4.3,Outdoor Seating;Online Queue
Cunzong Restaurant,Guangzhou,23.115653,113.370353,52.0,Chinese Restaurant;Chinese Restaurant,17:00,21:00,Guangzhou Easton Hotel,"113.374158,23.115536",23.115536,113.374158,4.7,Birthday Package
Guangzhou Xiangxue International Apartment - Sunshine All-Day Dining Restaurant (Guangzhou Xiangxue International Apartment Phase 1 Branch),Guangzhou,23.177708,113.495488,85.0,Foreign Restaurant;Western Restaurant,11:00,22:30,Guangzhou Xiangxue International Hotel Apartment (Baoneng Performing Arts Center Branch),"113.496800,23.178158",23.178158,113.496800,4.3,Must-Eat Top 10;Waiting Area
Happiness Lane 2007 Restaurant (Guangzhou Xiangxue International Apartment Branch),Guangzhou,23.177808,113.498741,97.0,Chinese Restaurant;Chinese Restaurant,11:00,21:00,Guangzhou Xiangxue International Hotel Apartment (Baoneng Performing Arts Center Branch),"113.496800,23.178158",23.178158,113.496800,4.0,Waiting Area
Lace Western Restaurant,Guangzhou,23.178436,113.500411,70.0,Foreign Restaurant;Western Restaurant,07:00,21:00,Guangzhou Xiangxue International Hotel Apartment (Baoneng Performing Arts Center Branch),"113.496800,23.178158",23.178158,113.496800,3.8,Outdoor Seating;Waiting Area
Guoshang Steamed · No.1 Courtyard (Luogang Aoyuan Plaza Branch),Guangzhou,23.173820,113.497087,130.0,Chinese Restaurant;Chinese Restaurant,17:00,22:00,Guangzhou Xiangxue International Hotel Apartment (Baoneng Performing Arts Center Branch),"113.496800,23.178158",23.178158,113.496800,4.5,Must-Eat Top 10;Private Room
Second Restaurant,Guangzhou,23.174225,113.489275,100.0,Chinese Restaurant;Chinese Restaurant,11:00,21:00,Guangzhou Xiangxue International Hotel Apartment (Baoneng Performing Arts Center Branch),"113.496800,23.178158",23.178158,113.496800,2.7,Must-Eat Top 10;Outdoor Seating
Ronghe Elegant Court · Chaoshan Private Cuisine (Airport Road Branch),Guangzhou,23.198550,113.264423,200.0,Chinese Restaurant;Chinese Restaurant,10:30,22:30,Vienna International Hotel (Guangzhou Baiyun International Convention Center Branch),"113.264166,23.198966",23.198966,113.264166,4.4,Outdoor Seating;Online Queue
You Canteen Cantonese Tea Restaurant · Steamed Rice · Fried Rice · Double-boiled Soup,Guangzhou,23.198130,113.264464,100.0,Chinese Restaurant;Chinese Restaurant,09:00,21:00,Vienna International Hotel (Guangzhou Baiyun International Convention Center Branch),"113.264166,23.198966",23.198966,113.264166,4.1,Must-Eat Top 10
Dexin Chaoshan Restaurant,Guangzhou,23.201878,113.264035,100.0,Chinese Restaurant;潮州菜,11:00,21:00,Vienna International Hotel (Guangzhou Baiyun International Convention Center Branch),"113.264166,23.198966",23.198966,113.264166,3.9,Must-Eat Top 10;Waiting Area
Guangzhou HNA Westin Hotel Prego Italian Restaurant,Guangzhou,23.143469,113.326111,323.0,Foreign Restaurant;Italian Restaurant,17:30,21:30,Guangzhou HNA Westin Hotel,"113.325935,23.143612",23.143612,113.325935,4.1,Outdoor Seating;Waiting Area
Guangzhou HNA Westin Hotel Taste All-Day Dining Restaurant,Guangzhou,23.143515,113.326195,350.0,Chinese Restaurant;Chinese Restaurant,06:30,21:30,Guangzhou HNA Westin Hotel,"113.325935,23.143612",23.143612,113.325935,4.4,Waiting Area;Birthday Package
The Westin Guangzhou · Hong Mian Chinese Restaurant,Guangzhou,23.143564,113.326268,150.0,Chinese Restaurant;Chinese Restaurant,17:30,21:30,Guangzhou HNA Westin Hotel,"113.325935,23.143612",23.143612,113.325935,4.2,Waiting Area
Saizeriya Italian Restaurant (237 Health Port Cocopark Branch),Guangzhou,23.059096,113.260537,42.0,Foreign Restaurant;Foreign Restaurant,10:00,22:00,Guangzhou Health Ark Knight's Tale Hotel (Dongsha Metro Station Branch),"113.260843,23.059384",23.059384,113.260843,4.5,Private Room
Coconut Enjoy Time · Exquisite Coconut Chicken (COCOpark Branch),Guangzhou,23.058953,113.260159,71.0,Chinese Restaurant;Hot Pot,10:30,22:00,Guangzhou Health Ark Knight's Tale Hotel (Dongsha Metro Station Branch),"113.260843,23.059384",23.059384,113.260843,4.3,Must-Eat Top 10;Online Queue
Uncle Tea Restaurant (COCO PARK Branch),Guangzhou,23.059334,113.259826,44.0,Fast Food Restaurant;Tea Restaurant,10:00,21:30,Guangzhou Health Ark Knight's Tale Hotel (Dongsha Metro Station Branch),"113.260843,23.059384",23.059384,113.260843,4.3,Must-Eat Top 10;Online Queue
Fan Zhanggui Self-Service Restaurant,Guangzhou,23.059340,113.251835,100.0,Chinese Restaurant;Chinese Restaurant,11:00,21:00,Guangzhou Health Ark Knight's Tale Hotel (Dongsha Metro Station Branch),"113.260843,23.059384",23.059384,113.260843,4.2,Must-Eat Top 10
Guangzhou · Pinzhen Steak Factory Restaurant,Guangzhou,23.056757,113.251861,100.0,Foreign Restaurant;Western Restaurant,17:00,20:30,Guangzhou Health Ark Knight's Tale Hotel (Dongsha Metro Station Branch),"113.260843,23.059384",23.059384,113.260843,4.5,Must-Eat Top 10;Online Queue
Zhiwei Garden Restaurant (Longde Building Branch),Guangzhou,23.133739,113.330800,100.0,Chinese Restaurant;Chinese Restaurant,11:00,21:00,Yumanju High-Rise City View Service Apartment (Guangzhou Tianhe Sports Center Shipaiqiao Metro Station Branch),"113.329790,23.133973",23.133973,113.329790,3.8,Waiting Area
Cuilin Ice Room (Fubon Center Branch),Guangzhou,23.124907,113.252822,38.0,Food Service Related;Food Service Related,11:00,22:00,Ji Hotel Guangzhou Ximenkou,"113.252000,23.125200",23.125200,113.252000,4.2,Outdoor Seating;Online Queue
Yuehuang Hong Kong-style Tea Restaurant,Guangzhou,23.126979,113.253251,41.0,Fast Food Restaurant;Fast Food Restaurant,11:00,22:00,Ji Hotel Guangzhou Ximenkou,"113.252000,23.125200",23.125200,113.252000,4.1,Online Queue
Thai Narak Charming Thai Restaurant,Guangzhou,23.127061,113.253270,64.0,Foreign Restaurant;泰国/越南菜品餐厅,17:00,22:00,Ji Hotel Guangzhou Ximenkou,"113.252000,23.125200",23.125200,113.252000,4.8,Private Room
Junmanfu Restaurant (Yongshengyuan Branch),Guangzhou,23.225475,113.301675,143.0,Chinese Restaurant;Chinese Restaurant,17:00,21:30,Home Inn Selected - Guangzhou Baiyun Mountain Baiyun Avenue North Metro Station Branch,"113.302653,23.225614",23.225614,113.302653,3.9,Birthday Package;Online Queue
Huihui Cantonese Tea Restaurant (Yongsheng Court Branch),Guangzhou,23.224528,113.302362,100.0,Chinese Restaurant;Chinese Restaurant,11:00,21:00,Home Inn Selected - Guangzhou Baiyun Mountain Baiyun Avenue North Metro Station Branch,"113.302653,23.225614",23.225614,113.302653,3.7,Outdoor Seating;Private Room
Drive-Thru Restaurant,Guangzhou,23.227363,113.301735,100.0,Chinese Restaurant;Chinese Restaurant,11:00,21:00,Home Inn Selected - Guangzhou Baiyun Mountain Baiyun Avenue North Metro Station Branch,"113.302653,23.225614",23.225614,113.302653,3.6,Outdoor Seating;Waiting Area
Rongji · Tea Restaurant,Guangzhou,23.226734,113.304435,26.0,Fast Food Restaurant;Tea Restaurant,10:00,22:00,Home Inn Selected - Guangzhou Baiyun Mountain Baiyun Avenue North Metro Station Branch,"113.302653,23.225614",23.225614,113.302653,4.0,Outdoor Seating;Birthday Package
Hong Kee Hong Kong Style Tea Restaurant,Guangzhou,23.226761,113.304434,100.0,Fast Food Restaurant;Tea Restaurant,11:00,21:00,Home Inn Selected - Guangzhou Baiyun Mountain Baiyun Avenue North Metro Station Branch,"113.302653,23.225614",23.225614,113.302653,3.4,Outdoor Seating
Fusion Four Happiness Tea Restaurant (Panyu Shawan Liyuan Branch),Guangzhou,22.919099,113.345970,43.0,Fast Food Restaurant;Tea Restaurant,10:30,21:30,Guangzhou Panyu Shawan Ancient Town Atour Hotel,"113.345799,22.918743",22.918743,113.345799,4.4,Private Room
Shangyefang Coconut Chicken Theme Restaurant,Guangzhou,22.919275,113.345975,73.0,Chinese Restaurant;Chinese Restaurant,09:00,21:00,Guangzhou Panyu Shawan Ancient Town Atour Hotel,"113.345799,22.918743",22.918743,113.345799,4.3,Outdoor Seating
Yongyuan Baile Golden Banquet (Liyuan New World Branch),Guangzhou,22.919772,113.345995,122.0,Chinese Restaurant;Chinese Restaurant,17:00,22:00,Guangzhou Panyu Shawan Ancient Town Atour Hotel,"113.345799,22.918743",22.918743,113.345799,4.6,Birthday Package
Bao Kee · Chaozhou-Style Tea Restaurant,Guangzhou,22.972513,113.307049,100.0,Fast Food Restaurant;Tea Restaurant,10:00,21:00,Hanting Hotel Guangzhou Panyu Chimelong Zhongcun,"113.308357,22.975231",22.975231,113.308357,3.9,Waiting Area;Birthday Package
Meizhiguo Tea Dining Shop,Guangzhou,22.971576,113.306832,100.0,Fast Food Restaurant;Fast Food Restaurant,11:00,21:00,Hanting Hotel Guangzhou Panyu Chimelong Zhongcun,"113.308357,22.975231",22.975231,113.308357,2.6,Online Queue
Changdianxian · Shunde Cuisine · Private Kitchen · Steamed Seafood (Guangzhou Flagship Store),Guangzhou,22.972896,113.304283,80.0,Chinese Restaurant;Seafood Restaurant,16:30,22:00,Hanting Hotel Guangzhou Panyu Chimelong Zhongcun,"113.308357,22.975231",22.975231,113.308357,4.6,Private Room
Huang En Kee Tea Restaurant (Hengbao Plaza Branch),Guangzhou,23.117225,113.241474,42.0,Fast Food Restaurant;Fast Food Restaurant,10:30,21:00,Home Inn - Guangzhou Shangxiajiu Hualin International Jade Market Branch,"113.244424,23.116324",23.116324,113.244424,4.2,Private Room;Birthday Package
Saizeriya Italian Restaurant (Hengbao Plaza Branch),Guangzhou,23.117333,113.241294,49.0,Foreign Restaurant;Italian Restaurant,10:00,22:00,Home Inn - Guangzhou Shangxiajiu Hualin International Jade Market Branch,"113.244424,23.116324",23.116324,113.244424,4.7,Private Room
Yujing Fine Dining Restaurant,Guangzhou,23.100427,113.315052,100.0,Chinese Restaurant;Chinese Restaurant,11:00,23:00,Ji Hotel Guangzhou Tower,"113.313000,23.100700",23.100700,113.313000,3.9,Must-Eat Top 10
Dongjiang Seafood Restaurant (Dongjiang Main Store),Guangzhou,23.098357,113.315128,100.0,Chinese Restaurant;Seafood Restaurant,07:30,21:30,Ji Hotel Guangzhou Tower,"113.313000,23.100700",23.100700,113.313000,4.2,Private Room;Online Queue
Chao Fu Restaurant (Main Branch),Guangzhou,23.099716,113.309645,45.0,Chinese Restaurant;潮州菜,17:00,21:30,Ji Hotel Guangzhou Tower,"113.313000,23.100700",23.100700,113.313000,4.6,Private Room;Waiting Area
Tai Hang Ice Room (South Station Xijie Branch),Guangzhou,22.984517,113.280317,39.0,Cold Beverage Shop;Cold Beverage Shop,11:00,21:00,Ji Hotel Guangzhou South Railway Station,"113.280535,22.985240",22.985240,113.280535,4.6,Must-Eat Top 10;Birthday Package
Chao Yue Xuan Restaurant,Guangzhou,22.988580,113.277198,100.0,Chinese Restaurant;Chinese Restaurant,06:00,01:30,Ji Hotel Guangzhou South Railway Station,"113.280535,22.985240",22.985240,113.280535,3.9,Must-Eat Top 10;Online Queue
Chao Yuan Restaurant,Guangzhou,22.988778,113.277390,100.0,Fast Food Restaurant;Fast Food Restaurant,11:00,21:00,Ji Hotel Guangzhou South Railway Station,"113.280535,22.985240",22.985240,113.280535,3.5,Private Room;Online Queue
Xiang Yu Jiawei Restaurant,Guangzhou,22.981550,113.265371,100.0,Chinese Restaurant;Chinese Restaurant,11:00,24:00,Ji Hotel Guangzhou South Railway Station,"113.280535,22.985240",22.985240,113.280535,3.7,Private Room
Hakka Restaurant,Guangzhou,22.970818,113.300078,100.0,Chinese Restaurant;Chinese Restaurant,11:00,21:00,Ji Hotel Guangzhou South Railway Station,"113.280535,22.985240",22.985240,113.280535,3.5,Online Queue
Dim Dou Dak (Lihong Building),Guangzhou,23.117959,113.231403,53.0,Chinese Restaurant;Cantonese Cuisine,07:30,20:00,Home Inn - Guangzhou Shangxiajiu Ruyifang Metro Station Branch,"113.231821,23.117447",23.117447,113.231821,4.7,Outdoor Seating;Birthday Package
San Paulo Cantonese Cuisine Restaurant,Guangzhou,23.116932,113.235996,38.0,Chinese Restaurant;Cantonese Cuisine,11:00,21:30,Home Inn - Guangzhou Shangxiajiu Ruyifang Metro Station Branch,"113.231821,23.117447",23.117447,113.231821,4.2,Private Room
Xiyue Boyahui Private Kitchen,Guangzhou,23.121817,113.234791,178.0,Chinese Restaurant;Cantonese Cuisine,17:00,21:30,Home Inn - Guangzhou Shangxiajiu Ruyifang Metro Station Branch,"113.231821,23.117447",23.117447,113.231821,4.4,Private Room
Panxi Restaurant,Guangzhou,23.121321,113.236214,81.0,Chinese Restaurant;General Restaurant|糕饼店;糕饼店,17:00,21:00,Home Inn - Guangzhou Shangxiajiu Ruyifang Metro Station Branch,"113.231821,23.117447",23.117447,113.231821,4.5,Must-Eat Top 10
Shun Kee Ice Room (Lychee Bay Branch),Guangzhou,23.121364,113.236807,24.0,Food Service Related;Food Service Related,12:00,22:00,Home Inn - Guangzhou Shangxiajiu Ruyifang Metro Station Branch,"113.231821,23.117447",23.117447,113.231821,4.3,Must-Eat Top 10
Sheraton Guangzhou Hotel · Cai Yue Xuan Chinese Restaurant,Guangzhou,23.132707,113.322167,182.0,Chinese Restaurant;Chinese Restaurant,17:30,22:00,Guangzhou Yuehai Sheraton Hotel,"113.321810,23.132912",23.132912,113.321810,4.5,Must-Eat Top 10;Birthday Package
Sheraton Guangzhou Hotel · Bene Seafood Restaurant,Guangzhou,23.132999,113.322371,103.0,Foreign Restaurant;Western Restaurant|Foreign Restaurant;Italian Restaurant,17:30,21:30,Guangzhou Yuehai Sheraton Hotel,"113.321810,23.132912",23.132912,113.321810,4.5,Outdoor Seating;Online Queue
Sheraton Guangzhou Hotel · Feast Buffet Restaurant,Guangzhou,23.132377,113.322218,200.0,Foreign Restaurant;Western Restaurant,17:30,21:30,Guangzhou Yuehai Sheraton Hotel,"113.321810,23.132912",23.132912,113.321810,4.3,Must-Eat Top 10;Private Room
Hong Kong Style Restaurant (Teemall),Guangzhou,23.132300,113.322385,87.0,Chinese Restaurant;Cantonese Cuisine|Chinese Restaurant;Local Specialty Restaurant,10:30,22:00,Guangzhou Yuehai Sheraton Hotel,"113.321810,23.132912",23.132912,113.321810,4.5,Must-Eat Top 10;Online Queue
Wen Tong Ice Room (Tiyu West Road LAB Branch),Guangzhou,23.132085,113.321283,100.0,Chinese Restaurant;Cantonese Cuisine,10:30,22:00,Guangzhou Yuehai Sheraton Hotel,"113.321810,23.132912",23.132912,113.321810,4.7,Must-Eat Top 10;Private Room
