city,attraction_name,attraction_id,description,attraction_type,address,latitude,longitude,rating,opening_time,closing_time,closing_dates,min_visit_hours,max_visit_hours,ticket_price
Guilin,Xingping Ancient Town,B030507XJK,"A thousand-year-old ancient town by the Li River, featured as the backdrop of the 20 RMB banknote, rustic and tranquil, with picturesque landscapes.",Historical and Cultural,,24.916611,110.530606,4.5,09:00,16:30,,1.5,3.0,0
Guilin,Solitary Beauty Peak,B0305097KU,"Located within Jingjiang Princes' City, the highest point in Guilin, offering a panoramic view of the entire city.",Historical and Cultural,,25.281648,110.299118,4.9,08:00,18:00,,0.5,2.0,100
Guilin,Li River Bamboo Rafting (Yangdi-Xingping Section),B03050WG36,"Bamboo raft tour along the essence section of the Li River, passing by scenic spots such as Nine Horses Mountain and Yellow Cloth Reflection, featured on the 20 RMB banknote.",Natural Scenery,,24.922688,110.520203,4.6,08:00,17:00,,2.0,3.5,225
Guilin,East-West Alley,B0FFFV91CN,"Guilin's historical and cultural district, a pedestrian street integrating traditional architecture, local snacks, and creative shops.",Historical and Cultural,,25.278717,110.299731,4.7,Open 24 Hours,Open 24 Hours,,1.0,2.5,35
Guilin,Yulong River Bamboo Rafting,B0FFJ8VHBO,"Yangshuo's premium drifting experience, riding bamboo rafts through idyllic landscapes, enjoying the serene and profound beauty of nature.",Natural Scenery,,24.809946,110.399652,4.7,09:00,16:30,,1.0,2.5,255
Guilin,Impression Liu Sanjie,,"A large-scale outdoor performance directed by Zhang Yimou, a stunning visual and auditory feast staged on the Li River.",Historical and Cultural,,24.776000,110.496000,4.6,19:30,20:40,,1.0,2.5,268
Guilin,Ten-Mile Gallery,B0FFFS3J39,"Yangshuo's classic cycling route, showcasing picturesque rural scenery along the way, with iconic Guilin mountain and countryside views.",Natural Scenery,,24.749369,110.476517,4.7,09:00,18:00,,1.5,3.0,0
Guilin,Wood Dragon Lake,B030506OF8,"A park with lakes located in Guilin city, offering a serene environment perfect for morning exercises and leisurely walks.",Natural Scenery,,25.291612,110.299316,3.9,08:00,18:30,,0.5,2.0,0
Guilin,Elephant Trunk Hill Scenic Area,B030506W0W,"A landmark attraction in Guilin, resembling a giant elephant drinking water with its trunk, symbolizing Guilin's unique landscape.",Natural Scenery,,25.267579,110.296573,4.8,07:00,21:30,,1.0,2.5,55
Guilin,Zhengyang Pedestrian Street,B0305095W6,"The central commercial pedestrian street in Guilin, featuring local snacks, specialties, and nightlife, providing an authentic cultural experience.",Leisure Experience,,25.275125,110.298130,4.8,Open 24 Hours,Open 24 Hours,,1.5,3.0,0
