restaurant_name,city,latitude,longitude,price_per_person,cuisine,opening_time,closing_time,nearby_attraction_name,nearby_attraction_coords,query_latitude,query_longitude,rating,tags
Wentong Ice Room (Parkview Green Store),Dalian,38.917672,121.630530,41.0,Cold Beverage Shop;Cold Beverage Shop,10:30,21:00,Qingniwa Bridge Commercial Area,"121.631086,38.916526",38.916526,121.631086,4.7,Must-Eat Top 10
Big Tree Restaurant (Parkview Green Branch),Dalian,38.917691,121.630150,100.0,Chinese Restaurant;Chinese Restaurant,10:30,21:00,Qingniwa Bridge Commercial Area,"121.631086,38.916526",38.916526,121.631086,4.6,Outdoor Seating
Xinjiang Erzi Wawa Restaurant (Jinhua Street Branch),Dalian,38.915330,121.629402,85.0,Chinese Restaurant;Chinese Restaurant,11:30,21:00,Qingniwa Bridge Commercial Area,"121.631086,38.916526",38.916526,121.631086,4.2,Birthday Package;Online Queue
Amore Pizza (Pavilion Branch),Dalian,38.917817,121.629352,80.0,Foreign Restaurant;Western Restaurant,11:30,20:30,Qingniwa Bridge Commercial Area,"121.631086,38.916526",38.916526,121.631086,4.2,Outdoor Seating;Private Room
Hang Xiaodian Dim Sum & Scallion Oil Noodles (Pavilion Branch),Dalian,38.917896,121.629365,65.0,Chinese Restaurant;Zhejiang Cuisine,09:30,21:30,Qingniwa Bridge Commercial Area,"121.631086,38.916526",38.916526,121.631086,4.8,Waiting Area;Online Queue
Jiahewu Fashion Restaurant (Jinhua Street Store),Dalian,38.915142,121.629056,28.0,Fast Food Restaurant;Fast Food Restaurant,09:00,21:00,Qingniwa Bridge Commercial Area,"121.631086,38.916526",38.916526,121.631086,4.4,Waiting Area
Shunhexiang Halal Garden Restaurant (Dalian Parkview Green Store),Dalian,38.918042,121.629067,92.0,Chinese Restaurant;Halal Restaurant,10:30,21:00,Qingniwa Bridge Commercial Area,"121.631086,38.916526",38.916526,121.631086,4.6,Must-Eat Top 10
ABURI Flame-Grilled Sushi (Parkview Green Branch),Dalian,38.918134,121.629134,105.0,Foreign Restaurant;Japanese Cuisine,09:30,21:30,Qingniwa Bridge Commercial Area,"121.631086,38.916526",38.916526,121.631086,4.4,Must-Eat Top 10;Birthday Package
Thousand Days Celebration Tea Restaurant (Parkview Green Branch),Dalian,38.918074,121.628955,59.0,Fast Food Restaurant;Tea Restaurant,10:30,21:00,Qingniwa Bridge Commercial Area,"121.631086,38.916526",38.916526,121.631086,4.4,Must-Eat Top 10;Waiting Area
Unlimited Shrimp Enjoyment Fengguang Street Branch,Dalian,38.914657,121.628668,100.0,Chinese Restaurant;Chinese Restaurant,16:00,21:00,Qingniwa Bridge Commercial Area,"121.631086,38.916526",38.916526,121.631086,4.7,Must-Eat Top 10;Waiting Area
Fishing Sentiments and Gifts Seafood Restaurant,Dalian,39.078632,122.004641,121.0,Chinese Restaurant;Seafood Restaurant,09:00,00:30,Golden Coast,"122.003474,39.076061",39.076061,122.003474,3.8,Waiting Area;Birthday Package
Golden Pebble Beach Luneng Hilton·Kitchen All-Day Dining Restaurant,Dalian,39.075001,121.997921,244.0,Foreign Restaurant;Japanese Cuisine,06:30,21:00,Golden Coast,"122.003474,39.076061",39.076061,122.003474,4.2,Must-Eat Top 10
Golden Pebble Beach Seafood Food Stall No. 12 Restaurant,Dalian,39.080485,122.012637,72.0,Chinese Restaurant;Seafood Restaurant,11:00,21:00,Golden Coast,"122.003474,39.076061",39.076061,122.003474,4.3,Private Room;Birthday Package
Qingyuan Restaurant (Blue Bay Branch),Dalian,39.087721,122.012230,100.0,Chinese Restaurant;Chinese Restaurant,11:00,21:00,Golden Coast,"122.003474,39.076061",39.076061,122.003474,3.6,Outdoor Seating;Birthday Package
Food Dodo Restaurant (Food Dodo Dining Shop),Dalian,39.088915,122.014309,100.0,Chinese Restaurant;Chinese Restaurant,10:00,22:45,Golden Coast,"122.003474,39.076061",39.076061,122.003474,3.5,Private Room
Golden Pebble Beach No.13 Seafood Food Stall Restaurant (Temporarily Closed),Dalian,39.080383,122.012676,48.0,Food Service Related;Food Service Related,10:00,24:00,Golden Coast,"122.003474,39.076061",39.076061,122.003474,3.9,Outdoor Seating
Tianchi Restaurant (Heishi Reef Street),Dalian,38.872667,121.556567,23.0,Chinese Restaurant;Chinese Restaurant,10:00,22:00,Dalian Natural History Museum,"121.561602,38.870371",38.870371,121.561602,4.4,Must-Eat Top 10;Private Room
Lvda Impression · Dalian Local Cuisine Restaurant (Xinghai Branch),Dalian,38.874363,121.558179,100.0,Chinese Restaurant;Seafood Restaurant,10:30,21:00,Dalian Natural History Museum,"121.561602,38.870371",38.870371,121.561602,4.6,Private Room;Waiting Area
Xian · All-Day Premium Dining Restaurant (Furiting Branch),Dalian,38.876408,121.557763,100.0,Foreign Restaurant;Western Restaurant,11:00,21:00,Dalian Natural History Museum,"121.561602,38.870371",38.870371,121.561602,4.5,Must-Eat Top 10;Outdoor Seating
Sun Moon Ming Small Fishing Village (Xinghai Square Store),Dalian,38.878291,121.563753,88.0,Chinese Restaurant;Seafood Restaurant,09:00,21:00,Dalian Natural History Museum,"121.561602,38.870371",38.870371,121.561602,4.8,Outdoor Seating
Yajie Restaurant,Dalian,38.877662,121.555835,43.0,Chinese Restaurant;东北菜,09:00,22:00,Dalian Natural History Museum,"121.561602,38.870371",38.870371,121.561602,4.2,Waiting Area
Dalian COASTAL Seaside Western Restaurant · Ocean Western Restaurant,Dalian,38.877325,121.571997,171.0,Foreign Restaurant;Foreign Restaurant,11:00,22:00,Dalian Natural History Museum,"121.561602,38.870371",38.870371,121.561602,4.5,Outdoor Seating
Mongolian Yuan Culture Theme Restaurant (Haiyun Garden Branch),Dalian,38.880874,121.567668,100.0,Chinese Restaurant;Chinese Restaurant,11:00,21:00,Dalian Natural History Museum,"121.561602,38.870371",38.870371,121.561602,3.5,Online Queue
Dongbei University of Finance and Economics Second Restaurant,Dalian,38.879365,121.550837,13.0,Chinese Restaurant;Chinese Restaurant,11:00,21:00,Dalian Natural History Museum,"121.561602,38.870371",38.870371,121.561602,4.3,Outdoor Seating
Dongbei University of Finance and Economics Center Restaurant,Dalian,38.881291,121.554077,100.0,Food Service Related;Food Service Related,09:00,22:00,Dalian Natural History Museum,"121.561602,38.870371",38.870371,121.561602,4.5,Private Room;Waiting Area
COASTAL Waterfront Restaurant,Dalian,38.879472,121.572577,100.0,体育休闲服务场所;体育休闲服务场所,11:00,21:00,Dalian Natural History Museum,"121.561602,38.870371",38.870371,121.561602,4.1,Outdoor Seating;Waiting Area
Darenguan Chinese Restaurant (Friendship Mall Branch),Dalian,38.922800,121.645427,116.0,Chinese Restaurant;Chinese Restaurant,11:00,20:30,Zhongshan Square,"121.643827,38.921549",38.921549,121.643827,4.3,Waiting Area
Encounter Music Bar,Dalian,38.921410,121.646174,100.0,Entertainment Venue;Bar,11:00,21:00,Zhongshan Square,"121.643827,38.921549",38.921549,121.643827,4.3,Must-Eat Top 10;Outdoor Seating
Tsim Sha Tsui Tea Restaurant · Peach Blossom Land (Friendship Mall Branch),Dalian,38.922682,121.645763,40.0,Fast Food Restaurant;Fast Food Restaurant,09:30,20:00,Zhongshan Square,"121.643827,38.921549",38.921549,121.643827,4.1,Must-Eat Top 10
Flower Time (New Star International Center Branch),Dalian,38.919444,121.642699,114.0,Food Service Related;Food Service Related,10:00,21:00,Zhongshan Square,"121.643827,38.921549",38.921549,121.643827,4.7,Must-Eat Top 10;Private Room
Bailehui Restaurant (Dalian COSCO Shipping Building Branch),Dalian,38.919655,121.641943,25.0,Chinese Restaurant;Chinese Restaurant,11:00,21:00,Zhongshan Square,"121.643827,38.921549",38.921549,121.643827,3.7,Must-Eat Top 10
Huimeixuan Chinese Restaurant,Dalian,38.920062,121.640715,98.0,Chinese Restaurant;Chinese Restaurant,17:30,21:00,Zhongshan Square,"121.643827,38.921549",38.921549,121.643827,3.9,Online Queue
Hidden Alley Restaurant,Dalian,38.924468,121.645262,69.0,Chinese Restaurant;东北菜,10:30,21:00,Zhongshan Square,"121.643827,38.921549",38.921549,121.643827,3.9,Must-Eat Top 10;Online Queue
Atour Hotel Dalian Zhongshan Square Branch - Chinese Restaurant,Dalian,38.924384,121.645614,100.0,Chinese Restaurant;Chinese Restaurant,11:00,21:00,Zhongshan Square,"121.643827,38.921549",38.921549,121.643827,3.0,Waiting Area
Aloft Hotel (Juju Le Restaurant),Dalian,38.921338,121.647952,95.0,Food Service Related;Food Service Related,17:30,21:00,Zhongshan Square,"121.643827,38.921549",38.921549,121.643827,4.3,Private Room;Waiting Area
Zhenghuangqi Seafood Barbecue Food Stall (Yan'an Road Main Branch),Dalian,38.918305,121.643875,201.0,Chinese Restaurant;Chinese Restaurant,11:00,24:00,Zhongshan Square,"121.643827,38.921549",38.921549,121.643827,4.7,Outdoor Seating;Online Queue
Xinghai Fast Food Noodle House (Second Medical University Hospital Branch),Dalian,38.881466,121.569550,224.0,Chinese Restaurant;Chinese Restaurant,06:00,20:00,Xinghai Park,"121.568075,38.877811",38.877811,121.568075,4.1,Waiting Area
Snail Restaurant,Dalian,38.879791,121.573800,130.0,Chinese Restaurant;Chinese Restaurant,10:30,22:00,Xinghai Park,"121.568075,38.877811",38.877811,121.568075,4.3,Outdoor Seating;Birthday Package
Dalian Berfun Western Restaurant,Dalian,38.879440,121.574390,100.0,Food Service Related;Food Service Related,09:00,22:00,Xinghai Park,"121.568075,38.877811",38.877811,121.568075,3.8,Outdoor Seating
Binyu (Fuhua Villa Store),Dalian,38.887058,121.566183,100.0,Casual Dining;Casual Dining,08:30,24:00,Xinghai Park,"121.568075,38.877811",38.877811,121.568075,4.2,Waiting Area
Whole Grain Seafood Restaurant,Dalian,39.091653,122.016233,80.0,Chinese Restaurant;Seafood Restaurant,17:00,21:30,Dalian Jinshitan Life Mystery Museum,"122.009081,39.088910",39.088910,122.009081,4.1,Private Room;Waiting Area
Susan Western Restaurant,Dalian,39.092618,122.016947,51.0,Foreign Restaurant;Western Restaurant,07:00,21:30,Dalian Jinshitan Life Mystery Museum,"122.009081,39.088910",39.088910,122.009081,4.8,Must-Eat Top 10
Hongfu Yuan Seafood Restaurant (Golden Pebble Beach Branch),Dalian,39.098542,122.015995,71.0,Chinese Restaurant;Seafood Restaurant,10:00,22:30,Dalian Jinshitan Life Mystery Museum,"122.009081,39.088910",39.088910,122.009081,4.4,Must-Eat Top 10;Outdoor Seating
Fisherman's Ode Fisherman's Flavor (Qingshi Road Branch),Dalian,39.098865,122.016364,100.0,Chinese Restaurant;Seafood Restaurant,10:00,22:00,Dalian Jinshitan Life Mystery Museum,"122.009081,39.088910",39.088910,122.009081,4.2,Online Queue
Homemade Fishing Boat Seafood (Wanda Jinshi Tiancheng Branch),Dalian,39.098600,122.026001,100.0,Chinese Restaurant;Seafood Restaurant,08:00,06:00,Dalian Jinshitan Life Mystery Museum,"122.009081,39.088910",39.088910,122.009081,3.7,Outdoor Seating;Private Room
Xinsheng Guang Fast Food Restaurant,Dalian,38.921149,121.638236,100.0,Fast Food Restaurant;Fast Food Restaurant,10:30,20:00,Friendship Square,"121.639586,38.920234",38.920234,121.639586,3.3,Private Room;Online Queue
Haishi Lou Gourmet Garden,Dalian,38.921772,121.637560,100.0,Chinese Restaurant;Chinese Restaurant,09:30,20:00,Friendship Square,"121.639586,38.920234",38.920234,121.639586,3.7,Private Room
Zhongyuan Seafood Restaurant (Dalian's Own Small Shop),Dalian,38.917995,121.637535,88.0,Chinese Restaurant;Chinese Restaurant,11:30,23:30,Friendship Square,"121.639586,38.920234",38.920234,121.639586,4.8,Must-Eat Top 10
TSINGTAO FLOWER Western Restaurant (Kaisa Plaza Branch),Dalian,38.922827,121.638090,100.0,Foreign Restaurant;Western Restaurant,11:00,21:00,Friendship Square,"121.639586,38.920234",38.920234,121.639586,4.1,Waiting Area
Yao. Music Restaurant (Kaisa Plaza Store),Dalian,38.922450,121.636868,90.0,Chinese Restaurant;Chinese Restaurant,10:30,01:00,Friendship Square,"121.639586,38.920234",38.920234,121.639586,4.5,Outdoor Seating
Zhuya (Victory Square Branch),Dalian,38.920552,121.635167,19.0,Foreign Restaurant;Japanese Cuisine,09:01,21:00,Friendship Square,"121.639586,38.920234",38.920234,121.639586,4.1,Outdoor Seating
Duo You Cai Guizhou Sour Soup,Dalian,38.917374,121.642676,61.0,Chinese Restaurant;Chinese Restaurant,11:00,21:30,Friendship Square,"121.639586,38.920234",38.920234,121.639586,4.6,Must-Eat Top 10;Online Queue
Wanyi Shan Restaurant,Dalian,38.917069,121.703356,78.0,Chinese Restaurant;Chinese Restaurant,09:00,22:00,Donggang Business District,"121.698262,38.918777",38.918777,121.698262,4.3,Online Queue
B23 GARDEN (Donggang Branch),Dalian,38.924307,121.695032,98.0,Entertainment Venue;Bar|服装鞋帽皮具店;服装鞋帽皮具店,11:00,21:00,Donggang Business District,"121.698262,38.918777",38.918777,121.698262,4.7,Private Room;Waiting Area
Beauty Cultural and Creative Trendy Theme Restaurant,Dalian,38.924154,121.692508,100.0,Food Service Related;Food Service Related,10:00,21:00,Donggang Business District,"121.698262,38.918777",38.918777,121.698262,3.8,Must-Eat Top 10;Birthday Package
NT. Restaurant Nice Try,Dalian,38.924503,121.692622,100.0,Foreign Restaurant;Western Restaurant,11:00,22:00,Donggang Business District,"121.698262,38.918777",38.918777,121.698262,4.0,Waiting Area
Hengli Grand Hotel Tangyue All-Day Dining Restaurant (Victoria Plaza Store),Dalian,38.923274,121.689181,330.0,Foreign Restaurant;Japanese Cuisine,11:00,21:00,Donggang Business District,"121.698262,38.918777",38.918777,121.698262,4.1,Outdoor Seating
Venice Rainbow Restaurant (Haichang Oriental Water City Phase 2 Branch),Dalian,38.924863,121.690338,81.0,Chinese Restaurant;Chinese Restaurant,10:30,21:00,Donggang Business District,"121.698262,38.918777",38.918777,121.698262,4.6,Online Queue
Follow Restaurant,Dalian,38.925178,121.689201,176.0,Chinese Restaurant;Chinese Restaurant,11:00,22:00,Donggang Business District,"121.698262,38.918777",38.918777,121.698262,4.4,Must-Eat Top 10;Private Room
Hengli Grand Hotel Fuyuan Chinese Restaurant,Dalian,38.923719,121.687731,145.0,Chinese Restaurant;Chinese Restaurant,11:00,21:00,Donggang Business District,"121.698262,38.918777",38.918777,121.698262,4.1,Private Room;Birthday Package
LEO Restaurant,Dalian,38.925394,121.689249,157.0,Chinese Restaurant;Chinese Restaurant,10:00,22:00,Donggang Business District,"121.698262,38.918777",38.918777,121.698262,4.5,Must-Eat Top 10;Birthday Package
DAPAULO Italian Handmade Wood-Fired Pizza Restaurant,Dalian,38.925853,121.689406,100.0,Food Service Related;Food Service Related,11:00,24:00,Donggang Business District,"121.698262,38.918777",38.918777,121.698262,4.4,Birthday Package
Yuanbentang Restaurant,Dalian,38.882437,121.592229,61.0,医疗保健服务;医药保健销售店;医疗保健用品,11:00,21:00,Xinghai Bay Boardwalk,"121.587922,38.882006",38.882006,121.587922,4.0,Private Room;Birthday Package
Qian Kuli Seafood Buffet (Xinghai Square Branch),Dalian,38.884002,121.593164,499.0,Chinese Restaurant;Chinese Restaurant,16:30,21:00,Xinghai Bay Boardwalk,"121.587922,38.882006",38.882006,121.587922,4.7,Private Room
Phoenix Restaurant (Zhongshan Road),Dalian,38.886419,121.585269,89.0,Chinese Restaurant;Chinese Restaurant,17:00,20:00,Xinghai Bay Boardwalk,"121.587922,38.882006",38.882006,121.587922,4.6,Birthday Package;Online Queue
FEAST Western Restaurant (Xinghai Square Branch),Dalian,38.877169,121.585633,99.0,Food Service Related;Food Service Related,10:00,23:00,Xinghai Bay Boardwalk,"121.587922,38.882006",38.882006,121.587922,4.4,Online Queue
Haiyu MANGATA COFFEE (Xinghai Branch),Dalian,38.877266,121.584327,65.0,Cafe;Cafe,10:00,23:00,Xinghai Bay Boardwalk,"121.587922,38.882006",38.882006,121.587922,4.6,Private Room
Give Me Some Time Cultural & Artistic Restaurant,Dalian,38.886674,121.591761,111.0,Chinese Restaurant;Chinese Restaurant,09:00,21:00,Xinghai Bay Boardwalk,"121.587922,38.882006",38.882006,121.587922,4.6,Private Room
Puzzle Restaurant & Lounge (Xinghai Daguan Tower A Branch),Dalian,38.886869,121.592322,139.0,服装鞋帽皮具店;服装鞋帽皮具店|Food Service Related;Food Service Related,11:00,21:00,Xinghai Bay Boardwalk,"121.587922,38.882006",38.882006,121.587922,4.6,Online Queue
Ninglan LEMON LAND Restaurant,Dalian,38.886413,121.593833,100.0,Chinese Restaurant;中式素菜馆,11:00,21:00,Xinghai Bay Boardwalk,"121.587922,38.882006",38.882006,121.587922,4.8,Must-Eat Top 10;Outdoor Seating
Dalian Yifang Castle Luxury Collection Hotel Signature Restaurant,Dalian,38.878416,121.595227,100.0,Food Service Related;Food Service Related,06:00,23:00,Xinghai Bay Boardwalk,"121.587922,38.882006",38.882006,121.587922,4.2,Private Room;Online Queue
Lubri Western Restaurant,Dalian,38.876319,121.592747,127.0,Foreign Restaurant;Western Restaurant,11:00,22:00,Xinghai Bay Boardwalk,"121.587922,38.882006",38.882006,121.587922,4.7,Outdoor Seating;Online Queue
Bova's Russian Restaurant,Dalian,38.928174,121.635116,104.0,Food Service Related;Food Service Related,10:00,21:00,Russian Style Street,"121.635560,38.927831",38.927831,121.635560,4.7,Must-Eat Top 10;Online Queue
WEI Chocolate Factory Western Restaurant,Dalian,38.927285,121.636726,77.0,Foreign Restaurant;Western Restaurant,10:30,23:00,Russian Style Street,"121.635560,38.927831",38.927831,121.635560,4.3,Must-Eat Top 10
Royal Noodle Pavilion Chinese Restaurant,Dalian,38.926704,121.637136,47.0,Chinese Restaurant;Chinese Restaurant,09:00,20:00,Russian Style Street,"121.635560,38.927831",38.927831,121.635560,4.3,Birthday Package
Ding Ding Restaurant,Dalian,38.931322,121.635241,100.0,Fast Food Restaurant;Fast Food Restaurant,06:30,20:00,Russian Style Street,"121.635560,38.927831",38.927831,121.635560,3.8,Birthday Package
Halal Restaurant Shunlaide Beef Tendon Soup (Kaixuan Plaza Store),Dalian,38.925260,121.631906,35.0,Chinese Restaurant;Halal Restaurant,08:00,20:00,Russian Style Street,"121.635560,38.927831",38.927831,121.635560,3.9,Private Room
"Ximi Yue Chinese Restaurant, Zhongshan District, Dalian",Dalian,38.923560,121.637031,100.0,Chinese Restaurant;Chinese Restaurant,07:00,21:00,Russian Style Street,"121.635560,38.927831",38.927831,121.635560,4.1,Must-Eat Top 10
Jinyu Gourmet Seafood Restaurant,Dalian,38.926508,121.641412,118.0,Chinese Restaurant;Seafood Restaurant,09:00,22:00,Russian Style Street,"121.635560,38.927831",38.927831,121.635560,4.7,Outdoor Seating;Online Queue
Lele Barbecue Restaurant,Dalian,38.924716,121.640197,100.0,Chinese Restaurant;Local Specialty Restaurant,11:00,21:00,Russian Style Street,"121.635560,38.927831",38.927831,121.635560,3.5,Outdoor Seating;Birthday Package
Houston Restaurant (Houston Apartment Branch),Dalian,38.927293,121.642244,100.0,Chinese Restaurant;Chinese Restaurant,09:30,20:20,Russian Style Street,"121.635560,38.927831",38.927831,121.635560,3.9,Must-Eat Top 10
Travel Home Restaurant,Dalian,45.628764,126.248463,100.0,Chinese Restaurant;Chinese Restaurant,08:00,20:30,Taiping International Airport,"126.241474,45.611938",45.611938,126.241474,4.0,Waiting Area;Birthday Package
Izmir Turkish Cafe Izmir Turkish Restaurant,Dalian,38.922057,121.629975,107.0,Foreign Restaurant;Foreign Restaurant,10:30,21:00,Dalian Station,"121.633200,38.922471",38.922471,121.633200,4.6,Outdoor Seating;Waiting Area
Haxi Restaurant,Dalian,45.708071,126.576427,100.0,Chinese Restaurant;Chinese Restaurant,11:00,21:00,Harbin West Station,"126.577304,45.707228",45.707228,126.577304,3.6,Birthday Package;Online Queue
West Coast Restaurant (Huizhi Center Branch),Dalian,45.709955,126.571347,100.0,Chinese Restaurant;Chinese Restaurant,11:00,21:00,Harbin West Station,"126.577304,45.707228",45.707228,126.577304,3.6,Must-Eat Top 10;Birthday Package
Zhihui Cafeteria Restaurant (Huizhi Center Branch),Dalian,45.711548,126.572361,100.0,Chinese Restaurant;Chinese Restaurant,11:00,21:00,Harbin West Station,"126.577304,45.707228",45.707228,126.577304,3.4,Waiting Area
Nanjing Steamed Dumplings People's Restaurant (Donghui Mingzhu Garden Store),Dalian,45.702764,126.584887,100.0,Chinese Restaurant;Chinese Restaurant,11:00,21:00,Harbin West Station,"126.577304,45.707228",45.707228,126.577304,3.5,Must-Eat Top 10;Outdoor Seating
Dianji Bento (China Resources Building Branch),Dalian,45.699885,126.579721,100.0,Fast Food Restaurant;Fast Food Restaurant,09:30,20:00,Harbin West Station,"126.577304,45.707228",45.707228,126.577304,4.1,Waiting Area
Ji Yang Foodie Freshly Stewed Nourishing Restaurant,Dalian,38.962616,121.543193,65.0,Fast Food Restaurant;Fast Food Restaurant,05:30,21:00,Zhoushuizi Airport,"121.542585,38.964154",38.964154,121.542585,4.5,Must-Eat Top 10;Private Room
Max Restaurant,Dalian,38.971171,121.539136,100.0,Food Service Related;Food Service Related,06:00,19:00,Zhoushuizi Airport,"121.542585,38.964154",38.964154,121.542585,4.1,Waiting Area;Birthday Package
Dalian International Airport Hotel - Chinese Restaurant,Dalian,38.959840,121.550705,135.0,Chinese Restaurant;Chinese Restaurant,11:00,21:00,Zhoushuizi Airport,"121.542585,38.964154",38.964154,121.542585,4.1,Private Room
Music Skewer Bar (Xianghe New Homeland Store),Dalian,38.956570,121.545269,100.0,Chinese Restaurant;Local Specialty Restaurant,11:00,21:00,Zhoushuizi Airport,"121.542585,38.964154",38.964154,121.542585,3.6,Must-Eat Top 10
Xinxinyuan Restaurant (Shuangxinyuan Branch),Dalian,38.969181,121.534264,74.0,Chinese Restaurant;Chinese Restaurant,10:30,21:00,Zhoushuizi Airport,"121.542585,38.964154",38.964154,121.542585,4.0,Online Queue
Legendary Seafood Classic Restaurant (Nanguanling Branch),Dalian,39.020541,121.604619,73.0,Chinese Restaurant;Seafood Restaurant,10:30,23:30,Dalian North Station,"121.607299,39.016710",39.016710,121.607299,4.1,Waiting Area
Jiayou Chinese Restaurant,Dalian,39.009501,121.606111,100.0,Chinese Restaurant;Chinese Restaurant,06:00,19:00,Dalian North Station,"121.607299,39.016710",39.016710,121.607299,3.3,Private Room;Waiting Area
Xinquan Restaurant (Quanshui D2 District Branch),Dalian,39.009592,121.615331,28.0,Chinese Restaurant;Chinese Restaurant,10:30,21:00,Dalian North Station,"121.607299,39.016710",39.016710,121.607299,4.3,Must-Eat Top 10;Birthday Package
"Di Kuo Restaurant, Hilton Fuli Hotel",Dalian,38.928549,121.670082,231.0,Food Service Related;Food Service Related,17:30,21:00,Hilton Dalian Furong,"121.669530,38.929115",38.929115,121.669530,4.4,Must-Eat Top 10
KFC Drive-Thru Restaurant (Congress Branch),Dalian,38.931141,121.670392,100.0,Food Service Related;Food Service Related,11:00,21:00,Hilton Dalian Furong,"121.669530,38.929115",38.929115,121.669530,3.6,Private Room
Tsim Sha Tsui Tea Restaurant (Yintai City Branch),Dalian,38.916837,121.635982,65.0,Chinese Restaurant;Chinese Restaurant,10:30,21:00,Ji Hotel Dalian Qingniwa Commercial Street,"121.635000,38.916700",38.916700,121.635000,4.5,Waiting Area
Dragon Court Chinese Restaurant,Dalian,38.915073,121.638305,100.0,Chinese Restaurant;Chinese Restaurant,11:00,21:00,Ji Hotel Dalian Qingniwa Commercial Street,"121.635000,38.916700",38.916700,121.635000,3.8,Private Room
Coffee Garden Western Restaurant,Dalian,38.925329,121.653664,125.0,Foreign Restaurant;Western Restaurant,17:30,22:00,Shangri-La Hotel Dalian,"121.653809,38.925259",38.925259,121.653809,4.2,Online Queue
Shuiyuan Sumen Korean Restaurant (Furonghua Branch),Dalian,38.924707,121.652170,100.0,Foreign Restaurant;韩国料理,10:00,22:00,Shangri-La Hotel Dalian,"121.653809,38.925259",38.925259,121.653809,3.9,Waiting Area;Birthday Package
Monet French Restaurant (Dalian New World Hotel),Dalian,38.923631,121.652487,480.0,Foreign Restaurant;Western Restaurant,11:00,22:00,Shangri-La Hotel Dalian,"121.653809,38.925259",38.925259,121.653809,3.9,Outdoor Seating
"Class 3, Grade 8 Skewer Flavor Creative Restaurant (Wenchang Seaview Branch)",Dalian,39.397769,122.349877,61.0,Fast Food Restaurant;Fast Food Restaurant,09:00,02:00,Vienna Hotel (5.0 Enhanced Version Dalian Pikou Port Branch),"122.353684,39.405224",39.405224,122.353684,4.3,Private Room;Birthday Package
Shanhai Tower Restaurant and Banquet Rooms,Dalian,39.399775,122.345805,100.0,Chinese Restaurant;Chinese Restaurant,11:00,21:00,Vienna Hotel (5.0 Enhanced Version Dalian Pikou Port Branch),"122.353684,39.405224",39.405224,122.353684,4.2,Private Room;Waiting Area
North Shore Impression Theme Restaurant (Wanyi Crowne Plaza Store),Dalian,39.396897,122.349226,85.0,Chinese Restaurant;Chinese Restaurant,14:30,00:30,Vienna Hotel (5.0 Enhanced Version Dalian Pikou Port Branch),"122.353684,39.405224",39.405224,122.353684,4.4,Outdoor Seating;Private Room
Oriental Mansion Vineyard Western Restaurant,Dalian,39.050551,121.770540,88.0,Foreign Restaurant;Western Restaurant,17:00,21:00,Dalian Oriental Mansion,"121.770554,39.050583",39.050583,121.770554,3.8,Outdoor Seating;Private Room
Asakusa Izakaya,Dalian,39.051015,121.772963,148.0,Foreign Restaurant;Japanese Cuisine,11:00,22:00,Dalian Oriental Mansion,"121.770554,39.050583",39.050583,121.770554,4.9,Birthday Package
Sunday Western Restaurant,Dalian,39.051334,121.773534,90.0,Foreign Restaurant;Western Restaurant,10:00,22:30,Dalian Oriental Mansion,"121.770554,39.050583",39.050583,121.770554,4.1,Waiting Area
Yinfan Hotel Buffet Restaurant (Jinma Road Store),Dalian,39.049387,121.767699,240.0,Foreign Restaurant;Western Restaurant,06:00,10:00,Dalian Oriental Mansion,"121.770554,39.050583",39.050583,121.770554,4.1,Private Room
Nesburg Western Restaurant,Dalian,39.052283,121.773883,123.0,Fast Food Restaurant;Fast Food Restaurant,10:00,23:00,Dalian Oriental Mansion,"121.770554,39.050583",39.050583,121.770554,4.0,Waiting Area;Birthday Package
Wicklow Town Western Restaurant (Tixiang Mancheng Branch),Dalian,38.958730,121.522029,121.0,Foreign Restaurant;Western Restaurant,10:30,20:30,Ji Hotel Dalian Airport Ganjingzi District Government,"121.520067,38.957432",38.957432,121.520067,4.2,Online Queue
Youweike Steak Restaurant (Le Do Hui Branch),Dalian,38.959510,121.520759,72.0,Foreign Restaurant;牛扒店(扒房),10:30,20:30,Ji Hotel Dalian Airport Ganjingzi District Government,"121.520067,38.957432",38.957432,121.520067,4.4,Waiting Area
Qunxian Island Green Restaurant,Dalian,38.958387,121.514583,56.0,Chinese Restaurant;Chinese Restaurant,05:00,22:00,Ji Hotel Dalian Airport Ganjingzi District Government,"121.520067,38.957432",38.957432,121.520067,4.4,Must-Eat Top 10;Online Queue
Mother-in-law's Private Kitchen Restaurant,Dalian,38.930584,121.594844,57.0,Chinese Restaurant;Chinese Restaurant,10:30,20:30,Hanting Hotel Dalian Xianglujiao,"121.600000,38.933500",38.933500,121.600000,4.5,Waiting Area
Xianglujiao Community Shunxin Fast Food Restaurant,Dalian,38.929153,121.596364,12.0,Fast Food Restaurant;Fast Food Restaurant,06:00,13:00,Hanting Hotel Dalian Xianglujiao,"121.600000,38.933500",38.933500,121.600000,4.2,Waiting Area;Birthday Package
Xinyue Restaurant (Dalian Logistics Trade Building Branch),Dalian,38.933120,121.607876,100.0,Fast Food Restaurant;Fast Food Restaurant,11:00,21:00,Hanting Hotel Dalian Xianglujiao,"121.600000,38.933500",38.933500,121.600000,3.7,Waiting Area
IKEA · Swedish Cuisine Restaurant (Haida South Street Branch),Dalian,38.928825,121.606525,53.0,糕饼店;糕饼店,09:00,20:00,Hanting Hotel Dalian Xianglujiao,"121.600000,38.933500",38.933500,121.600000,4.3,Must-Eat Top 10;Outdoor Seating
CNPC Drive-Thru Restaurant,Dalian,38.929195,121.592178,100.0,Fast Food Restaurant;Fast Food Restaurant,11:00,21:00,Hanting Hotel Dalian Xianglujiao,"121.600000,38.933500",38.933500,121.600000,3.5,Must-Eat Top 10;Private Room
Yunji Restaurant (Yida · Yunji Branch),Dalian,38.897546,121.645889,23.0,Chinese Restaurant;东北菜,10:00,20:30,Home Inn Selected - Dalian Kuiying Building Labor Park Branch,"121.645045,38.900170",38.900170,121.645045,4.1,Waiting Area;Birthday Package
Clouds Rolling Music Restaurant & Bar,Dalian,38.895875,121.645325,100.0,Chinese Restaurant;Chinese Restaurant,11:00,21:00,Home Inn Selected - Dalian Kuiying Building Labor Park Branch,"121.645045,38.900170",38.900170,121.645045,3.9,Must-Eat Top 10;Birthday Package
Xinxin Restaurant (Wuchang Street Branch),Dalian,38.906061,121.641906,100.0,Chinese Restaurant;东北菜,10:00,21:30,Home Inn Selected - Dalian Kuiying Building Labor Park Branch,"121.645045,38.900170",38.900170,121.645045,4.5,Outdoor Seating;Waiting Area
Baikal Restaurant,Dalian,38.907785,121.641452,96.0,Chinese Restaurant;Chinese Restaurant,10:00,21:00,Home Inn Selected - Dalian Kuiying Building Labor Park Branch,"121.645045,38.900170",38.900170,121.645045,4.3,Must-Eat Top 10
Shrimp Seeking Crab Visiting Lobster House,Dalian,38.908862,121.646337,98.0,Chinese Restaurant;Chinese Restaurant,16:00,23:00,Home Inn Selected - Dalian Kuiying Building Labor Park Branch,"121.645045,38.900170",38.900170,121.645045,4.8,Waiting Area;Online Queue
PLA Joint Logistics Support Force 967th Hospital Staff Restaurant,Dalian,38.901796,121.609570,100.0,Chinese Restaurant;Chinese Restaurant,11:00,21:00,Ji Hotel Dalian Xinghai Square Shengli Road,"121.608000,38.902500",38.902500,121.608000,3.5,Outdoor Seating
Happiness Canteen (Dalian Henglong Plaza Branch),Dalian,38.906635,121.608556,81.0,Foreign Restaurant;韩国料理,10:00,22:00,Ji Hotel Dalian Xinghai Square Shengli Road,"121.608000,38.902500",38.902500,121.608000,4.4,Online Queue
Thousand Days Select (Hang Lung Plaza Branch),Dalian,38.906705,121.608952,65.0,Fast Food Restaurant;Tea Restaurant,10:00,22:00,Ji Hotel Dalian Xinghai Square Shengli Road,"121.608000,38.902500",38.902500,121.608000,4.4,Waiting Area
Bolt Grand Hotel Chinese Restaurant,Dalian,38.917967,121.588071,61.0,Chinese Restaurant;Chinese Restaurant,11:00,21:00,Hanting Hotel Dalian Xi'an Road Commercial Street,"121.589926,38.918736",38.918736,121.589926,3.6,Waiting Area
Thousand Days Celebration Hong Kong Style Tea Restaurant (Central Avenue Branch),Dalian,38.915395,121.587315,63.0,Food Service Related;Food Service Related,11:00,21:00,Hanting Hotel Dalian Xi'an Road Commercial Street,"121.589926,38.918736",38.918736,121.589926,4.5,Outdoor Seating
Yuhe Shun Halal Barbecue Restaurant,Dalian,38.916217,121.594076,60.0,Chinese Restaurant;Halal Restaurant,10:30,22:30,Hanting Hotel Dalian Xi'an Road Commercial Street,"121.589926,38.918736",38.918736,121.589926,4.3,Private Room;Birthday Package
Lanwu Music Restaurant & Bar,Dalian,38.926775,121.642575,100.0,Chinese Restaurant;Chinese Restaurant|Entertainment Venue;Bar,11:00,21:00,Hotel Nikko Dalian,"121.642900,38.926698",38.926698,121.642900,3.0,Birthday Package
Youju Music Restaurant & Bar,Dalian,38.927217,121.642472,100.0,Chinese Restaurant;Local Specialty Restaurant,16:00,04:00,Hotel Nikko Dalian,"121.642900,38.926698",38.926698,121.642900,4.0,Must-Eat Top 10;Private Room
Hongxing Bay Pavilion Restaurant,Dalian,38.877128,121.585644,100.0,Chinese Restaurant;Chinese Restaurant,11:00,24:00,Hyatt Regency Dalian,"121.584417,38.878710",38.878710,121.584417,3.9,Outdoor Seating
Peach Blossom Land Restaurant,Dalian,38.888941,121.651475,54.0,Chinese Restaurant;Chinese Restaurant,09:00,21:00,Hanting Hotel Dalian Zhongshan Jiefang Road,"121.647000,38.898600",38.898600,121.647000,4.3,Online Queue
Shidai·1919 Ecological Theme Restaurant,Dalian,38.918846,121.609266,74.0,Chinese Restaurant;Chinese Restaurant,10:00,22:00,Ji Hotel (Dalian People's Square Branch),"121.607532,38.918345",38.918345,121.607532,4.6,Must-Eat Top 10;Waiting Area
Tinglanxuan People's Restaurant,Dalian,38.917240,121.605674,100.0,Chinese Restaurant;Chinese Restaurant,09:00,21:00,Ji Hotel (Dalian People's Square Branch),"121.607532,38.918345",38.918345,121.607532,4.1,Waiting Area;Birthday Package
Pinxianju Restaurant,Dalian,38.915248,121.606082,82.0,Chinese Restaurant;Chinese Restaurant,10:00,22:00,Ji Hotel (Dalian People's Square Branch),"121.607532,38.918345",38.918345,121.607532,4.2,Private Room
Ping An Restaurant (Ping An Building Branch),Dalian,38.923290,121.647846,16.0,Fast Food Restaurant;Fast Food Restaurant,11:00,21:00,Ji Hotel Dalian Renmin Road,"121.648028,38.922757",38.922757,121.648028,3.6,Waiting Area;Birthday Package
1982 Garden Restaurant,Dalian,38.923264,121.647485,118.0,Chinese Restaurant;Chinese Restaurant,16:00,22:00,Ji Hotel Dalian Renmin Road,"121.648028,38.922757",38.922757,121.648028,4.4,Private Room;Waiting Area
Aloft Hotel (Juju Le Restaurant),Dalian,38.921338,121.647952,95.0,Food Service Related;Food Service Related,17:30,21:00,Ji Hotel Dalian Renmin Road,"121.648028,38.922757",38.922757,121.648028,4.3,Must-Eat Top 10
Redwood Restaurant (Yinzhou International Building Branch),Dalian,38.923394,121.646300,100.0,Chinese Restaurant;Chinese Restaurant,11:00,21:00,Ji Hotel Dalian Renmin Road,"121.648028,38.922757",38.922757,121.648028,2.0,Private Room
Tsim Sha Tsui Tea Restaurant · Peach Blossom Land (Friendship Mall Branch),Dalian,38.922682,121.645763,40.0,Fast Food Restaurant;Fast Food Restaurant,09:30,20:00,Ji Hotel Dalian Renmin Road,"121.648028,38.922757",38.922757,121.648028,4.1,Private Room
Dalian Yifang Castle Luxury Collection Hotel Signature Restaurant,Dalian,38.878416,121.595227,100.0,Food Service Related;Food Service Related,06:00,23:00,"The Castle Hotel, A Luxury Collection Hotel, Dalian","121.594480,38.877780",38.877780,121.594480,4.2,Outdoor Seating
Zhenbao Chinese Restaurant,Dalian,38.878321,121.595490,280.0,Food Service Related;Food Service Related,17:30,21:00,"The Castle Hotel, A Luxury Collection Hotel, Dalian","121.594480,38.877780",38.877780,121.594480,4.2,Birthday Package;Online Queue
Fresh Way Restaurant (Xinghai New World Branch),Dalian,38.876227,121.593796,100.0,Chinese Restaurant;Chinese Restaurant,11:00,21:00,"The Castle Hotel, A Luxury Collection Hotel, Dalian","121.594480,38.877780",38.877780,121.594480,4.0,Private Room
Lubri Western Restaurant,Dalian,38.876319,121.592747,127.0,Foreign Restaurant;Western Restaurant,11:00,22:00,"The Castle Hotel, A Luxury Collection Hotel, Dalian","121.594480,38.877780",38.877780,121.594480,4.7,Waiting Area
Xinghai Fishing Port·Sea View Restaurant,Dalian,38.875220,121.592000,192.0,Chinese Restaurant;Seafood Restaurant,09:00,21:30,"The Castle Hotel, A Luxury Collection Hotel, Dalian","121.594480,38.877780",38.877780,121.594480,4.7,Outdoor Seating
Hilton Hampton Restaurant (Dalian Zhongshan Hilton Hampton Hotel Branch),Dalian,38.908390,121.640570,100.0,Food Service Related;Food Service Related,10:00,22:00,Hampton by Hilton Dalian Zhongshan,"121.640610,38.908247",38.908247,121.640610,4.4,Outdoor Seating;Birthday Package
Baikal Restaurant,Dalian,38.907785,121.641452,96.0,Chinese Restaurant;Chinese Restaurant,10:00,21:00,Hampton by Hilton Dalian Zhongshan,"121.640610,38.908247",38.908247,121.640610,4.3,Private Room;Online Queue
Xinxin Restaurant (Wuchang Street Branch),Dalian,38.906061,121.641906,100.0,Chinese Restaurant;东北菜,10:00,21:30,Hampton by Hilton Dalian Zhongshan,"121.640610,38.908247",38.908247,121.640610,4.5,Private Room;Online Queue
Huachang Restaurant (Nanshanli Store),Dalian,38.912156,121.643177,11.0,Chinese Restaurant;Chinese Restaurant,09:00,21:30,Hampton by Hilton Dalian Zhongshan,"121.640610,38.908247",38.908247,121.640610,4.1,Must-Eat Top 10;Waiting Area
Shrimp Seeking Crab Visiting Lobster House,Dalian,38.908862,121.646337,98.0,Chinese Restaurant;Chinese Restaurant,16:00,23:00,Hampton by Hilton Dalian Zhongshan,"121.640610,38.908247",38.908247,121.640610,4.8,Must-Eat Top 10;Birthday Package
Snail Restaurant,Dalian,38.879791,121.573800,130.0,Chinese Restaurant;Chinese Restaurant,10:30,22:00,Holiday Inn Xinghai Dalian,"121.573674,38.879945",38.879945,121.573674,4.3,Private Room
Dalian Berfun Western Restaurant,Dalian,38.879440,121.574390,100.0,Food Service Related;Food Service Related,09:00,22:00,Holiday Inn Xinghai Dalian,"121.573674,38.879945",38.879945,121.573674,3.6,Private Room;Birthday Package
COASTAL Waterfront Restaurant,Dalian,38.879472,121.572577,100.0,体育休闲服务场所;体育休闲服务场所,11:00,21:00,Holiday Inn Xinghai Dalian,"121.573674,38.879945",38.879945,121.573674,4.1,Waiting Area
Dalian COASTAL Seaside Western Restaurant · Ocean Western Restaurant,Dalian,38.877325,121.571997,171.0,Foreign Restaurant;Foreign Restaurant,11:00,22:00,Holiday Inn Xinghai Dalian,"121.573674,38.879945",38.879945,121.573674,4.5,Online Queue
Xinghai Fast Food Noodle House (Second Medical University Hospital Branch),Dalian,38.881466,121.569550,224.0,Chinese Restaurant;Chinese Restaurant,06:00,20:00,Holiday Inn Xinghai Dalian,"121.573674,38.879945",38.879945,121.573674,4.1,Private Room
Fishing Sentiments and Gifts Seafood Restaurant,Dalian,39.078632,122.004641,121.0,Chinese Restaurant;Seafood Restaurant,09:00,00:30,Hard Rock Hotel Dalian,"122.001204,39.077135",39.077135,122.001204,3.7,Must-Eat Top 10;Birthday Package
Golden Pebble Beach Luneng Hilton·Kitchen All-Day Dining Restaurant,Dalian,39.075001,121.997921,244.0,Foreign Restaurant;Japanese Cuisine,06:30,21:00,Hard Rock Hotel Dalian,"122.001204,39.077135",39.077135,122.001204,4.2,Outdoor Seating;Waiting Area
Golden Pebble Beach Seafood Food Stall No. 12 Restaurant,Dalian,39.080485,122.012637,72.0,Chinese Restaurant;Seafood Restaurant,11:00,21:00,Hard Rock Hotel Dalian,"122.001204,39.077135",39.077135,122.001204,4.3,Private Room;Birthday Package
Qingyuan Restaurant (Blue Bay Branch),Dalian,39.087721,122.012230,100.0,Chinese Restaurant;Chinese Restaurant,11:00,21:00,Hard Rock Hotel Dalian,"122.001204,39.077135",39.077135,122.001204,3.6,Online Queue
Food Dodo Restaurant (Food Dodo Dining Shop),Dalian,39.088915,122.014309,100.0,Chinese Restaurant;Chinese Restaurant,10:00,22:45,Hard Rock Hotel Dalian,"122.001204,39.077135",39.077135,122.001204,3.5,Private Room;Online Queue
Golden Pebble Beach Luneng Hilton·Kitchen All-Day Dining Restaurant,Dalian,39.075001,121.997921,244.0,Foreign Restaurant;Japanese Cuisine,06:30,21:00,Hilton Dalian Golden Pebble Beach Resort,"121.997931,39.074988",39.074988,121.997931,4.2,Outdoor Seating;Birthday Package
Fishing Sentiments and Gifts Seafood Restaurant,Dalian,39.078632,122.004641,121.0,Chinese Restaurant;Seafood Restaurant,09:00,00:30,Hilton Dalian Golden Pebble Beach Resort,"121.997931,39.074988",39.074988,121.997931,3.7,Birthday Package
Golden Pebble Beach Seafood Food Stall No. 12 Restaurant,Dalian,39.080485,122.012637,72.0,Chinese Restaurant;Seafood Restaurant,11:00,21:00,Hilton Dalian Golden Pebble Beach Resort,"121.997931,39.074988",39.074988,121.997931,4.3,Birthday Package
Qingyuan Restaurant (Blue Bay Branch),Dalian,39.087721,122.012230,100.0,Chinese Restaurant;Chinese Restaurant,11:00,21:00,Hilton Dalian Golden Pebble Beach Resort,"121.997931,39.074988",39.074988,121.997931,3.6,Outdoor Seating;Birthday Package
Mong Kok Restaurant - Seafood & Barbecue (Minzu University),Dalian,39.085658,121.978336,100.0,Chinese Restaurant;Chinese Restaurant,12:00,02:00,Hilton Dalian Golden Pebble Beach Resort,"121.997931,39.074988",39.074988,121.997931,3.9,Online Queue
Zhenbao Chinese Restaurant,Dalian,38.878321,121.595490,280.0,Food Service Related;Food Service Related,17:30,21:00,Lianhua Mountain Observation Deck,"121.608727,38.879606",38.879606,121.608727,4.3,Waiting Area
Dalian Yifang Castle Luxury Collection Hotel Signature Restaurant,Dalian,38.878416,121.595227,100.0,Food Service Related;Food Service Related,06:00,23:00,Lianhua Mountain Observation Deck,"121.608727,38.879606",38.879606,121.608727,4.2,Must-Eat Top 10;Birthday Package
Fresh Way Restaurant (Xinghai New World Branch),Dalian,38.876227,121.593796,100.0,Chinese Restaurant;Chinese Restaurant,11:00,21:00,Lianhua Mountain Observation Deck,"121.608727,38.879606",38.879606,121.608727,4.1,Outdoor Seating;Birthday Package
Lubri Western Restaurant,Dalian,38.876319,121.592747,127.0,Foreign Restaurant;Western Restaurant,11:00,22:00,Lianhua Mountain Observation Deck,"121.608727,38.879606",38.879606,121.608727,4.7,Private Room;Birthday Package
Qian Kuli Seafood Buffet (Xinghai Square Branch),Dalian,38.884002,121.593164,499.0,Chinese Restaurant;Chinese Restaurant,16:30,21:00,Lianhua Mountain Observation Deck,"121.608727,38.879606",38.879606,121.608727,4.7,Private Room
Yuanbentang Restaurant,Dalian,38.882437,121.592229,61.0,医疗保健服务;医药保健销售店;医疗保健用品,11:00,21:00,Lianhua Mountain Observation Deck,"121.608727,38.879606",38.879606,121.608727,4.0,Outdoor Seating
Ninglan LEMON LAND Restaurant,Dalian,38.886413,121.593833,100.0,Chinese Restaurant;中式素菜馆,11:00,21:00,Lianhua Mountain Observation Deck,"121.608727,38.879606",38.879606,121.608727,4.8,Must-Eat Top 10;Private Room
Xinghai Fishing Port·Sea View Restaurant,Dalian,38.875220,121.592000,192.0,Chinese Restaurant;Seafood Restaurant,09:00,21:30,Lianhua Mountain Observation Deck,"121.608727,38.879606",38.879606,121.608727,4.7,Private Room;Waiting Area
Puzzle Restaurant & Lounge (Xinghai Daguan Tower A Branch),Dalian,38.886869,121.592322,139.0,服装鞋帽皮具店;服装鞋帽皮具店|Food Service Related;Food Service Related,11:00,21:00,Lianhua Mountain Observation Deck,"121.608727,38.879606",38.879606,121.608727,4.6,Online Queue
Give Me Some Time Cultural & Artistic Restaurant,Dalian,38.886674,121.591761,111.0,Chinese Restaurant;Chinese Restaurant,09:00,21:00,Lianhua Mountain Observation Deck,"121.608727,38.879606",38.879606,121.608727,4.6,Birthday Package
Tianchi Restaurant (Heishi Reef Street),Dalian,38.872667,121.556567,23.0,Chinese Restaurant;Chinese Restaurant,10:00,22:00,Heishi Reef Park,"121.558934,38.869587",38.869587,121.558934,4.4,Waiting Area
Yajie Restaurant,Dalian,38.877662,121.555835,43.0,Chinese Restaurant;东北菜,09:00,22:00,Heishi Reef Park,"121.558934,38.869587",38.869587,121.558934,4.2,Private Room
Dongbei University of Finance and Economics Second Restaurant,Dalian,38.879365,121.550837,13.0,Chinese Restaurant;Chinese Restaurant,11:00,21:00,Heishi Reef Park,"121.558934,38.869587",38.869587,121.558934,4.3,Private Room;Online Queue
KFC Drive-Thru Restaurant (Xueyuan Square Branch),Dalian,38.875440,121.545979,100.0,Food Service Related;Food Service Related,11:00,21:00,Heishi Reef Park,"121.558934,38.869587",38.869587,121.558934,3.8,Outdoor Seating
Dongbei University of Finance and Economics Center Restaurant,Dalian,38.881291,121.554077,100.0,Food Service Related;Food Service Related,09:00,22:00,Heishi Reef Park,"121.558934,38.869587",38.869587,121.558934,4.5,Outdoor Seating;Birthday Package
Phoenix Restaurant (Zhongshan Road),Dalian,38.886419,121.585269,89.0,Chinese Restaurant;Chinese Restaurant,17:00,20:00,Dalian Museum,"121.586097,38.888484",38.888484,121.586097,4.6,Private Room;Birthday Package
Tany Sheep No.1 Fresh Hot Pot (Xinghai Square Branch),Dalian,38.890314,121.587779,104.0,Chinese Restaurant;Hot Pot,10:00,22:00,Dalian Museum,"121.586097,38.888484",38.888484,121.586097,4.8,Must-Eat Top 10;Waiting Area
Ronghe Restaurant (Century Plaza Building C Branch),Dalian,38.890610,121.588450,63.0,Chinese Restaurant;Chinese Restaurant,11:00,21:00,Dalian Museum,"121.586097,38.888484",38.888484,121.586097,4.5,Outdoor Seating
Jingyue Seafood Restaurant,Dalian,38.892252,121.587594,100.0,Chinese Restaurant;Seafood Restaurant,11:00,21:00,Dalian Museum,"121.586097,38.888484",38.888484,121.586097,3.7,Waiting Area
Hotbao Restaurant,Dalian,38.891025,121.590375,100.0,Chinese Restaurant;Chinese Restaurant,11:00,21:00,Dalian Museum,"121.586097,38.888484",38.888484,121.586097,0.2,Must-Eat Top 10;Private Room
Eat Well 15 Yuan Self-Service Fast Food Restaurant,Dalian,38.894088,121.584805,18.0,Fast Food Restaurant;Fast Food Restaurant,10:00,22:00,Dalian Museum,"121.586097,38.888484",38.888484,121.586097,4.2,Private Room;Waiting Area
Respect Coffee Leisure Restaurant,Dalian,38.894053,121.588350,100.0,Food Service Related;Food Service Related,09:30,21:00,Dalian Museum,"121.586097,38.888484",38.888484,121.586097,4.4,Outdoor Seating;Birthday Package
Shiyin Teahouse,Dalian,38.810893,121.227546,89.0,Tea House;Tea House,10:00,22:00,Sun Valley Scenic Area,"121.234155,38.810796",38.810796,121.234155,4.4,Private Room;Birthday Package
Haoshihui Buffet Restaurant (Agricultural Products Wholesale Market Branch) (Temporarily Closed),Dalian,38.823554,121.250092,59.0,Food Service Related;Food Service Related,09:00,21:00,Sun Valley Scenic Area,"121.234155,38.810796",38.810796,121.234155,3.8,Private Room;Online Queue
LENBACH Western Restaurant & Beer House (Xinghai Bay Amusement Park Branch),Dalian,38.875140,121.589221,100.0,Foreign Restaurant;Western Restaurant,11:30,24:00,Binhai Road West Section Boardwalk,"121.596943,38.875925",38.875925,121.596943,4.7,Birthday Package;Online Queue
FEAST Western Restaurant (Xinghai Square Branch),Dalian,38.877169,121.585633,99.0,Food Service Related;Food Service Related,10:00,23:00,Binhai Road West Section Boardwalk,"121.596943,38.875925",38.875925,121.596943,4.4,Outdoor Seating;Private Room
Haiyu MANGATA COFFEE (Xinghai Branch),Dalian,38.877266,121.584327,65.0,Cafe;Cafe,10:00,23:00,Binhai Road West Section Boardwalk,"121.596943,38.875925",38.875925,121.596943,4.6,Must-Eat Top 10;Birthday Package
