city,attraction_name,attraction_id,description,attraction_type,address,latitude,longitude,rating,opening_time,closing_time,closing_dates,min_visit_hours,max_visit_hours,ticket_price
苏州,怡园,B0FFG01X8U,苏州园林中建造最晚的园林，融合了各家园林的精华。,历史文化,,31.307521,120.621266,4.8,07:30,17:30,,0.5,2.0,15
苏州,平江路历史文化街区,B0FFG6OTD5,苏州保存最完整的古街区，沿河而建的明清建筑群，夜景迷人。,历史文化,,31.313969,120.634556,4.9,全天开放,全天开放,,1.0,2.5,0
苏州,珍珠塔景园,B02001GTC8,同里古镇内的古典园林，以昆曲《珍珠塔》而闻名。,历史文化,,31.160042,120.718122,4.6,08:00,17:15,,0.5,2.0,0
苏州,十全街,B02000JAH6,苏州文艺街区，咖啡馆、书店、画廊林立，文化气息浓厚。,休闲体验,,31.298923,120.632998,4.9,全天开放,全天开放,,1.5,3.0,0
苏州,退思园,B02001D6W2,同里古镇核心园林，世界文化遗产，江南园林晚期代表作。,历史文化,,31.157833,120.720272,4.8,08:00,17:15,,1.0,2.5,50
苏州,苏州博物馆,B020001285,贝聿铭设计的现代建筑与古典园林的完美结合，展示江南文化精髓。,历史文化,,31.322948,120.627856,4.8,09:00,17:00,周一,1.0,2.5,0
苏州,三桥景区,B0FFLMDS4P,同里古镇标志性景观，三座石桥连接，寓意吉祥如意。,历史文化,,31.158008,120.717448,4.4,全天开放,全天开放,,0.0,1.5,0
苏州,七里山塘景区,B0200178TG,千年古街夜景如画，传统小吃丰富，体验苏州古典夜生活。,历史文化,,31.317059,120.602105,4.8,全天开放,全天开放,,1.0,2.5,12
苏州,拙政园,B020001R2Q,中国四大名园之一，明代园林艺术的杰出代表，池水清澈，亭台楼阁错落有致。,历史文化,,31.324194,120.629211,4.8,07:30,17:30,,2.0,3.5,90
