restaurant_name,city,latitude,longitude,price_per_person,cuisine,opening_time,closing_time,nearby_attraction_name,nearby_attraction_coords,query_latitude,query_longitude,rating
Wanninglou Gourmet Pavilion,Nanjing,32.020352,118.789761,100.0,Food Service Related;Food Service Related,17:00,21:00,Qinhuai River Painted Boat Cruise,"118.788899,32.020660",32.020660,118.788899,4.1
Zhengxing Restaurant,Nanjing,32.020275,118.790175,100.0,Chinese Restaurant;Chinese Restaurant,11:00,21:00,Qinhuai River Painted Boat Cruise,"118.788899,32.020660",32.020660,118.788899,2.6
Lao Song Ji Marinated Seafood,Nanjing,32.021861,118.789212,100.0,Food Service Related;Food Service Related,11:00,21:00,Qinhuai River Painted Boat Cruise,"118.788899,32.020660",32.020660,118.788899,4.3
Tianyuanlou True Jiangnan Fashion Restaurant (Confucius Temple Branch),Nanjing,32.019013,118.790272,100.0,Chinese Restaurant;Chinese Restaurant,10:00,23:00,Qinhuai River Painted Boat Cruise,"118.788899,32.020660",32.020660,118.788899,4.3
Eleven Scenic Rooftop Bar (Confucius Temple Pedestrian Street Branch),Nanjing,32.021395,118.791283,79.0,Foreign Restaurant;Western Restaurant,11:00,22:30,Qinhuai River Painted Boat Cruise,"118.788899,32.020660",32.020660,118.788899,4.3
Tianfeng Tower Restaurant,Nanjing,32.020696,118.786196,100.0,Chinese Restaurant;Chinese Restaurant,11:00,21:00,Qinhuai River Painted Boat Cruise,"118.788899,32.020660",32.020660,118.788899,3.7
Yongheyuan Restaurant,Nanjing,32.022689,118.787481,100.0,Chinese Restaurant;General Restaurant,16:30,22:00,Qinhuai River Painted Boat Cruise,"118.788899,32.020660",32.020660,118.788899,4.3
Night Stay Qinhuai Junting Hotel Restaurant (Grand Theater Branch),Nanjing,32.021996,118.791824,194.0,Chinese Restaurant;Chinese Restaurant,11:00,21:00,Qinhuai River Painted Boat Cruise,"118.788899,32.020660",32.020660,118.788899,4.2
Yongshengli Tea Restaurant (Fuzimiao Branch),Nanjing,32.023204,118.787265,65.0,Fast Food Restaurant;Tea Restaurant,10:00,22:00,Qinhuai River Painted Boat Cruise,"118.788899,32.020660",32.020660,118.788899,4.2
Bella Kitchen Unlimited Steak Restaurant (Maoye Tiandi Store),Nanjing,32.022530,118.786194,77.0,Chinese Restaurant;Chinese Restaurant,16:30,21:00,Qinhuai River Painted Boat Cruise,"118.788899,32.020660",32.020660,118.788899,4.4
Zhaoyanghui Restaurant (Xicheng Plaza Store),Nanjing,32.037808,118.747551,100.0,Chinese Restaurant;Chinese Restaurant,14:00,22:00,China Nanjing Yunjin Museum,"118.744814,32.036390",32.036390,118.744814,4.0
Abaji Xinjiang Barbecue Restaurant,Nanjing,32.032508,118.743635,57.0,Chinese Restaurant;Halal Restaurant,16:00,03:00,China Nanjing Yunjin Museum,"118.744814,32.036390",32.036390,118.744814,4.4
Saizeriya Italian Restaurant (Nanjing Jianye Wanda Plaza Branch),Nanjing,32.033003,118.737038,51.0,Chinese Restaurant;Chinese Restaurant,10:00,21:30,China Nanjing Yunjin Museum,"118.744814,32.036390",32.036390,118.744814,4.8
Geweixuan (Jianye Wuyue Branch),Nanjing,32.037366,118.735959,100.0,Chinese Restaurant;Chinese Restaurant,17:00,21:00,China Nanjing Yunjin Museum,"118.744814,32.036390",32.036390,118.744814,4.5
Haoji · Jinling Banquet (Jianye Wuyue Branch),Nanjing,32.037663,118.735970,293.0,Chinese Restaurant;Chinese Restaurant,16:30,21:30,China Nanjing Yunjin Museum,"118.744814,32.036390",32.036390,118.744814,4.7
Waanjai Restaurant (Nanjing Jianye Wuyue Plaza Branch),Nanjing,32.037628,118.735845,70.0,Chinese Restaurant;Chinese Restaurant,10:00,22:00,China Nanjing Yunjin Museum,"118.744814,32.036390",32.036390,118.744814,4.0
Hilton Nanjing Riverside · Yueyang Chinese Restaurant,Nanjing,32.031013,118.738209,287.0,Chinese Restaurant;Chinese Restaurant,17:00,21:30,China Nanjing Yunjin Museum,"118.744814,32.036390",32.036390,118.744814,4.4
Keming Ice Room (Jianye Wanda Branch),Nanjing,32.032169,118.736831,46.0,Cold Beverage Shop;Cold Beverage Shop,11:00,21:30,China Nanjing Yunjin Museum,"118.744814,32.036390",32.036390,118.744814,4.6
Hao Ke Lai (Nanjing Jianye Wuyue Plaza Restaurant),Nanjing,32.037600,118.735407,75.0,Foreign Restaurant;Foreign Restaurant,10:00,22:00,China Nanjing Yunjin Museum,"118.744814,32.036390",32.036390,118.744814,4.2
Wheat Spike Café (Restaurant),Nanjing,32.053088,118.840329,55.0,Cafe;Cafe,08:00,18:00,Ming Xiaoling Mausoleum Scenic Area,"118.840463,32.051926",32.051926,118.840463,4.4
Kuandu Hotel (Kuandu Jade Garden Restaurant),Nanjing,32.043804,118.840376,100.0,Hotel;Budget Chain Hotel|Chinese Restaurant;Chinese Restaurant,11:00,21:00,Ming Xiaoling Mausoleum Scenic Area,"118.840463,32.051926",32.051926,118.840463,4.9
Jingli Seafood Buffet Restaurant,Nanjing,32.058378,118.847167,212.0,Chinese Restaurant;Seafood Restaurant,17:30,21:00,Ming Xiaoling Mausoleum Scenic Area,"118.840463,32.051926",32.051926,118.840463,4.7
Nanjing Dongjiao State Guesthouse · Daoxiang Village A La Carte Restaurant,Nanjing,32.058352,118.847527,202.0,Food Service Related;Food Service Related,08:30,20:30,Ming Xiaoling Mausoleum Scenic Area,"118.840463,32.051926",32.051926,118.840463,4.1
Meilu Restaurant (Sifangcheng Store),Nanjing,32.049053,118.850510,343.0,Chinese Restaurant;Chinese Restaurant,16:30,21:00,Ming Xiaoling Mausoleum Scenic Area,"118.840463,32.051926",32.051926,118.840463,4.6
Frontline Courtyard Fanghua Cultural Theme Restaurant,Nanjing,32.042886,118.840991,294.0,Chinese Restaurant;Chinese Restaurant,09:30,22:00,Ming Xiaoling Mausoleum Scenic Area,"118.840463,32.051926",32.051926,118.840463,4.2
Old Camera · Garden Restaurant,Nanjing,32.042471,118.841831,84.0,Food Service Related;Food Service Related,09:00,21:00,Ming Xiaoling Mausoleum Scenic Area,"118.840463,32.051926",32.051926,118.840463,4.7
Nanjing Blossom Hill · Pipa Mountain Residence Hotel · Huajianshi Restaurant,Nanjing,32.053020,118.826593,100.0,Chinese Restaurant;Chinese Restaurant,11:00,21:00,Ming Xiaoling Mausoleum Scenic Area,"118.840463,32.051926",32.051926,118.840463,4.1
Xun · Garden Restaurant (Zijin Fang Plaza Store),Nanjing,32.040970,118.834915,189.0,Foreign Restaurant;Western Restaurant|Entertainment Venue;Bar,10:00,21:00,Ming Xiaoling Mausoleum Scenic Area,"118.840463,32.051926",32.051926,118.840463,4.6
Kuandu · Lake Biwa Restaurant,Nanjing,32.052922,118.826357,82.0,Chinese Restaurant;Chinese Restaurant,17:00,20:45,Ming Xiaoling Mausoleum Scenic Area,"118.840463,32.051926",32.051926,118.840463,4.6
Yishengyuan Restaurant,Nanjing,32.041985,118.849227,298.0,Chinese Restaurant;Chinese Restaurant,16:00,22:00,Meiling Palace,"118.846557,32.045458",32.045458,118.846557,4.2
Golden Almond Restaurant,Nanjing,32.037985,118.850289,79.0,Chinese Restaurant;Chinese Restaurant,10:00,22:00,Meiling Palace,"118.846557,32.045458",32.045458,118.846557,3.9
Giraffe Tea Restaurant (Junlin Zijin Commercial Street Branch),Nanjing,32.037885,118.850974,53.0,Fast Food Restaurant;Tea Restaurant,09:00,23:59,Meiling Palace,"118.846557,32.045458",32.045458,118.846557,4.2
Mijing Alice Garden Restaurant MJ Secret Wonderland,Nanjing,32.038346,118.840115,136.0,Foreign Restaurant;Western Restaurant,10:30,21:30,Meiling Palace,"118.846557,32.045458",32.045458,118.846557,4.6
Xilai Shun (Xiaowei Street Main Branch),Nanjing,32.036269,118.853232,100.0,Chinese Restaurant;Halal Restaurant,07:00,20:30,Meiling Palace,"118.846557,32.045458",32.045458,118.846557,4.5
Hou Weidao Chinese Restaurant,Nanjing,31.990868,118.708386,258.0,Chinese Restaurant;Chinese Restaurant,17:30,20:30,Nanjing Eye Pedestrian Bridge,"118.703146,31.995131",31.995131,118.703146,3.9
Pushan · Zen Cuisine Restaurant (Renheng Jiangwan New World Branch),Nanjing,31.992314,118.709804,400.0,Chinese Restaurant;Chinese Restaurant,16:00,21:00,Nanjing Eye Pedestrian Bridge,"118.703146,31.995131",31.995131,118.703146,4.2
International Youth Conference Hotel · Leike German Beer Restaurant,Nanjing,31.991023,118.708803,157.0,Foreign Restaurant;Western Restaurant,17:30,00:30,Nanjing Eye Pedestrian Bridge,"118.703146,31.995131",31.995131,118.703146,4.0
Xiang All-Day Restaurant,Nanjing,31.990583,118.708585,158.0,Foreign Restaurant;Western Restaurant,11:00,21:00,Nanjing Eye Pedestrian Bridge,"118.703146,31.995131",31.995131,118.703146,4.0
International Youth Conference Hotel - Buffet Restaurant (Nanjing International Youth Conference Hotel),Nanjing,31.990660,118.708676,99.0,Foreign Restaurant;Foreign Restaurant,11:00,21:00,Nanjing Eye Pedestrian Bridge,"118.703146,31.995131",31.995131,118.703146,4.1
Nanjing Jumeirah Hotel · Luchao Modern Chinese Restaurant,Nanjing,31.991186,118.709348,480.0,Food Service Related;Food Service Related,17:30,21:30,Nanjing Eye Pedestrian Bridge,"118.703146,31.995131",31.995131,118.703146,4.5
Bama Ouyue Seafood House (Renhengli New World),Nanjing,31.992152,118.710080,191.0,Chinese Restaurant;Chinese Restaurant,17:00,23:30,Nanjing Eye Pedestrian Bridge,"118.703146,31.995131",31.995131,118.703146,4.6
RONG57 · Modern Cantonese Cuisine (International Youth Conference Center),Nanjing,31.990397,118.708624,243.0,Chinese Restaurant;Chinese Restaurant,16:30,21:00,Nanjing Eye Pedestrian Bridge,"118.703146,31.995131",31.995131,118.703146,4.4
Furun Jiangwan Chinese Restaurant,Nanjing,31.998951,118.711814,100.0,Chinese Restaurant;Chinese Restaurant,09:30,21:00,Nanjing Eye Pedestrian Bridge,"118.703146,31.995131",31.995131,118.703146,4.4
ANTEP Turkish Restaurant (Jiangshan Central Store),Nanjing,31.988663,118.710784,166.0,Foreign Restaurant;Foreign Restaurant,17:00,22:00,Nanjing Eye Pedestrian Bridge,"118.703146,31.995131",31.995131,118.703146,4.5
Sanliang San Sichuan-Chongqing Spicy Tripe (Hunan Road Shiziqiao Store),Nanjing,32.067708,118.777860,54.0,Chinese Restaurant;Sichuan Cuisine,10:30,23:00,Lion Bridge Pedestrian Street,"118.777783,32.067825",32.067825,118.777783,4.4
Halal AL-JANNAT Indian Restaurant (Lion Bridge Branch),Nanjing,32.068005,118.778377,73.0,Foreign Restaurant;Indian Cuisine,17:00,21:30,Lion Bridge Pedestrian Street,"118.777783,32.067825",32.067825,118.777783,4.7
Macau Pavilion (Shiziqiao Store),Nanjing,32.068328,118.777251,100.0,Chinese Restaurant;Chinese Restaurant,10:00,21:30,Lion Bridge Pedestrian Street,"118.777783,32.067825",32.067825,118.777783,4.5
Wanqianyun Self-Service Restaurant (Shiziqiao Branch),Nanjing,32.068635,118.777723,30.0,Chinese Restaurant;Chinese Restaurant,10:30,22:30,Lion Bridge Pedestrian Street,"118.777783,32.067825",32.067825,118.777783,4.2
Top Fresh Seafood Garden Restaurant,Nanjing,32.068108,118.776615,67.0,Chinese Restaurant;Seafood Restaurant,11:00,21:00,Lion Bridge Pedestrian Street,"118.777783,32.067825",32.067825,118.777783,3.9
Ai Karen Music Restaurant (Huayang Building Branch),Nanjing,32.068922,118.777773,95.0,Chinese Restaurant;Chinese Restaurant,17:00,03:00,Lion Bridge Pedestrian Street,"118.777783,32.067825",32.067825,118.777783,4.0
QBINGO No.7 Chinese Cuisine,Nanjing,32.066348,118.779251,162.0,Chinese Restaurant;Chinese Restaurant,10:00,02:00,Lion Bridge Pedestrian Street,"118.777783,32.067825",32.067825,118.777783,4.7
Haizhengxian Steamed Seafood Restaurant (Yunnan North Road Branch),Nanjing,32.065691,118.778978,187.0,Chinese Restaurant;Seafood Restaurant,10:00,22:00,Lion Bridge Pedestrian Street,"118.777783,32.067825",32.067825,118.777783,4.6
Yousian Meidi · New Concept Restaurant (Yunnan North Road Branch),Nanjing,32.065692,118.779045,57.0,Chinese Restaurant;Chinese Restaurant,09:30,19:30,Lion Bridge Pedestrian Street,"118.777783,32.067825",32.067825,118.777783,4.1
Songlan · Yakitori Tavern (Yunnan North Road Branch),Nanjing,32.067995,118.780615,109.0,Foreign Restaurant;Japanese Cuisine,17:00,02:00,Lion Bridge Pedestrian Street,"118.777783,32.067825",32.067825,118.777783,4.8
NEW ARC Sunset Restaurant (Xuanwu Lake Jinling STYLE Branch),Nanjing,32.066600,118.813012,95.0,Chinese Restaurant;Chinese Restaurant,11:00,22:00,Xuanwu Lake Scenic Area,"118.812688,32.069455",32.069455,118.812688,4.7
Fangyuan Lakeview Banquet (Xuanwu Lake Branch),Nanjing,32.068443,118.808893,371.0,Chinese Restaurant;Chinese Restaurant,17:00,21:30,Xuanwu Lake Scenic Area,"118.812688,32.069455",32.069455,118.812688,4.4
Jinling Star Hotel - Chinese Restaurant,Nanjing,32.072880,118.812323,101.0,Chinese Restaurant;Chinese Restaurant,17:00,21:00,Xuanwu Lake Scenic Area,"118.812688,32.069455",32.069455,118.812688,4.0
Hong Xiaoman Bistro · Nanjing Specialty Diner,Nanjing,32.065951,118.813648,87.0,Chinese Restaurant;Chinese Restaurant,17:00,22:00,Xuanwu Lake Scenic Area,"118.812688,32.069455",32.069455,118.812688,4.6
Chatelier Western Region Restaurant (Jinling STYLE Branch),Nanjing,32.065844,118.813334,60.0,Foreign Restaurant;Foreign Restaurant,10:30,22:00,Xuanwu Lake Scenic Area,"118.812688,32.069455",32.069455,118.812688,4.7
Xuzhou Impression Restaurant,Nanjing,32.065749,118.812922,64.0,Chinese Restaurant;Chinese Restaurant,16:00,22:00,Xuanwu Lake Scenic Area,"118.812688,32.069455",32.069455,118.812688,4.7
Mingxuan Chinese Restaurant,Nanjing,32.066370,118.815739,168.0,Chinese Restaurant;Chinese Restaurant,17:00,21:30,Xuanwu Lake Scenic Area,"118.812688,32.069455",32.069455,118.812688,4.1
Silk Road Xinjiang Aizhezi Barbecue Restaurant (Suojin Branch),Nanjing,32.073502,118.814071,60.0,Chinese Restaurant;Local Specialty Restaurant,16:00,02:30,Xuanwu Lake Scenic Area,"118.812688,32.069455",32.069455,118.812688,4.3
Chow Yun Fat Chinese Restaurant,Nanjing,32.065167,118.813406,21.0,Chinese Restaurant;Chinese Restaurant,09:00,21:00,Xuanwu Lake Scenic Area,"118.812688,32.069455",32.069455,118.812688,4.2
Jiangnan Courtyard Restaurant (Bancang Street Branch),Nanjing,32.067685,118.817973,74.0,Chinese Restaurant;Chinese Restaurant,10:00,22:00,Xuanwu Lake Scenic Area,"118.812688,32.069455",32.069455,118.812688,4.5
Jiangnanli (Nanjing Xinbai Branch),Nanjing,32.041093,118.785062,79.0,Chinese Restaurant;Chinese Restaurant,10:30,21:00,Xinjiekou,"118.788055,32.041500",32.041500,118.788055,4.6
Dimdoude (Xinbai Branch),Nanjing,32.041194,118.784796,100.0,Chinese Restaurant;Cantonese Cuisine,10:00,21:00,Xinjiekou,"118.788055,32.041500",32.041500,118.788055,4.8
Heart Cheng Vegetarian Cuisine,Nanjing,32.040514,118.784886,102.0,Chinese Restaurant;Chinese Restaurant,11:00,21:30,Xinjiekou,"118.788055,32.041500",32.041500,118.788055,4.7
Fat Family Kitchen,Nanjing,32.038788,118.789362,96.0,Chinese Restaurant;Chinese Restaurant,17:00,21:00,Xinjiekou,"118.788055,32.041500",32.041500,118.788055,4.6
Wentong Ice Room (Nanjing Xinbai Branch),Nanjing,32.040570,118.784570,100.0,Fast Food Restaurant;Tea Restaurant,11:00,21:00,Xinjiekou,"118.788055,32.041500",32.041500,118.788055,4.5
New Bailu (Nanjing Central Mall Branch),Nanjing,32.038933,118.785924,100.0,Cold Beverage Shop;Cold Beverage Shop|Chinese Restaurant;Chinese Restaurant,16:30,21:00,Xinjiekou,"118.788055,32.041500",32.041500,118.788055,4.7
Minghai Restaurant,Nanjing,32.044825,118.787025,100.0,Chinese Restaurant;Chinese Restaurant,11:00,21:00,Xinjiekou,"118.788055,32.041500",32.041500,118.788055,3.0
Cloud Hotpot High-altitude Rotating Restaurant,Nanjing,32.039573,118.784686,101.0,Chinese Restaurant;Hot Pot,17:00,21:00,Xinjiekou,"118.788055,32.041500",32.041500,118.788055,4.3
Yunzhong Xiaoya,Nanjing,32.039573,118.784686,100.0,Chinese Restaurant;Chinese Restaurant,17:00,21:00,Xinjiekou,"118.788055,32.041500",32.041500,118.788055,4.5
Chef's Table (Hongwu Road Branch),Nanjing,32.037823,118.788203,61.0,Chinese Restaurant;Chinese Restaurant,09:30,23:30,Xinjiekou,"118.788055,32.041500",32.041500,118.788055,4.5
Pengxiaoxian Restaurant,Nanjing,32.038522,118.793875,100.0,Chinese Restaurant;Chinese Restaurant,11:00,21:00,Kexiang,"118.796070,32.039213",32.039213,118.796070,3.2
DAJE Restaurant,Nanjing,32.038484,118.793831,100.0,Chinese Restaurant;Chinese Restaurant,11:00,21:00,Kexiang,"118.796070,32.039213",32.039213,118.796070,4.3
Qiangye Restaurant (Changbai Street Branch),Nanjing,32.039040,118.798726,100.0,Chinese Restaurant;Chinese Restaurant,16:30,21:00,Kexiang,"118.796070,32.039213",32.039213,118.796070,4.4
LAZEEZRESTAURANT Middle Eastern Cuisine Turkish Restaurant,Nanjing,32.038425,118.793375,102.0,Foreign Restaurant;Foreign Restaurant,11:00,21:00,Kexiang,"118.796070,32.039213",32.039213,118.796070,4.5
Xiao Panji Duck Blood Vermicelli Soup,Nanjing,32.040697,118.793211,100.0,Chinese Restaurant;Chinese Restaurant,08:00,20:00,Kexiang,"118.796070,32.039213",32.039213,118.796070,4.6
Sichuan Restaurant (Taiping South Road Branch),Nanjing,32.036798,118.793557,77.0,Chinese Restaurant;Sichuan Cuisine,17:00,21:00,Kexiang,"118.796070,32.039213",32.039213,118.796070,4.5
Weibo Bistro (Xinjiekou Store),Nanjing,32.035762,118.797508,100.0,Chinese Restaurant;Chinese Restaurant,16:30,21:30,Kexiang,"118.796070,32.039213",32.039213,118.796070,4.7
Shipo Hotpot Restaurant (Yanling Alley Branch),Nanjing,32.038015,118.791627,74.0,Chinese Restaurant;Chinese Restaurant,11:00,21:00,Kexiang,"118.796070,32.039213",32.039213,118.796070,4.5
The Grand Mansion Luxury Collection Hotel · Old Nanjing Orange Twilight Restaurant,Nanjing,32.042545,118.798838,236.0,Chinese Restaurant;Chinese Restaurant,17:30,21:30,Kexiang,"118.796070,32.039213",32.039213,118.796070,4.2
Fish Flavor Restaurant (Zhongshan East Road Community Branch),Nanjing,32.038103,118.800913,54.0,Chinese Restaurant;Chinese Restaurant,16:30,21:30,Kexiang,"118.796070,32.039213",32.039213,118.796070,4.4
Wuhan Tianhe Airport Crowne Plaza Hotel · Fulin Chinese Restaurant,Nanjing,30.768903,114.212012,143.0,Chinese Restaurant;Chinese Restaurant,11:00,21:00,Tianhe International Airport,"114.219634,30.772048",30.772048,114.219634,4.3
MANGO TREE Thai Restaurant,Nanjing,30.769414,114.210132,100.0,Foreign Restaurant;泰国/越南菜品餐厅,11:00,21:00,Tianhe International Airport,"114.219634,30.772048",30.772048,114.219634,3.7
Qilixiang Restaurant (Ouyada Hankou Life Mall Branch),Nanjing,30.614857,114.254582,45.0,Chinese Restaurant;Chinese Restaurant,10:00,22:00,Hankou Station,"114.254822,30.618531",30.618531,114.254822,3.8
Wuhan Dongfang Jianguo Hotel Restaurant,Nanjing,30.616003,114.258459,120.0,Chinese Restaurant;Hot Pot,17:00,21:00,Hankou Station,"114.254822,30.618531",30.618531,114.254822,4.0
Hubei Specialty Restaurant (Ouyada International Plaza),Nanjing,30.614411,114.253549,100.0,购物相关场所;购物相关场所,11:00,21:00,Hankou Station,"114.254822,30.618531",30.618531,114.254822,3.6
Feifei Restaurant (Yindun Road),Nanjing,30.615734,114.249964,100.0,Chinese Restaurant;Chinese Restaurant,08:30,21:30,Hankou Station,"114.254822,30.618531",30.618531,114.254822,4.1
Jintao Hong Restaurant,Nanjing,30.613304,114.255275,21.0,Chinese Restaurant;Chinese Restaurant,10:00,21:00,Hankou Station,"114.254822,30.618531",30.618531,114.254822,4.2
Meiyike Restaurant (Greenland Window South Square Branch),Nanjing,31.964275,118.798658,100.0,Chinese Restaurant;Chinese Restaurant,10:00,20:00,Nanjing South Station,"118.798034,31.968763",31.968763,118.798034,4.0
Xiyuexuan Chinese Restaurant (Nanjing South Station Branch),Nanjing,31.970608,118.792793,100.0,Chinese Restaurant;Chinese Restaurant,11:00,21:00,Nanjing South Station,"118.798034,31.968763",31.968763,118.798034,3.9
Tianxi Restaurant,Nanjing,31.970035,118.792453,100.0,Chinese Restaurant;Chinese Restaurant,11:00,21:00,Nanjing South Station,"118.798034,31.968763",31.968763,118.798034,4.1
Xiaoman Food Court Restaurant (Jinmao Mansion Sales Office Branch),Nanjing,30.602733,114.421393,38.0,Chinese Restaurant;Chinese Restaurant,11:00,21:00,Wuhan Station,"114.424338,30.606981",30.606981,114.424338,4.0
Hanqing New Concept Restaurant (Fengya Garden Branch),Nanjing,31.868621,118.710706,100.0,Chinese Restaurant;Chinese Restaurant,11:00,21:00,Nanjing Guli Grand Hotel,"118.709714,31.880630",31.880630,118.709714,3.8
Nanjing Hilton Lansheng Hotel Hui All-Day Western Restaurant,Nanjing,32.030694,118.738053,209.0,Chinese Restaurant;Chinese Restaurant,17:30,21:00,Nanjing Hilton Hotel,"118.738503,32.031002",32.031002,118.738503,4.1
Daoxiang Chinese Style Self-Service Fashion Restaurant,Nanjing,32.071835,118.907625,100.0,Chinese Restaurant;Chinese Restaurant,11:00,21:00,Nanjing Qixia Jinma Road Metro Station Atour Hotel,"118.908081,32.071969",32.071969,118.908081,3.8
Junnong Restaurant (Greenland Yunhui City Branch),Nanjing,32.070438,118.907057,100.0,Chinese Restaurant;General Restaurant,11:00,21:00,Nanjing Qixia Jinma Road Metro Station Atour Hotel,"118.908081,32.071969",32.071969,118.908081,3.8
Hesheng Select Buffet Restaurant (Zidong Branch),Nanjing,32.079605,118.908493,24.0,Chinese Restaurant;Chinese Restaurant,11:00,21:00,Nanjing Qixia Jinma Road Metro Station Atour Hotel,"118.908081,32.071969",32.071969,118.908081,4.4
Wanmi Suhe Self-Service Restaurant (Nanjing Xiaoshi Branch),Nanjing,32.095363,118.788980,100.0,Chinese Restaurant;Chinese Restaurant,10:00,20:00,Home Inn·Neo - Nanjing Railway Station Xiaoshi Metro Station,"118.786716,32.094428",32.094428,118.786716,4.2
Too Small Restaurant,Nanjing,32.092040,118.789140,100.0,Chinese Restaurant;Chinese Restaurant,11:00,21:00,Home Inn·Neo - Nanjing Railway Station Xiaoshi Metro Station,"118.786716,32.094428",32.094428,118.786716,3.7
Wanjia Restaurant Xiaochuan Cuisine (Nanjing Commercial Building Branch),Nanjing,32.091151,118.784717,63.0,Chinese Restaurant;Sichuan Cuisine,16:30,21:00,Home Inn·Neo - Nanjing Railway Station Xiaoshi Metro Station,"118.786716,32.094428",32.094428,118.786716,4.4
Scavenger Private Garden BBQ Restaurant,Nanjing,31.956725,118.862371,100.0,Chinese Restaurant;Chinese Restaurant,16:00,02:00,All Seasons Nanjing Jiangning Tianyin Avenue Hotel,"118.859450,31.957096",31.957096,118.859450,4.4
Chef Tu's Restaurant,Nanjing,31.957025,118.853349,54.0,Food Service Related;Food Service Related,17:00,21:00,All Seasons Nanjing Jiangning Tianyin Avenue Hotel,"118.859450,31.957096",31.957096,118.859450,4.3
Hesheng Select Buffet Restaurant (Dongshan Branch),Nanjing,31.963277,118.857018,24.0,Chinese Restaurant;Chinese Restaurant,16:30,20:30,All Seasons Nanjing Jiangning Tianyin Avenue Hotel,"118.859450,31.957096",31.957096,118.859450,3.9
Qiaoshou Restaurant,Nanjing,32.178097,118.684565,51.0,Chinese Restaurant;Chinese Restaurant,09:00,21:30,Ji Hotel (Nanjing Pharmaceutical Valley Longtai Road),"118.683858,32.178064",32.178064,118.683858,4.4
Liandong U Valley Restaurant,Nanjing,32.173975,118.684525,100.0,Chinese Restaurant;Chinese Restaurant,11:00,21:00,Ji Hotel (Nanjing Pharmaceutical Valley Longtai Road),"118.683858,32.178064",32.178064,118.683858,3.8
Fengshi Restaurant,Nanjing,32.183182,118.696237,100.0,Food Service Related;Food Service Related,11:00,21:00,Ji Hotel (Nanjing Pharmaceutical Valley Longtai Road),"118.683858,32.178064",32.178064,118.683858,4.3
Qingyuan Restaurant (Xiezhong Fortune Plaza Branch),Nanjing,31.914599,118.902374,100.0,Chinese Restaurant;Chinese Restaurant,09:00,22:00,Hanting Hotel Nanjing Jiangning Jiaoyuan Metro Station,"118.906534,31.909738",31.909738,118.906534,3.6
Shenzhen Airlines International Hotel Chinese Restaurant (Ke Chuang Building Branch),Nanjing,31.734747,118.957529,100.0,Chinese Restaurant;Jiangsu Cuisine,17:00,20:00,Nanjing Airport Jinling Juchen Hotel,"118.948722,31.723379",31.723379,118.948722,3.7
Xinjiang Aximu BBQ Restaurant,Nanjing,31.735048,118.964085,100.0,Food Service Related;Food Service Related,16:00,03:00,Nanjing Airport Jinling Juchen Hotel,"118.948722,31.723379",31.723379,118.948722,3.9
Renheng Cuizhuyuan Clubhouse Restaurant (Renheng Cuizhuyuan Branch),Nanjing,31.988580,118.790507,100.0,Chinese Restaurant;Chinese Restaurant,08:30,21:00,Nanjing New Jinli Hotel,"118.793066,31.991507",31.991507,118.793066,3.7
Far East Holiday Hotel Restaurant,Nanjing,31.984820,118.800065,96.0,Chinese Restaurant;Zhejiang Cuisine,09:00,22:00,Nanjing New Jinli Hotel,"118.793066,31.991507",31.991507,118.793066,4.3
Xunwei Restaurant (Taiping South Road Branch),Nanjing,32.037157,118.793687,100.0,Chinese Restaurant;Chinese Restaurant,09:00,21:00,Home Inn·Neo - Nanjing Xinjiekou Daxinggong Metro Station Wenchang Lane,"118.793920,32.037122",32.037122,118.793920,3.9
Qiao Xifu Restaurant (Rheindar Fortune Plaza Branch),Nanjing,31.935699,118.862495,50.0,Chinese Restaurant;Chinese Restaurant,10:00,22:00,Nanjing K HOTEL,"118.867332,31.937732",31.937732,118.867332,4.3
A Home Restaurant,Nanjing,31.941366,118.861060,100.0,Chinese Restaurant;Chinese Restaurant,11:00,21:00,Nanjing K HOTEL,"118.867332,31.937732",31.937732,118.867332,3.9
Jade Dragonfly Fusion Cuisine (Nanjing Jiangning Technology and Finance Center Branch),Nanjing,31.937022,118.858470,248.0,Chinese Restaurant;Chinese Restaurant,09:00,22:00,Nanjing K HOTEL,"118.867332,31.937732",31.937732,118.867332,4.8
Lu Yuanwai All-Day Neighborhood Restaurant (Huayu Xinyuan Branch),Nanjing,32.322922,118.830047,100.0,Chinese Restaurant;Chinese Restaurant,11:00,21:00,Orange Hotel (Nanjing Liuhe Longchi Metro Station),"118.827921,32.315278",32.315278,118.827921,4.2
Xinjiang Maimaiti Barbecue Restaurant,Nanjing,32.326439,118.830268,100.0,Food Service Related;Food Service Related,15:00,03:00,Orange Hotel (Nanjing Liuhe Longchi Metro Station),"118.827921,32.315278",32.315278,118.827921,3.7
Longchi Service Area Xiaoyuanman Restaurant,Nanjing,32.302138,118.819691,29.0,Chinese Restaurant;Chinese Restaurant,11:00,21:00,Orange Hotel (Nanjing Liuhe Longchi Metro Station),"118.827921,32.315278",32.315278,118.827921,3.7
Phoenix Terrace Hotel Phoenix Restaurant,Nanjing,32.068650,118.780813,79.0,Chinese Restaurant;Chinese Restaurant,11:00,21:00,Nanjing Phoenix Terrace Hotel,"118.780789,32.068629",32.068629,118.780789,3.9
Xin Ziwei Chinese Fast Food Restaurant (Maigaoqiao Branch),Nanjing,32.095692,118.799616,32.0,Chinese Restaurant;Chinese Restaurant,10:00,22:00,Nanjing Station Hongshan Zoo Atour Hotel,"118.803488,32.099560",32.099560,118.803488,2.9
Pan Er Claypot Dishes Lamb Skewers Lobster,Nanjing,32.096075,118.798692,70.0,Chinese Restaurant;Chinese Restaurant,17:00,02:00,Nanjing Station Hongshan Zoo Atour Hotel,"118.803488,32.099560",32.099560,118.803488,4.6
Mingxuan Chinese Restaurant,Nanjing,32.077323,118.732866,155.0,Chinese Restaurant;Chinese Restaurant,17:00,21:00,Nanjing Shimao Riverside Hilton Hotel,"118.733030,32.077234",32.077234,118.733030,3.8
Father-in-Law's Private Kitchen · Tea Restaurant (52+Mini Mall Branch),Nanjing,32.079749,118.733088,186.0,Fast Food Restaurant;Tea Restaurant,09:30,22:00,Nanjing Shimao Riverside Hilton Hotel,"118.733030,32.077234",32.077234,118.733030,4.9
Xinjiang Asimu BBQ Restaurant (Shimao Bund New City Phase II Store),Nanjing,32.083999,118.735139,60.0,Chinese Restaurant;Halal Restaurant,11:00,03:30,Nanjing Shimao Riverside Hilton Hotel,"118.733030,32.077234",32.077234,118.733030,4.3
Nanjing Haofa Restaurant,Nanjing,32.137315,118.896290,100.0,Chinese Restaurant;Chinese Restaurant,08:00,20:00,Nanjing New Port Development Zone Atour Hotel,"118.890650,32.145772",32.145772,118.890650,4.3
Park Restaurant,Nanjing,32.145826,118.902831,100.0,Chinese Restaurant;Local Specialty Restaurant,11:00,21:00,Nanjing New Port Development Zone Atour Hotel,"118.890650,32.145772",32.145772,118.890650,3.5
Shishang Restaurant,Nanjing,32.154747,118.898180,26.0,Food Service Related;Food Service Related,11:00,21:00,Nanjing New Port Development Zone Atour Hotel,"118.890650,32.145772",32.145772,118.890650,4.2
Chenxin Restaurant,Nanjing,31.832674,118.838708,100.0,Chinese Restaurant;Chinese Restaurant,10:00,23:00,Orange Hotel Nanjing Jiangning Sasseur Future Network Town,"118.826000,31.842300",31.842300,118.826000,3.9
Xianlewan Restaurant (Xinwang Huayuan East District Branch),Nanjing,31.838331,118.845945,100.0,Chinese Restaurant;Chinese Restaurant,09:00,21:00,Orange Hotel Nanjing Jiangning Sasseur Future Network Town,"118.826000,31.842300",31.842300,118.826000,3.7
Chunyang Restaurant (Temporarily Closed),Nanjing,31.838785,118.836462,100.0,Chinese Restaurant;Chinese Restaurant,11:00,21:00,Orange Hotel Nanjing Jiangning Sasseur Future Network Town,"118.826000,31.842300",31.842300,118.826000,3.5
Meilu Restaurant (Sifangcheng Store),Nanjing,32.049053,118.850510,343.0,Chinese Restaurant;Chinese Restaurant,16:30,21:00,Sun Yat-sen Mausoleum Scenic Area,"118.854097,32.054508",32.054508,118.854097,4.6
Nanjing Dongjiao State Guesthouse · Daoxiang Village A La Carte Restaurant,Nanjing,32.058352,118.847527,202.0,Food Service Related;Food Service Related,08:30,20:30,Sun Yat-sen Mausoleum Scenic Area,"118.854097,32.054508",32.054508,118.854097,4.1
Jingli Seafood Buffet Restaurant,Nanjing,32.058378,118.847167,212.0,Chinese Restaurant;Seafood Restaurant,17:30,21:00,Sun Yat-sen Mausoleum Scenic Area,"118.854097,32.054508",32.054508,118.854097,4.7
Wheat Spike Café (Restaurant),Nanjing,32.053088,118.840329,55.0,Cafe;Cafe,08:00,18:00,Sun Yat-sen Mausoleum Scenic Area,"118.854097,32.054508",32.054508,118.854097,4.4
Yishengyuan Restaurant,Nanjing,32.041985,118.849227,298.0,Chinese Restaurant;Chinese Restaurant,16:00,22:00,Sun Yat-sen Mausoleum Scenic Area,"118.854097,32.054508",32.054508,118.854097,4.2
Yongshengli Tea Restaurant (Fuzimiao Branch),Nanjing,32.023204,118.787265,65.0,Fast Food Restaurant;Tea Restaurant,16:30,21:00,Ji Hotel Nanjing Confucius Temple,"118.788000,32.023300",32.023300,118.788000,4.2
Blue Cheese Italian Restaurant (Shuiyou City Branch),Nanjing,32.023655,118.786547,43.0,Chinese Restaurant;Chinese Restaurant,10:00,21:30,Ji Hotel Nanjing Confucius Temple,"118.788000,32.023300",32.023300,118.788000,4.5
Keming Ice Room (Shuiyou City Store),Nanjing,32.023305,118.786153,53.0,Cold Beverage Shop;Cold Beverage Shop,11:00,21:30,Ji Hotel Nanjing Confucius Temple,"118.788000,32.023300",32.023300,118.788000,4.7
1432 German Garden Restaurant (Nanjing Pengxin Shuiyou City Branch),Nanjing,32.023315,118.786021,84.0,Foreign Restaurant;German Cuisine,11:00,21:00,Ji Hotel Nanjing Confucius Temple,"118.788000,32.023300",32.023300,118.788000,4.4
Bella Kitchen Unlimited Steak Restaurant (Maoye Tiandi Store),Nanjing,32.022530,118.786194,77.0,Chinese Restaurant;Chinese Restaurant,16:30,21:00,Ji Hotel Nanjing Confucius Temple,"118.788000,32.023300",32.023300,118.788000,4.4
Nanjing Dapaidang (Fuzimiao Pingjiang Mansion Store),Nanjing,32.021038,118.792671,100.0,Chinese Restaurant;Chinese Restaurant,16:30,22:00,Nanjing Confucius Temple Qinhuai River Cruise Terminal Atour Hotel,"118.792061,32.020255",32.020255,118.792061,4.6
Zhengxing Restaurant,Nanjing,32.020275,118.790175,100.0,Chinese Restaurant;Chinese Restaurant,11:00,21:00,Nanjing Confucius Temple Qinhuai River Cruise Terminal Atour Hotel,"118.792061,32.020255",32.020255,118.792061,2.7
Night Stay Qinhuai Junting Hotel Restaurant (Grand Theater Branch),Nanjing,32.021996,118.791824,194.0,Chinese Restaurant;Chinese Restaurant,11:00,21:00,Nanjing Confucius Temple Qinhuai River Cruise Terminal Atour Hotel,"118.792061,32.020255",32.020255,118.792061,4.2
Wanninglou Gourmet Pavilion,Nanjing,32.020352,118.789761,100.0,Food Service Related;Food Service Related,17:00,21:00,Nanjing Confucius Temple Qinhuai River Cruise Terminal Atour Hotel,"118.792061,32.020255",32.020255,118.792061,4.1
Tianyuanlou True Jiangnan Fashion Restaurant (Confucius Temple Branch),Nanjing,32.019013,118.790272,100.0,Chinese Restaurant;Chinese Restaurant,10:00,23:00,Nanjing Confucius Temple Qinhuai River Cruise Terminal Atour Hotel,"118.792061,32.020255",32.020255,118.792061,4.3
Old Camera · Garden Restaurant,Nanjing,32.042471,118.841831,84.0,Food Service Related;Food Service Related,09:00,21:00,Meiling Pavilion Hotel (Nanjing Sun Yat-sen Mausoleum Scenic Area),"118.842830,32.043979",32.043979,118.842830,4.7
Frontline Courtyard Fanghua Cultural Theme Restaurant,Nanjing,32.042886,118.840991,294.0,Chinese Restaurant;Chinese Restaurant,09:30,22:00,Meiling Pavilion Hotel (Nanjing Sun Yat-sen Mausoleum Scenic Area),"118.842830,32.043979",32.043979,118.842830,4.2
Yishengyuan Restaurant,Nanjing,32.041985,118.849227,298.0,Chinese Restaurant;Chinese Restaurant,16:00,22:00,Meiling Pavilion Hotel (Nanjing Sun Yat-sen Mausoleum Scenic Area),"118.842830,32.043979",32.043979,118.842830,4.2
Mijing Alice Garden Restaurant MJ Secret Wonderland,Nanjing,32.038346,118.840115,136.0,Foreign Restaurant;Western Restaurant,10:30,21:30,Meiling Pavilion Hotel (Nanjing Sun Yat-sen Mausoleum Scenic Area),"118.842830,32.043979",32.043979,118.842830,4.6
Xun · Garden Restaurant (Zijin Fang Plaza Store),Nanjing,32.040970,118.834915,189.0,Foreign Restaurant;Western Restaurant|Entertainment Venue;Bar,10:00,21:00,Meiling Pavilion Hotel (Nanjing Sun Yat-sen Mausoleum Scenic Area),"118.842830,32.043979",32.043979,118.842830,4.6
Wenliu Restaurant (Laomendong Branch),Nanjing,32.011515,118.787387,100.0,Chinese Restaurant;Chinese Restaurant,17:00,21:00,Laomendong,"118.787631,32.011682",32.011682,118.787631,4.5
Jiang Youji (Laomendong Branch),Nanjing,32.011774,118.786821,25.0,Chinese Restaurant;Halal Restaurant,08:00,22:30,Laomendong,"118.787631,32.011682",32.011682,118.787631,4.4
Xunwei · Jinling Twelve Dishes (Laomendong Store),Nanjing,32.012241,118.787144,177.0,Chinese Restaurant;Chinese Restaurant,16:30,21:00,Laomendong,"118.787631,32.011682",32.011682,118.787631,4.7
Jiming Soup Dumplings (Nanjing Flagship) Nanjing Cuisine,Nanjing,32.011940,118.786703,100.0,Chinese Restaurant;Chinese Restaurant,08:30,23:00,Laomendong,"118.787631,32.011682",32.011682,118.787631,4.5
New Belle Italian Restaurant · Wood-Fired Pizza (Laomendong Branch),Nanjing,32.011064,118.786955,70.0,Fast Food Restaurant;Fast Food Restaurant,10:00,22:00,Laomendong,"118.787631,32.011682",32.011682,118.787631,4.6
Six Dynasties Pine Teahouse,Nanjing,32.010760,118.788191,294.0,Tea House;Tea House,10:00,22:00,Laomendong,"118.787631,32.011682",32.011682,118.787631,4.7
Nancheng Yanguilou (Laomendong Branch),Nanjing,32.012681,118.788744,100.0,Chinese Restaurant;Chinese Restaurant|Accommodation Related;Accommodation Related,17:00,21:00,Laomendong,"118.787631,32.011682",32.011682,118.787631,4.5
Reunion with Smoke Firewood Wonton Love Snack Shop,Nanjing,32.011082,118.789613,14.0,Chinese Restaurant;Chinese Restaurant,08:30,20:30,Laomendong,"118.787631,32.011682",32.011682,118.787631,4.4
The Free Cook · Family Cuisine (Laomendong Branch),Nanjing,32.014135,118.787506,72.0,Food Service Related;Food Service Related,11:00,21:00,Laomendong,"118.787631,32.011682",32.011682,118.787631,4.6
Yunshe Restaurant,Nanjing,32.009595,118.785806,100.0,Chinese Restaurant;Chinese Restaurant,17:00,21:00,Laomendong,"118.787631,32.011682",32.011682,118.787631,4.4
Yichun Restaurant (Nanjing Museum Branch),Nanjing,32.039269,118.825427,53.0,Food Service Related;Food Service Related,11:00,21:00,Nanjing Museum,"118.825064,32.040802",32.040802,118.825064,3.9
Taoxiangju Restaurant · Nanjing Grand Metropark Hotel,Nanjing,32.039919,118.823378,124.0,Food Service Related;Food Service Related,10:30,21:00,Nanjing Museum,"118.825064,32.040802",32.040802,118.825064,4.1
Panda Restaurant,Nanjing,32.043422,118.824293,29.0,Chinese Restaurant;Chinese Restaurant,17:00,20:30,Nanjing Museum,"118.825064,32.040802",32.040802,118.825064,4.3
Zhenmu Space Tea Restaurant,Nanjing,32.038720,118.822091,71.0,Fast Food Restaurant;Fast Food Restaurant,09:00,01:00,Nanjing Museum,"118.825064,32.040802",32.040802,118.825064,4.2
Tai Hang Ice Room Tea Restaurant (Qingxi Road Branch),Nanjing,32.044629,118.822917,100.0,Fast Food Restaurant;Tea Restaurant,11:00,21:00,Nanjing Museum,"118.825064,32.040802",32.040802,118.825064,4.3
Three Points Red Red-themed Restaurant (Minggugong Road No. 21 Community Store),Nanjing,32.043222,118.816105,100.0,Chinese Restaurant;Chinese Restaurant,11:00,21:00,Nanjing Museum,"118.825064,32.040802",32.040802,118.825064,3.9
Xun · Garden Restaurant (Zijin Fang Plaza Store),Nanjing,32.040970,118.834915,189.0,Foreign Restaurant;Western Restaurant|Entertainment Venue;Bar,10:00,21:00,Nanjing Museum,"118.825064,32.040802",32.040802,118.825064,4.6
Tongxinyuan Hotel Chinese Restaurant,Nanjing,32.032954,118.830965,95.0,Chinese Restaurant;Chinese Restaurant,11:00,21:00,Nanjing Museum,"118.825064,32.040802",32.040802,118.825064,4.2
Royal Garden Hotel - Chinese Restaurant,Nanjing,32.034991,118.816403,344.0,Chinese Restaurant;Chinese Restaurant,17:00,20:30,Nanjing Museum,"118.825064,32.040802",32.040802,118.825064,4.3
Yifeng Jiayan Theme Restaurant,Nanjing,32.046252,118.814997,100.0,Chinese Restaurant;Chinese Restaurant,10:00,22:00,Nanjing Museum,"118.825064,32.040802",32.040802,118.825064,4.6
Meilu Restaurant (Sifangcheng Store),Nanjing,32.049053,118.850510,343.0,Chinese Restaurant;Chinese Restaurant,16:30,21:00,Zhongshan Scenic Area Sun Yat-sen Mausoleum Music Terrace,"118.855382,32.055096",32.055096,118.855382,4.6
Nanjing Dongjiao State Guesthouse · Daoxiang Village A La Carte Restaurant,Nanjing,32.058352,118.847527,202.0,Food Service Related;Food Service Related,08:30,20:30,Zhongshan Scenic Area Sun Yat-sen Mausoleum Music Terrace,"118.855382,32.055096",32.055096,118.855382,4.1
Jingli Seafood Buffet Restaurant,Nanjing,32.058378,118.847167,212.0,Chinese Restaurant;Seafood Restaurant,17:30,21:00,Zhongshan Scenic Area Sun Yat-sen Mausoleum Music Terrace,"118.855382,32.055096",32.055096,118.855382,4.7
Wheat Spike Café (Restaurant),Nanjing,32.053088,118.840329,55.0,Cafe;Cafe,08:00,18:00,Zhongshan Scenic Area Sun Yat-sen Mausoleum Music Terrace,"118.855382,32.055096",32.055096,118.855382,4.4
Yishengyuan Restaurant,Nanjing,32.041985,118.849227,298.0,Chinese Restaurant;Chinese Restaurant,16:00,22:00,Zhongshan Scenic Area Sun Yat-sen Mausoleum Music Terrace,"118.855382,32.055096",32.055096,118.855382,4.2
Kuandu Hotel (Kuandu Jade Garden Restaurant),Nanjing,32.043804,118.840376,100.0,Hotel;Budget Chain Hotel|Chinese Restaurant;Chinese Restaurant,11:00,21:00,Zhongshan Scenic Area Sun Yat-sen Mausoleum Music Terrace,"118.855382,32.055096",32.055096,118.855382,4.9
Old Camera · Garden Restaurant,Nanjing,32.042471,118.841831,84.0,Food Service Related;Food Service Related,09:00,21:00,Zhongshan Scenic Area Sun Yat-sen Mausoleum Music Terrace,"118.855382,32.055096",32.055096,118.855382,4.7
Frontline Courtyard Fanghua Cultural Theme Restaurant,Nanjing,32.042886,118.840991,294.0,Chinese Restaurant;Chinese Restaurant,09:30,22:00,Zhongshan Scenic Area Sun Yat-sen Mausoleum Music Terrace,"118.855382,32.055096",32.055096,118.855382,4.2
Giraffe Tea Restaurant (Junlin Zijin Commercial Street Branch),Nanjing,32.037885,118.850974,53.0,Fast Food Restaurant;Tea Restaurant,09:00,23:59,Zhongshan Scenic Area Sun Yat-sen Mausoleum Music Terrace,"118.855382,32.055096",32.055096,118.855382,4.2
Golden Almond Restaurant,Nanjing,32.037985,118.850289,79.0,Chinese Restaurant;Chinese Restaurant,10:00,22:00,Zhongshan Scenic Area Sun Yat-sen Mausoleum Music Terrace,"118.855382,32.055096",32.055096,118.855382,3.9
"Nanjing The Grand Mansion, a Luxury Collection Hotel - Xuanling Pavilion Chinese Restaurant",Nanjing,32.042870,118.798986,334.0,Chinese Restaurant;Chinese Restaurant,17:30,21:00,Six Dynasties Museum,"118.799124,32.042840",32.042840,118.799124,4.3
The Grand Mansion Luxury Collection Hotel · Old Nanjing Orange Twilight Restaurant,Nanjing,32.042545,118.798838,236.0,Chinese Restaurant;Chinese Restaurant,17:30,21:30,Six Dynasties Museum,"118.799124,32.042840",32.042840,118.799124,4.2
Gewaixiang Restaurant (Taipingqiao South Community South District Branch),Nanjing,32.045396,118.799443,100.0,Chinese Restaurant;Chinese Restaurant,09:00,23:00,Six Dynasties Museum,"118.799124,32.042840",32.042840,118.799124,4.0
Kaoyin Fresh BBQ Social Tavern (Daxinggong 1912 Branch),Nanjing,32.044619,118.795650,107.0,Chinese Restaurant;Chinese Restaurant,11:30,01:00,Six Dynasties Museum,"118.799124,32.042840",32.042840,118.799124,4.6
Nanjing Impressions (1912 Presidential Palace Branch),Nanjing,32.045050,118.795997,100.0,Chinese Restaurant;Chinese Restaurant,17:00,21:30,Six Dynasties Museum,"118.799124,32.042840",32.042840,118.799124,4.7
Fine Recipe · Creative Western Cuisine (Presidential Palace 1912 Branch),Nanjing,32.044738,118.795705,110.0,Foreign Restaurant;Western Restaurant,11:00,20:30,Six Dynasties Museum,"118.799124,32.042840",32.042840,118.799124,4.7
Zhuque Bridge · Nanjing Duck Culture Theme Restaurant,Nanjing,32.045993,118.796627,59.0,Food Service Related;Food Service Related,11:00,21:00,Six Dynasties Museum,"118.799124,32.042840",32.042840,118.799124,4.3
Qiangye Restaurant (Changbai Street Branch),Nanjing,32.039040,118.798726,100.0,Chinese Restaurant;Chinese Restaurant,16:30,21:00,Six Dynasties Museum,"118.799124,32.042840",32.042840,118.799124,4.4
Plum Blossom Ode · Jinling Bistro (Presidential Palace 1912 Branch),Nanjing,32.045954,118.796309,77.0,Chinese Restaurant;Chinese Restaurant,09:00,20:30,Six Dynasties Museum,"118.799124,32.042840",32.042840,118.799124,4.7
Xinjiang Cuisine BBQ Restaurant (Taiping North Road Branch),Nanjing,32.045158,118.795034,85.0,Chinese Restaurant;Local Specialty Restaurant,11:00,21:00,Six Dynasties Museum,"118.799124,32.042840",32.042840,118.799124,4.0
Lazy Life Art Restaurant,Nanjing,32.068502,118.820836,146.0,Chinese Restaurant;Zhejiang Cuisine,17:00,21:30,Purple Mountain Observatory of the Chinese Academy of Sciences,"118.830719,32.064698",32.064698,118.830719,4.6
Yuejian Garden Restaurant,Nanjing,32.053654,118.826412,141.0,Chinese Restaurant;Chinese Restaurant,09:30,22:00,Purple Mountain Observatory of the Chinese Academy of Sciences,"118.830719,32.064698",32.064698,118.830719,4.4
Nanjing Blossom Hill · Pipa Mountain Residence Hotel · Huajianshi Restaurant,Nanjing,32.053020,118.826593,100.0,Chinese Restaurant;Chinese Restaurant,11:00,21:00,Purple Mountain Observatory of the Chinese Academy of Sciences,"118.830719,32.064698",32.064698,118.830719,4.1
Kuandu · Lake Biwa Restaurant,Nanjing,32.052922,118.826357,82.0,Chinese Restaurant;Chinese Restaurant,17:00,20:45,Purple Mountain Observatory of the Chinese Academy of Sciences,"118.830719,32.064698",32.064698,118.830719,4.6
Fenghefang Garden Restaurant,Nanjing,32.058898,118.817225,100.0,Chinese Restaurant;Chinese Restaurant,10:00,21:00,Purple Mountain Observatory of the Chinese Academy of Sciences,"118.830719,32.064698",32.064698,118.830719,3.8
Pipa Islet Lakeside Green Organic Restaurant,Nanjing,32.054359,118.821680,157.0,购物相关场所;购物相关场所,11:00,21:00,Purple Mountain Observatory of the Chinese Academy of Sciences,"118.830719,32.064698",32.064698,118.830719,4.8
Nanjing Forestry University - Nanda Mountain Apartment Restaurant,Nanjing,32.075920,118.821336,12.0,Chinese Restaurant;Chinese Restaurant,11:00,21:00,Purple Mountain Observatory of the Chinese Academy of Sciences,"118.830719,32.064698",32.064698,118.830719,4.0
Shijiyuan Lakeside Garden Hotel · Lakeview Pavilion Chinese Restaurant,Nanjing,32.064443,118.814406,83.0,Chinese Restaurant;Chinese Restaurant,17:00,20:30,Purple Mountain Observatory of the Chinese Academy of Sciences,"118.830719,32.064698",32.064698,118.830719,4.4
Nengren Slow Time Community Self-Service Restaurant,Nanjing,31.998338,118.773660,100.0,Chinese Restaurant;Chinese Restaurant,06:00,19:00,Yuhuatai Martyrs Cemetery,"118.780177,31.998425",31.998425,118.780177,4.0
Xiaowu Restaurant (Yuhua West Road),Nanjing,32.004719,118.778684,46.0,Chinese Restaurant;Chinese Restaurant,10:00,21:00,Yuhuatai Martyrs Cemetery,"118.780177,31.998425",31.998425,118.780177,4.0
Smart Restaurant,Nanjing,32.004300,118.773048,100.0,Chinese Restaurant;Chinese Restaurant,11:00,21:00,Yuhuatai Martyrs Cemetery,"118.780177,31.998425",31.998425,118.780177,3.6
Baoji Restaurant,Nanjing,32.005229,118.772592,100.0,Chinese Restaurant;Chinese Restaurant,05:00,22:00,Yuhuatai Martyrs Cemetery,"118.780177,31.998425",31.998425,118.780177,4.0
Fengyang Restaurant,Nanjing,32.007525,118.774560,100.0,Chinese Restaurant;Chinese Restaurant,11:00,21:00,Yuhuatai Martyrs Cemetery,"118.780177,31.998425",31.998425,118.780177,3.6
Silanka Pu Restaurant,Nanjing,31.997514,118.792254,100.0,Chinese Restaurant;Chinese Restaurant,10:00,22:00,Yuhuatai Martyrs Cemetery,"118.780177,31.998425",31.998425,118.780177,3.9
Nanjing Suchengxiang Restaurant,Nanjing,32.007026,118.787968,100.0,Chinese Restaurant;Chinese Restaurant,10:00,20:00,Yuhuatai Martyrs Cemetery,"118.780177,31.998425",31.998425,118.780177,4.2
Impression Tuesday Nanjing Cuisine (1865 Creative Park Branch),Nanjing,32.006777,118.788451,74.0,Food Service Related;Food Service Related,16:30,21:30,Yuhuatai Martyrs Cemetery,"118.780177,31.998425",31.998425,118.780177,4.6
Huajintang · Hidden Cottage Chinese Restaurant,Nanjing,32.006899,118.789687,100.0,Food Service Related;Food Service Related,17:00,21:30,Yuhuatai Martyrs Cemetery,"118.780177,31.998425",31.998425,118.780177,4.7
Nanjing Dongjiao State Guesthouse · Daoxiang Village A La Carte Restaurant,Nanjing,32.058352,118.847527,202.0,Food Service Related;Food Service Related,08:30,20:30,Linggu Scenic Area,"118.866392,32.056287",32.056287,118.866392,4.1
Jingli Seafood Buffet Restaurant,Nanjing,32.058378,118.847167,212.0,Chinese Restaurant;Seafood Restaurant,17:30,21:00,Linggu Scenic Area,"118.866392,32.056287",32.056287,118.866392,4.7
Bailiu Garden Restaurant,Nanjing,32.041811,118.878425,47.0,Chinese Restaurant;Chinese Restaurant,17:00,19:00,Linggu Scenic Area,"118.866392,32.056287",32.056287,118.866392,4.0
