restaurant_name,city,latitude,longitude,price_per_person,cuisine,opening_time,closing_time,nearby_attraction_name,nearby_attraction_coords,query_latitude,query_longitude,rating
山顶乡阁庭院餐厅,杭州,30.219221,120.116411,122.0,餐饮服务;餐饮相关场所;餐饮相关,16:30,21:00,中国茶叶博物馆（龙井馆区）,"120.113539,30.219662",30.219662,120.113539,4.2
云中居民宿(西湖店)餐厅,杭州,30.217913,120.116908,100.0,餐饮服务;休闲餐饮场所;休闲餐饮场所,11:00,21:00,中国茶叶博物馆（龙井馆区）,"120.113539,30.219662",30.219662,120.113539,3.6
岚轩餐厅,杭州,30.215821,120.117607,100.0,餐饮服务;中餐厅;中餐厅,10:00,21:00,中国茶叶博物馆（龙井馆区）,"120.113539,30.219662",30.219662,120.113539,4.4
梅岭人家餐厅,杭州,30.215918,120.117925,77.0,餐饮服务;中餐厅;中餐厅,09:00,21:00,中国茶叶博物馆（龙井馆区）,"120.113539,30.219662",30.219662,120.113539,4.2
龙井草堂,杭州,30.224969,120.116079,709.0,餐饮服务;中餐厅;中餐厅,16:30,21:00,中国茶叶博物馆（龙井馆区）,"120.113539,30.219662",30.219662,120.113539,4.5
杭州西湖风景名胜区山景花园餐厅,杭州,30.216137,120.118931,486.0,餐饮服务;中餐厅;广东菜(粤菜),10:30,21:00,中国茶叶博物馆（龙井馆区）,"120.113539,30.219662",30.219662,120.113539,3.8
涤心·龙井,杭州,30.226242,120.115439,813.0,餐饮服务;中餐厅;中餐厅|生活服务;生活服务场所;生活服务场所|住宿服务;住宿服务相关;住宿服务相关,16:00,21:00,中国茶叶博物馆（龙井馆区）,"120.113539,30.219662",30.219662,120.113539,4.2
龙井院子餐厅,杭州,30.214875,120.107925,100.0,餐饮服务;中餐厅;中餐厅,11:00,21:00,中国茶叶博物馆（龙井馆区）,"120.113539,30.219662",30.219662,120.113539,4.1
茶岚苑花园餐厅(九溪店),杭州,30.212569,120.117874,92.0,餐饮服务;中餐厅;中餐厅,10:00,20:00,中国茶叶博物馆（龙井馆区）,"120.113539,30.219662",30.219662,120.113539,4.6
米桂餐厅·时令农家私房菜(满觉陇店),杭州,30.218446,120.123766,105.0,餐饮服务;餐饮相关场所;餐饮相关,16:00,21:00,中国茶叶博物馆（龙井馆区）,"120.113539,30.219662",30.219662,120.113539,3.8
钱江餐厅,杭州,30.259527,120.148472,100.0,餐饮服务;中餐厅;综合酒楼,10:00,20:00,断桥残雪,"120.151299,30.258106",30.258106,120.151299,4.2
角落里餐厅,杭州,30.260575,120.153651,28.0,餐饮服务;餐饮相关场所;餐饮相关,11:00,21:00,断桥残雪,"120.151299,30.258106",30.258106,120.151299,4.5
杭州卡萨布兰卡音乐餐吧,杭州,30.260378,120.157253,109.0,餐饮服务;外国餐厅;西餐厅(综合风味),10:00,02:00,断桥残雪,"120.151299,30.258106",30.258106,120.151299,4.5
绿茶餐厅(六公园店),杭州,30.257779,120.157824,63.0,餐饮服务;中餐厅;中餐厅,10:30,21:00,断桥残雪,"120.151299,30.258106",30.258106,120.151299,4.7
一湖春餐厅,杭州,30.257141,120.158020,386.0,餐饮服务;中餐厅;中餐厅,10:00,21:30,断桥残雪,"120.151299,30.258106",30.258106,120.151299,4.5
乐墅餐厅,杭州,30.257025,120.144486,100.0,餐饮服务;中餐厅;中餐厅,10:30,21:30,断桥残雪,"120.151299,30.258106",30.258106,120.151299,4.0
杭州西湖殿影酒店·1937餐厅,杭州,30.263206,120.155350,447.0,餐饮服务;餐饮相关场所;餐饮相关,11:00,21:00,断桥残雪,"120.151299,30.258106",30.258106,120.151299,4.2
杭州新新饭店·1913餐厅,杭州,30.255994,120.144148,371.0,餐饮服务;餐饮相关场所;餐饮相关,09:30,21:30,断桥残雪,"120.151299,30.258106",30.258106,120.151299,4.3
沙利文西餐厅(WAKE TOWN商业街店),杭州,30.259038,120.159258,158.0,餐饮服务;外国餐厅;西餐厅(综合风味),17:30,21:00,断桥残雪,"120.151299,30.258106",30.258106,120.151299,3.9
望湖楼·中餐厅,杭州,30.259017,120.159309,144.0,餐饮服务;中餐厅;中餐厅,17:30,21:00,断桥残雪,"120.151299,30.258106",30.258106,120.151299,4.2
纸鸢·融合餐厅·小酒馆,杭州,30.240719,120.169041,100.0,餐饮服务;中餐厅;中餐厅,17:00,21:30,南宋御街中山路步行街,"120.169526,30.240249",30.240249,120.169526,4.6
海派汇餐厅,杭州,30.240777,120.170435,98.0,餐饮服务;中餐厅;中餐厅,10:00,22:00,南宋御街中山路步行街,"120.169526,30.240249",30.240249,120.169526,4.5
樨樾·花园餐厅,杭州,30.239312,120.169339,174.0,餐饮服务;中餐厅;中餐厅,17:00,21:00,南宋御街中山路步行街,"120.169526,30.240249",30.240249,120.169526,4.6
"MaLaMaLa花园餐厅,咖啡下午茶",杭州,30.239071,120.169689,100.0,餐饮服务;餐饮相关场所;餐饮相关,11:00,21:00,南宋御街中山路步行街,"120.169526,30.240249",30.240249,120.169526,4.7
九甲里·创意杭帮菜(河坊街店),杭州,30.240648,120.171031,82.0,餐饮服务;中餐厅;综合酒楼,10:00,23:30,南宋御街中山路步行街,"120.169526,30.240249",30.240249,120.169526,4.6
禹庭盏碟(鼓楼店),杭州,30.239810,120.171980,68.0,餐饮服务;中餐厅;浙江菜,16:30,21:00,南宋御街中山路步行街,"120.169526,30.240249",30.240249,120.169526,4.4
疆小谢(新疆美食餐厅.河坊街店),杭州,30.239330,120.171880,75.0,餐饮服务;中餐厅;中餐厅,11:30,21:30,南宋御街中山路步行街,"120.169526,30.240249",30.240249,120.169526,4.6
新周记·巷子里的江南味(鼓楼店),杭州,30.237432,120.171040,64.0,餐饮服务;中餐厅;中餐厅,10:30,23:30,南宋御街中山路步行街,"120.169526,30.240249",30.240249,120.169526,4.6
泮芳春煎饺·米其林餐厅(中山南路店),杭州,30.237205,120.171034,17.0,餐饮服务;中餐厅;中餐厅,06:00,20:00,南宋御街中山路步行街,"120.169526,30.240249",30.240249,120.169526,4.6
新白鹿(西湖银泰百货店),杭州,30.242989,120.165847,53.0,餐饮服务;中餐厅;浙江菜|餐饮服务;冷饮店;冷饮店,16:00,21:00,南宋御街中山路步行街,"120.169526,30.240249",30.240249,120.169526,4.7
楼外楼(杭州西湖风景名胜区店),杭州,30.250209,120.140723,157.0,餐饮服务;中餐厅;综合酒楼,16:30,20:30,孤山公园,"120.142481,30.251654",30.251654,120.142481,4.5
杭州香格里拉·咖啡苑,杭州,30.252574,120.137577,207.0,餐饮服务;咖啡厅;咖啡厅,11:00,21:00,孤山公园,"120.142481,30.251654",30.251654,120.142481,4.1
浙江西湖山庄·自助餐厅,杭州,30.256935,120.142147,100.0,餐饮服务;中餐厅;中餐厅,11:00,21:00,孤山公园,"120.142481,30.251654",30.251654,120.142481,4.1
华北饭店-中餐厅,杭州,30.253808,120.133460,112.0,餐饮服务;中餐厅;中餐厅,17:30,20:30,孤山公园,"120.142481,30.251654",30.251654,120.142481,4.1
湛碧楼·西湖湖景餐厅,杭州,30.247279,120.133313,100.0,餐饮服务;中餐厅;中餐厅,11:00,22:30,孤山公园,"120.142481,30.251654",30.251654,120.142481,4.6
十二时辰湖景餐厅,杭州,30.251519,120.131988,100.0,餐饮服务;餐饮相关场所;餐饮相关,10:30,20:00,孤山公园,"120.142481,30.251654",30.251654,120.142481,4.0
青岚(杨公堤店),杭州,30.248263,120.131589,368.0,餐饮服务;餐饮相关场所;餐饮相关,17:30,21:30,孤山公园,"120.142481,30.251654",30.251654,120.142481,4.4
口子国际大酒店餐厅,杭州,30.232386,120.149789,100.0,餐饮服务;中餐厅;中餐厅,11:00,21:00,三潭印月,"120.145369,30.238845",30.238845,120.145369,3.3
柳莺湖上,杭州,30.238732,120.154521,217.0,餐饮服务;中餐厅;中餐厅,17:00,21:00,三潭印月,"120.145369,30.238845",30.238845,120.145369,4.6
西湖宴·湖景餐厅,杭州,30.236157,120.154292,360.0,餐饮服务;中餐厅;海鲜酒楼,11:00,21:00,三潭印月,"120.145369,30.238845",30.238845,120.145369,4.5
藕香居餐厅,杭州,30.230372,120.148032,63.0,餐饮服务;中餐厅;中餐厅,17:00,19:30,三潭印月,"120.145369,30.238845",30.238845,120.145369,4.3
闻莺馆(柳浪闻莺店),杭州,30.240324,120.155890,146.0,餐饮服务;中餐厅;中餐厅,09:30,22:00,三潭印月,"120.145369,30.238845",30.238845,120.145369,4.7
魏庐·西湖1138文化茶餐厅,杭州,30.230253,120.138864,100.0,餐饮服务;中餐厅;中餐厅,11:00,21:00,三潭印月,"120.145369,30.238845",30.238845,120.145369,3.8
西湖映象餐厅,杭州,30.234732,120.156845,120.0,餐饮服务;中餐厅;中餐厅,17:00,21:00,三潭印月,"120.145369,30.238845",30.238845,120.145369,4.6
Park 1999园林式餐厅,杭州,30.240410,120.157740,100.0,餐饮服务;中餐厅;中餐厅,11:00,21:00,三潭印月,"120.145369,30.238845",30.238845,120.145369,4.3
知味观·味庄(杨公堤店),杭州,30.230581,120.137300,141.0,餐饮服务;中餐厅;中餐厅,16:30,20:00,三潭印月,"120.145369,30.238845",30.238845,120.145369,4.3
新柳莺餐厅(南山路店),杭州,30.239341,120.157948,104.0,餐饮服务;中餐厅;中餐厅,08:00,21:00,三潭印月,"120.145369,30.238845",30.238845,120.145369,4.0
郁金香茶餐饮(太子湾公园北门迎宾亭店),杭州,30.227600,120.143830,100.0,餐饮服务;快餐厅;快餐厅,11:00,21:00,雷峰塔景区,"120.148849,30.230934",30.230934,120.148849,3.4
紫真园茶宴,杭州,30.225658,120.152509,100.0,餐饮服务;茶艺馆;茶艺馆,10:00,22:00,雷峰塔景区,"120.148849,30.230934",30.230934,120.148849,4.2
晓芦公馆·民国私宴,杭州,30.225240,120.143968,206.0,餐饮服务;中餐厅;浙江菜,11:00,21:00,雷峰塔景区,"120.148849,30.230934",30.230934,120.148849,4.3
晓芦创意餐厅(太子湾店),杭州,30.225213,120.143880,100.0,餐饮服务;餐饮相关场所;餐饮相关,11:00,21:00,雷峰塔景区,"120.148849,30.230934",30.230934,120.148849,3.6
六甲酒店(杭州西湖九溪店)·餐厅,杭州,30.195991,120.113222,100.0,餐饮服务;中餐厅;中餐厅,11:00,21:00,九溪烟树,"120.113350,30.202395",30.202395,120.113350,3.4
九龙香樟庭院餐厅(九溪店),杭州,30.193979,120.115111,80.0,餐饮服务;快餐厅;茶餐厅,08:30,19:30,九溪烟树,"120.113350,30.202395",30.202395,120.113350,4.2
九溪小筑·寻味餐厅(九溪店),杭州,30.193690,120.115651,96.0,餐饮服务;餐饮相关场所;餐饮相关,08:30,20:00,九溪烟树,"120.113350,30.202395",30.202395,120.113350,4.1
杭州千禧度假酒店-拾溪餐厅,杭州,30.191025,120.115325,129.0,餐饮服务;外国餐厅;西餐厅(综合风味),10:00,22:00,九溪烟树,"120.113350,30.202395",30.202395,120.113350,4.2
上铁钱江酒店-餐厅,杭州,30.190588,120.120679,100.0,餐饮服务;餐饮相关场所;餐饮相关,11:00,21:00,九溪烟树,"120.113350,30.202395",30.202395,120.113350,3.7
墨绿·Art space餐厅,杭州,30.158534,120.075665,83.0,餐饮服务;中餐厅;浙江菜,16:30,21:00,中国美术学院象山校区,"120.076690,30.155446",30.155446,120.076690,4.6
永盛茶餐厅,杭州,30.158514,120.075573,32.0,餐饮服务;快餐厅;茶餐厅,08:00,24:00,中国美术学院象山校区,"120.076690,30.155446",30.155446,120.076690,4.6
满兮酒店餐厅,杭州,30.159263,120.075329,100.0,餐饮服务;中餐厅;中餐厅,11:00,21:00,中国美术学院象山校区,"120.076690,30.155446",30.155446,120.076690,3.7
粥皇港式茶餐廳(美术学院店),杭州,30.159634,120.077400,31.0,餐饮服务;快餐厅;快餐厅,09:00,02:00,中国美术学院象山校区,"120.076690,30.155446",30.155446,120.076690,4.4
新疆比拉力餐厅,杭州,30.150950,120.078561,75.0,餐饮服务;中餐厅;清真菜馆,10:00,24:00,中国美术学院象山校区,"120.076690,30.155446",30.155446,120.076690,4.1
圆多多餐厅(色客小馆),杭州,30.152280,120.072100,100.0,餐饮服务;中餐厅;中餐厅,11:00,21:00,中国美术学院象山校区,"120.076690,30.155446",30.155446,120.076690,3.7
君港酒店餐厅,杭州,30.161054,120.078568,100.0,餐饮服务;中餐厅;中餐厅,11:00,24:00,中国美术学院象山校区,"120.076690,30.155446",30.155446,120.076690,4.2
小辣椒餐厅(西街美食城店),杭州,30.159157,120.070865,80.0,餐饮服务;餐饮相关场所;餐饮相关,17:00,21:00,中国美术学院象山校区,"120.076690,30.155446",30.155446,120.076690,4.3
撒椒川念餐厅(转江街店),杭州,30.159292,120.070799,96.0,餐饮服务;中餐厅;四川菜(川菜),17:00,21:30,中国美术学院象山校区,"120.076690,30.155446",30.155446,120.076690,4.7
拉瓦·西餐厅(金街美地店),杭州,30.148904,120.079300,108.0,餐饮服务;外国餐厅;外国餐厅,10:00,21:00,中国美术学院象山校区,"120.076690,30.155446",30.155446,120.076690,4.0
与河bistro&canteen餐厅,杭州,30.307864,120.135234,121.0,餐饮服务;餐饮相关场所;餐饮相关,11:00,21:00,小河历史文化街区,"120.135337,30.308302",30.308302,120.135337,4.7
撸了个猫花园餐厅,杭州,30.307912,120.136153,100.0,餐饮服务;中餐厅;中餐厅,11:00,21:00,小河历史文化街区,"120.135337,30.308302",30.308302,120.135337,4.6
和一轩·花园餐厅,杭州,30.308787,120.134207,88.0,餐饮服务;中餐厅;中餐厅,09:00,21:00,小河历史文化街区,"120.135337,30.308302",30.308302,120.135337,4.5
第101座花园餐厅(小河直街店),杭州,30.308955,120.133764,120.0,餐饮服务;餐饮相关场所;餐饮相关,16:30,21:00,小河历史文化街区,"120.135337,30.308302",30.308302,120.135337,4.6
腾飞小馆·匠心手作·茶酒餐馆,杭州,30.308920,120.133695,76.0,餐饮服务;中餐厅;中餐厅,16:30,21:30,小河历史文化街区,"120.135337,30.308302",30.308302,120.135337,4.4
新腾飞花语餐厅(小河直街店),杭州,30.308929,120.133698,51.0,餐饮服务;中餐厅;中餐厅,11:00,20:30,小河历史文化街区,"120.135337,30.308302",30.308302,120.135337,4.4
古道羊寻味餐厅,杭州,30.307053,120.137177,79.0,餐饮服务;中餐厅;中餐厅,17:00,24:00,小河历史文化街区,"120.135337,30.308302",30.308302,120.135337,4.3
云水谣·云南味道,杭州,30.306812,120.137098,103.0,餐饮服务;餐饮相关场所;餐饮相关,09:00,21:00,小河历史文化街区,"120.135337,30.308302",30.308302,120.135337,4.4
弄堂里(小河店),杭州,30.309394,120.133173,75.0,餐饮服务;中餐厅;中餐厅,16:30,21:00,小河历史文化街区,"120.135337,30.308302",30.308302,120.135337,4.4
歌桔餐酒客厅,杭州,30.306462,120.136888,100.0,餐饮服务;中餐厅;中餐厅,11:00,21:00,小河历史文化街区,"120.135337,30.308302",30.308302,120.135337,3.3
大宅院(西溪路),杭州,30.257620,120.092557,86.0,餐饮服务;中餐厅;中餐厅,16:30,20:30,杭州西站,"120.091014,30.260867",30.260867,120.091014,4.5
福地餐厅,杭州,30.260346,120.095285,100.0,餐饮服务;中餐厅;中餐厅,11:00,21:00,杭州西站,"120.091014,30.260867",30.260867,120.091014,3.9
府苑新村长者餐厅,杭州,30.264739,120.094010,100.0,餐饮服务;中餐厅;中餐厅,11:00,21:00,杭州西站,"120.091014,30.260867",30.260867,120.091014,3.5
澳门陈光记(萧山国际机场T4出发夹层店),杭州,30.234878,120.431013,100.0,餐饮服务;中餐厅;中餐厅,11:00,21:00,萧山国际机场,"120.432413,30.234708",30.234708,120.432413,3.4
原1号餐厅,杭州,30.228891,120.426744,100.0,餐饮服务;中餐厅;中餐厅,11:00,21:00,萧山国际机场,"120.432413,30.234708",30.234708,120.432413,4.0
去野餐厅,杭州,30.238984,120.446523,100.0,餐饮服务;中餐厅;中餐厅,11:00,21:00,萧山国际机场,"120.432413,30.234708",30.234708,120.432413,4.0
杭州萧山国际机场-三号餐厅,杭州,30.239055,120.446681,30.0,餐饮服务;中餐厅;中餐厅,11:00,21:00,萧山国际机场,"120.432413,30.234708",30.234708,120.432413,4.0
国航员工餐厅(国航基地店),杭州,30.238608,120.449026,17.0,餐饮服务;中餐厅;中餐厅,11:00,21:00,萧山国际机场,"120.432413,30.234708",30.234708,120.432413,4.1
广味轩港市茶餐厅(杭州东站),杭州,30.290107,120.209962,100.0,餐饮服务;快餐厅;快餐厅,11:00,21:00,杭州东站,"120.212605,30.290846",30.290846,120.212605,2.5
爱瑞云餐厅(东溪德必易园店),杭州,30.291007,120.217230,76.0,餐饮服务;中餐厅;中餐厅|餐饮服务;咖啡厅;咖啡厅,10:00,23:00,杭州东站,"120.212605,30.290846",30.290846,120.212605,4.0
沈记港式茶餐厅(天城银座3幢店),杭州,30.289940,120.207477,30.0,餐饮服务;快餐厅;茶餐厅,10:00,19:00,杭州东站,"120.212605,30.290846",30.290846,120.212605,4.2
绿茶餐厅(杭州东站万象汇店),杭州,30.293504,120.217725,74.0,餐饮服务;中餐厅;中餐厅,10:30,21:30,杭州东站,"120.212605,30.290846",30.290846,120.212605,4.7
敏华冰厅(杭州东站万象汇店),杭州,30.294025,120.217615,57.0,餐饮服务;餐饮相关场所;餐饮相关,10:00,21:00,杭州东站,"120.212605,30.290846",30.290846,120.212605,4.4
美豪酒店(长春火车站国商店)·餐厅,杭州,43.908487,125.321411,100.0,餐饮服务;中餐厅;中餐厅,11:00,21:00,长春站,"125.324675,43.911531",43.911531,125.324675,4.0
椒爱水煮鱼川菜(宽城万达店),杭州,43.915190,125.322239,89.0,餐饮服务;中餐厅;四川菜(川菜),11:00,21:00,长春站,"125.324675,43.911531",43.911531,125.324675,4.4
熊喵来了火锅(长春宽城万达店),杭州,43.915572,125.322693,67.0,餐饮服务;中餐厅;火锅店,10:00,21:30,长春站,"125.324675,43.911531",43.911531,125.324675,4.6
孙家外婆菜(万达广场),杭州,43.915392,125.321866,54.0,餐饮服务;中餐厅;中餐厅,09:30,21:30,长春站,"125.324675,43.911531",43.911531,125.324675,4.2
Mask音乐烤吧(长春宽城万达广场店),杭州,43.915494,125.322005,100.0,体育休闲服务;娱乐场所;酒吧,11:00,21:00,长春站,"125.324675,43.911531",43.911531,125.324675,4.3
鱼掌门食府·观岛湖景餐厅,杭州,29.599538,119.021846,84.0,餐饮服务;中餐厅;中餐厅,10:00,21:00,千岛湖星岛印象度假酒店,"119.022247,29.600082",29.600082,119.022247,4.7
渔丰院子餐厅,杭州,29.599695,119.027468,80.0,餐饮服务;中餐厅;中餐厅,11:00,21:00,千岛湖星岛印象度假酒店,"119.022247,29.600082",29.600082,119.022247,4.8
翠花鱼府,杭州,29.598777,119.028073,70.0,餐饮服务;中餐厅;中餐厅,09:30,02:00,千岛湖星岛印象度假酒店,"119.022247,29.600082",29.600082,119.022247,4.4
友渔饭店,杭州,29.598446,119.028288,75.0,餐饮服务;中餐厅;中餐厅,11:00,21:00,千岛湖星岛印象度假酒店,"119.022247,29.600082",29.600082,119.022247,4.4
春长在餐厅(千岛湖店),杭州,29.599314,119.028565,75.0,餐饮服务;中餐厅;中餐厅,09:00,21:00,千岛湖星岛印象度假酒店,"119.022247,29.600082",29.600082,119.022247,4.5
万福来酸菜鱼餐馆,杭州,29.788424,119.678718,51.0,餐饮服务;中餐厅;四川菜(川菜),10:00,20:00,维也纳酒店（5.0深化版杭州桐庐富春江店）,"119.678699,29.789091",29.789091,119.678699,4.2
龙腾餐馆(盛泰·广宇公寓店),杭州,29.787523,119.680390,64.0,餐饮服务;中餐厅;浙江菜,16:00,20:30,维也纳酒店（5.0深化版杭州桐庐富春江店）,"119.678699,29.789091",29.789091,119.678699,4.1
311韩食·融合料理餐厅,杭州,29.788294,119.682401,80.0,体育休闲服务;娱乐场所;酒吧,11:00,21:00,维也纳酒店（5.0深化版杭州桐庐富春江店）,"119.678699,29.789091",29.789091,119.678699,4.3
乡邻乡亲(阳光店),杭州,29.789018,119.682646,86.0,餐饮服务;中餐厅;中餐厅,10:30,21:30,维也纳酒店（5.0深化版杭州桐庐富春江店）,"119.678699,29.789091",29.789091,119.678699,4.0
王家味餐厅,杭州,29.786549,119.682780,294.0,餐饮服务;中餐厅;中餐厅,17:00,20:30,维也纳酒店（5.0深化版杭州桐庐富春江店）,"119.678699,29.789091",29.789091,119.678699,4.4
旺昌门家餐厅(塘湾名苑C区店),杭州,30.185347,120.278092,100.0,餐饮服务;中餐厅;中餐厅,11:00,21:00,杭州胤隆会休闲主题酒店,"120.285795,30.179290",30.179290,120.285795,3.5
锦莱荟餐厅,杭州,30.181607,120.271366,97.0,餐饮服务;中餐厅;中餐厅,16:30,22:30,杭州胤隆会休闲主题酒店,"120.285795,30.179290",30.179290,120.285795,4.3
阿儒餐馆(育才西苑东区店),杭州,30.166872,120.279363,100.0,餐饮服务;中餐厅;中餐厅,10:00,22:00,杭州胤隆会休闲主题酒店,"120.285795,30.179290",30.179290,120.285795,4.0
土哈哈音乐餐吧(泰富广场店),杭州,30.165000,120.285112,103.0,餐饮服务;中餐厅;中餐厅,18:30,02:30,杭州胤隆会休闲主题酒店,"120.285795,30.179290",30.179290,120.285795,4.3
菲滋意式餐厅(萧山万象汇店),杭州,30.181674,120.269350,77.0,餐饮服务;外国餐厅;意式菜品餐厅,10:00,22:00,杭州胤隆会休闲主题酒店,"120.285795,30.179290",30.179290,120.285795,4.2
杭州中维香溢大酒店·满庭芳中餐厅,杭州,30.250971,120.174770,78.0,餐饮服务;餐饮相关场所;餐饮相关,17:30,20:30,全季杭州西湖湖滨解放路酒店（原西湖解放路店）,"120.172561,30.250838",30.250838,120.172561,4.0
蔡记九米羊肉炉,杭州,30.251470,120.170428,121.0,餐饮服务;中餐厅;中餐厅,11:00,02:00,全季杭州西湖湖滨解放路酒店（原西湖解放路店）,"120.172561,30.250838",30.250838,120.172561,4.7
奎元馆(解放路店),杭州,30.250933,120.170208,41.0,餐饮服务;中餐厅;浙江菜,07:00,21:00,全季杭州西湖湖滨解放路酒店（原西湖解放路店）,"120.172561,30.250838",30.250838,120.172561,4.5
小白餐馆,杭州,30.249204,120.170919,28.0,餐饮服务;中餐厅;中餐厅,16:30,21:00,全季杭州西湖湖滨解放路酒店（原西湖解放路店）,"120.172561,30.250838",30.250838,120.172561,4.4
家暄餐馆,杭州,30.249186,120.170817,58.0,餐饮服务;中餐厅;中餐厅,16:00,20:00,全季杭州西湖湖滨解放路酒店（原西湖解放路店）,"120.172561,30.250838",30.250838,120.172561,4.4
RayPub暗光(中河店),杭州,30.255686,120.172190,90.0,体育休闲服务;娱乐场所;酒吧|餐饮服务;咖啡厅;咖啡厅,10:00,01:00,杭州西湖湖滨银泰亚朵酒店,"120.172154,30.255412",30.255412,120.172154,4.6
舒老黑衢州菜自选餐厅(中河中路店),杭州,30.254296,120.172149,28.0,餐饮服务;中餐厅;中餐厅,09:00,21:00,杭州西湖湖滨银泰亚朵酒店,"120.172154,30.255412",30.255412,120.172154,4.0
杭州维景国际大酒店·自助餐厅(平海路店),杭州,30.254637,120.170946,132.0,餐饮服务;中餐厅;中餐厅,17:30,21:00,杭州西湖湖滨银泰亚朵酒店,"120.172154,30.255412",30.255412,120.172154,4.3
桃源烤肉(萧山万象汇店),杭州,30.182255,120.269208,80.0,餐饮服务;中餐厅;中餐厅,10:30,22:30,锦江之星5.0（杭州萧山万象汇人民广场地铁站店）,"120.270266,30.185737",30.185737,120.270266,4.7
NEED创意韩国料理(萧山万象汇店),杭州,30.181901,120.268864,119.0,餐饮服务;外国餐厅;韩国料理,11:00,21:30,锦江之星5.0（杭州萧山万象汇人民广场地铁站店）,"120.270266,30.185737",30.185737,120.270266,4.6
工联美食广场,杭州,30.255188,120.164276,41.0,餐饮服务;中餐厅;中餐厅,10:00,22:00,桔子杭州西湖酒店,"120.165000,30.256100",30.256100,120.165000,4.2
大牌大传统菜(湖滨店),杭州,30.255784,120.163643,62.0,餐饮服务;中餐厅;中餐厅,17:00,20:30,桔子杭州西湖酒店,"120.165000,30.256100",30.256100,120.165000,4.6
泷川本铺(工联cc店),杭州,30.254777,120.165028,97.0,餐饮服务;餐饮相关场所;餐饮相关,11:00,01:30,桔子杭州西湖酒店,"120.165000,30.256100",30.256100,120.165000,4.8
西塔老太太泥炉烤肉(杭州首店),杭州,30.257446,120.164191,140.0,餐饮服务;外国餐厅;韩国料理,11:00,22:00,桔子杭州西湖酒店,"120.165000,30.256100",30.256100,120.165000,4.7
江浙荟(湖滨银泰店),杭州,30.254879,120.163811,141.0,餐饮服务;中餐厅;中餐厅,10:00,22:00,桔子杭州西湖酒店,"120.165000,30.256100",30.256100,120.165000,4.5
湖畔居餐厅,杭州,30.231832,119.764750,100.0,餐饮服务;餐饮相关场所;餐饮相关,10:00,22:00,杭州临安青山湖雷迪森庄园,"119.769275,30.234250",30.234250,119.769275,4.2
御园餐厅,杭州,30.237180,119.774576,100.0,餐饮服务;中餐厅;中餐厅,11:00,21:00,杭州临安青山湖雷迪森庄园,"119.769275,30.234250",30.234250,119.769275,3.7
杭州醉湖居农家乐餐厅,杭州,30.235849,119.762951,110.0,餐饮服务;中餐厅;中餐厅,16:00,21:00,杭州临安青山湖雷迪森庄园,"119.769275,30.234250",30.234250,119.769275,3.9
阿萍餐馆,杭州,30.236399,119.761933,100.0,餐饮服务;中餐厅;中餐厅,09:00,21:00,杭州临安青山湖雷迪森庄园,"119.769275,30.234250",30.234250,119.769275,3.8
中都青山湖畔大酒店自助餐厅,杭州,30.228501,119.764985,195.0,餐饮服务;中餐厅;中餐厅,10:00,22:00,杭州临安青山湖雷迪森庄园,"119.769275,30.234250",30.234250,119.769275,4.1
良渚劝学荟餐厅(劝学荟店),杭州,30.349325,120.016625,100.0,餐饮服务;中餐厅;中餐厅,10:00,21:00,杭州良韵君亭酒店,"120.012755,30.349502",30.349502,120.012755,3.4
遇见音乐烧烤吧,杭州,30.342725,120.013775,100.0,餐饮服务;中餐厅;中餐厅,11:00,21:00,杭州良韵君亭酒店,"120.012755,30.349502",30.349502,120.012755,3.5
知味小餐馆,杭州,30.351141,120.021850,100.0,餐饮服务;中餐厅;中餐厅,07:00,23:30,杭州良韵君亭酒店,"120.012755,30.349502",30.349502,120.012755,3.6
聚福来餐馆,杭州,30.261455,120.449273,100.0,餐饮服务;餐饮相关场所;餐饮相关,10:00,22:00,杭州萧山机场朵亚酒店,"120.461405,30.253662",30.253662,120.461405,4.0
壹餐厅,杭州,30.246525,120.478175,100.0,餐饮服务;中餐厅;中餐厅,11:00,21:00,杭州萧山机场朵亚酒店,"120.461405,30.253662",30.253662,120.461405,3.5
幸福餐厅,杭州,30.325831,120.081498,43.0,餐饮服务;中餐厅;中餐厅,11:00,21:00,杭州浦京花园酒店,"120.080749,30.326851",30.326851,120.080749,3.9
同仁食汇中餐厅(同仁汇商场店),杭州,30.326682,120.077871,100.0,餐饮服务;餐饮相关场所;餐饮相关,11:00,21:00,杭州浦京花园酒店,"120.080749,30.326851",30.326851,120.080749,4.0
衢州小炒菜自选餐厅,杭州,30.326683,120.077739,100.0,餐饮服务;餐饮相关场所;餐饮相关,11:00,21:00,杭州浦京花园酒店,"120.080749,30.326851",30.326851,120.080749,3.5
伊香苑餐厅.清真民族菜,杭州,30.257475,120.159475,100.0,餐饮服务;中餐厅;清真菜馆,09:00,01:00,西湖湖滨颐居酒店,"120.159985,30.257187",30.257187,120.159985,4.0
迪拜杭州风味餐厅.新疆烤肉.湖滨步行街店,杭州,30.257275,120.159338,36.0,餐饮服务;中餐厅;清真菜馆,08:00,01:00,西湖湖滨颐居酒店,"120.159985,30.257187",30.257187,120.159985,4.3
港吉茶餐厅·拒绝预制菜(衣之佳城市奥特莱斯店),杭州,30.257225,120.161325,100.0,餐饮服务;快餐厅;快餐厅,11:00,21:00,西湖湖滨颐居酒店,"120.159985,30.257187",30.257187,120.159985,3.4
菲乐餐厅(白傅路店),杭州,30.256048,120.160868,128.0,餐饮服务;中餐厅;中餐厅,17:00,22:00,西湖湖滨颐居酒店,"120.159985,30.257187",30.257187,120.159985,4.5
杭州西溪喜来登度假大酒店中餐厅,杭州,30.267651,120.088566,205.0,餐饮服务;中餐厅;中餐厅,06:30,23:00,杭州西溪喜来登度假大酒店,"120.088785,30.267616",30.267616,120.088785,4.1
喜来登盛宴标帜餐厅(紫金港路店),杭州,30.267375,120.088275,100.0,餐饮服务;餐饮相关场所;餐饮相关,11:00,21:00,杭州西溪喜来登度假大酒店,"120.088785,30.267616",30.267616,120.088785,3.9
白云餐厅,杭州,30.267254,120.087030,400.0,餐饮服务;中餐厅;中餐厅,17:30,21:00,杭州西溪喜来登度假大酒店,"120.088785,30.267616",30.267616,120.088785,4.3
西溪别院(西溪天堂店),杭州,30.265570,120.089190,122.0,住宿服务;旅馆招待所;旅馆招待所,16:30,21:00,杭州西溪喜来登度假大酒店,"120.088785,30.267616",30.267616,120.088785,4.6
藏鲜工坊·西悦餐厅(西溪店),杭州,30.265105,120.087535,249.0,餐饮服务;中餐厅;中餐厅,11:00,21:30,杭州西溪喜来登度假大酒店,"120.088785,30.267616",30.267616,120.088785,4.4
渔鱼餐馆(原横畈小厨),杭州,30.232401,119.733129,43.0,餐饮服务;中餐厅;浙江菜,10:00,21:00,杭州农林大学青山湖开元名庭酒店,"119.731587,30.231863",30.231863,119.731587,4.0
昌化一家人餐馆(功臣山小区店),杭州,30.230115,119.730404,31.0,餐饮服务;中餐厅;四川菜(川菜),08:00,20:00,杭州农林大学青山湖开元名庭酒店,"119.731587,30.231863",30.231863,119.731587,4.2
符家味餐馆,杭州,30.233800,119.733424,100.0,餐饮服务;中餐厅;中餐厅,10:00,21:30,杭州农林大学青山湖开元名庭酒店,"119.731587,30.231863",30.231863,119.731587,4.3
临安府餐厅·杭州悦生雷迪森维嘉酒店,杭州,30.230108,119.726766,100.0,住宿服务;宾馆酒店;宾馆酒店,11:00,21:00,杭州农林大学青山湖开元名庭酒店,"119.731587,30.231863",30.231863,119.731587,3.7
印象农林主题餐厅,杭州,30.236039,119.727243,48.0,餐饮服务;餐饮相关场所;餐饮相关,11:00,21:00,杭州农林大学青山湖开元名庭酒店,"119.731587,30.231863",30.231863,119.731587,4.3
舒老黑衢州菜自选餐厅(西城博司店),杭州,30.316394,120.074689,100.0,购物服务;综合市场;蔬菜市场,11:00,21:00,竞鹅酒店|腾讯电竞联名(西湖科技园旗舰店),"120.074799,30.317964",30.317964,120.074799,4.1
家园餐厅(振华路店),杭州,30.313826,120.072720,36.0,餐饮服务;中餐厅;中餐厅,17:00,22:00,竞鹅酒店|腾讯电竞联名(西湖科技园旗舰店),"120.074799,30.317964",30.317964,120.074799,3.9
同往餐厅(振华路店),杭州,30.313772,120.072586,20.0,餐饮服务;快餐厅;快餐厅,10:00,22:00,竞鹅酒店|腾讯电竞联名(西湖科技园旗舰店),"120.074799,30.317964",30.317964,120.074799,4.0
小菜一碟中式餐厅(新登店),杭州,29.972920,119.737209,37.0,餐饮服务;中餐厅;中餐厅,09:00,21:00,曼居酒店(杭州新登富春港店),"119.737452,29.972619",29.972619,119.737452,4.3
林胖餐馆,杭州,29.974698,119.737549,100.0,餐饮服务;中餐厅;中餐厅,09:00,21:30,曼居酒店(杭州新登富春港店),"119.737452,29.972619",29.972619,119.737452,4.0
你家厨房,杭州,29.974493,119.740403,26.0,餐饮服务;中餐厅;中餐厅,09:00,21:00,曼居酒店(杭州新登富春港店),"119.737452,29.972619",29.972619,119.737452,4.2
橙子餐馆,杭州,29.975241,119.735325,100.0,餐饮服务;中餐厅;中餐厅,11:00,21:00,曼居酒店(杭州新登富春港店),"119.737452,29.972619",29.972619,119.737452,3.8
南哥餐馆,杭州,29.969604,119.742271,70.0,餐饮服务;中餐厅;中餐厅,07:00,21:00,曼居酒店(杭州新登富春港店),"119.737452,29.972619",29.972619,119.737452,4.4
花荟味餐厅,杭州,30.469781,119.769475,143.0,餐饮服务;餐饮相关场所;餐饮相关,11:00,21:00,杭州鸬鸟希尔顿花园酒店,"119.769431,30.469522",30.469522,119.769431,4.1
小竹江鲜餐厅(新湖金色池塘店),杭州,30.470169,119.768906,95.0,餐饮服务;中餐厅;中餐厅,16:30,20:30,杭州鸬鸟希尔顿花园酒店,"119.769431,30.469522",30.469522,119.769431,4.2
中大朗园餐厅,杭州,30.470213,119.764273,76.0,餐饮服务;中餐厅;中餐厅,11:00,21:00,杭州鸬鸟希尔顿花园酒店,"119.769431,30.469522",30.469522,119.769431,3.9
嘉丰维嘉大酒店云水餐厅(万悦城蜗牛广场店),杭州,30.460295,120.299338,136.0,餐饮服务;中餐厅;中餐厅,17:00,21:00,汉庭杭州东湖北路酒店,"120.297000,30.460900",30.460900,120.297000,4.4
怡皓缘·自选式餐厅(运河店),杭州,30.462277,120.298998,100.0,餐饮服务;餐饮相关场所;餐饮相关,09:00,21:00,汉庭杭州东湖北路酒店,"120.297000,30.460900",30.460900,120.297000,3.8
食味来餐厅,杭州,30.453525,120.293075,100.0,餐饮服务;中餐厅;中餐厅,10:30,01:30,汉庭杭州东湖北路酒店,"120.297000,30.460900",30.460900,120.297000,3.7
桔子水晶杭州西湖酒店·水晶餐厅,杭州,30.237953,120.158620,83.0,餐饮服务;餐饮相关场所;餐饮相关,11:00,21:00,杭州西湖柳莺里酒店,"120.155230,30.237986",30.237986,120.155230,4.3
方元餐厅,杭州,30.290550,119.617512,81.0,餐饮服务;中餐厅;中餐厅,09:00,21:00,如家商旅（金标）-杭州临安太湖源风景区店,"119.604344,30.264622",30.264622,119.604344,4.5
敏怡餐厅,杭州,30.238934,119.668682,100.0,餐饮服务;中餐厅;中餐厅,11:00,21:00,如家商旅（金标）-杭州临安太湖源风景区店,"119.604344,30.264622",30.264622,119.604344,3.5
弄口餐馆(昌化人家土菜馆),杭州,30.238259,119.669163,100.0,餐饮服务;中餐厅;中餐厅,11:00,21:00,如家商旅（金标）-杭州临安太湖源风景区店,"119.604344,30.264622",30.264622,119.604344,3.6
禧悦餐厅,杭州,30.256064,119.675823,100.0,餐饮服务;中餐厅;中餐厅,09:30,21:00,如家商旅（金标）-杭州临安太湖源风景区店,"119.604344,30.264622",30.264622,119.604344,4.0
荷愿餐厅,杭州,30.247999,119.530153,100.0,餐饮服务;中餐厅;中餐厅,10:00,21:00,如家商旅（金标）-杭州临安太湖源风景区店,"119.604344,30.264622",30.264622,119.604344,3.7
杭州新新饭店·1913餐厅,杭州,30.255994,120.144148,371.0,餐饮服务;餐饮相关场所;餐饮相关,09:30,21:30,平湖秋月观景点,"120.146210,30.252038",30.252038,120.146210,4.3
乐墅餐厅,杭州,30.257025,120.144486,100.0,餐饮服务;中餐厅;中餐厅,10:30,21:30,平湖秋月观景点,"120.146210,30.252038",30.252038,120.146210,4.0
浙江西湖山庄·自助餐厅,杭州,30.256935,120.142147,100.0,餐饮服务;中餐厅;中餐厅,17:30,20:30,平湖秋月观景点,"120.146210,30.252038",30.252038,120.146210,4.1
杭州香格里拉·咖啡苑,杭州,30.252574,120.137577,207.0,餐饮服务;咖啡厅;咖啡厅,11:00,21:00,平湖秋月观景点,"120.146210,30.252038",30.252038,120.146210,4.1
钱江餐厅,杭州,30.259527,120.148472,100.0,餐饮服务;中餐厅;综合酒楼,10:00,20:00,平湖秋月观景点,"120.146210,30.252038",30.252038,120.146210,4.2
新周记·巷子里的江南味(鼓楼店),杭州,30.237432,120.171040,64.0,餐饮服务;中餐厅;中餐厅,10:30,23:30,清河坊步行街,"120.168923,30.240073",30.240073,120.168923,4.6
泮芳春煎饺·米其林餐厅(中山南路店),杭州,30.237205,120.171034,17.0,餐饮服务;中餐厅;中餐厅,06:00,20:00,清河坊步行街,"120.168923,30.240073",30.240073,120.168923,4.6
海会阁新江南素面餐饮店,杭州,30.239004,120.105828,37.0,餐饮服务;餐饮相关场所;餐饮相关,07:00,20:00,灵隐寺,"120.101406,30.240826",30.240826,120.101406,4.8
法云安缦西餐厅,杭州,30.237412,120.097724,100.0,餐饮服务;外国餐厅;西餐厅(综合风味),11:00,21:00,灵隐寺,"120.101406,30.240826",30.240826,120.101406,4.3
大隐清心素食自助餐厅(隐市店),杭州,30.240622,120.106983,30.0,餐饮服务;中餐厅;中式素菜馆,17:00,19:00,灵隐寺,"120.101406,30.240826",30.240826,120.101406,4.4
如壹餐厅,杭州,30.238028,120.106488,105.0,餐饮服务;中餐厅;中餐厅,10:30,20:30,灵隐寺,"120.101406,30.240826",30.240826,120.101406,4.7
北高峰索道餐厅,杭州,30.243268,120.106763,21.0,餐饮服务;中餐厅;中餐厅,10:00,21:00,灵隐寺,"120.101406,30.240826",30.240826,120.101406,4.1
鹿萤季森系餐厅(灵隐景区店),杭州,30.238288,120.106949,100.0,餐饮服务;餐饮相关场所;餐饮相关,11:00,21:00,灵隐寺,"120.101406,30.240826",30.240826,120.101406,4.0
三生小坞·山野食集(杭州西湖灵隐店),杭州,30.235894,120.105016,78.0,餐饮服务;中餐厅;中餐厅,10:30,21:00,灵隐寺,"120.101406,30.240826",30.240826,120.101406,4.7
浅棠·庭院餐厅(灵隐店),杭州,30.243659,120.107314,106.0,餐饮服务;中餐厅;中餐厅,10:00,22:00,灵隐寺,"120.101406,30.240826",30.240826,120.101406,4.7
曼殊·天竺里餐厅,杭州,30.235660,120.104613,150.0,餐饮服务;中餐厅;中餐厅,16:30,20:30,灵隐寺,"120.101406,30.240826",30.240826,120.101406,4.4
樵食庭院餐厅,杭州,30.235839,120.105186,132.0,餐饮服务;中餐厅;浙江菜,09:00,22:00,灵隐寺,"120.101406,30.240826",30.240826,120.101406,4.3
Tomacado花厨(in77·杭州首店),杭州,30.253352,120.162044,178.0,餐饮服务;外国餐厅;西餐厅(综合风味),11:00,22:00,杭州湖滨银泰in77A区,"120.162484,30.253160",30.253160,120.162484,4.7
缦云里花园餐厅(湖滨银泰in77D区店),杭州,30.253583,120.163793,121.0,餐饮服务;外国餐厅;西餐厅(综合风味),11:00,21:00,杭州湖滨银泰in77A区,"120.162484,30.253160",30.253160,120.162484,4.6
西子餐厅(西子清宴),杭州,30.252058,120.163461,97.0,餐饮服务;中餐厅;中餐厅,16:30,21:00,杭州湖滨银泰in77A区,"120.162484,30.253160",30.253160,120.162484,4.6
鸟语花香·西湖·湖景餐厅(仁和店),杭州,30.252050,120.163604,500.0,餐饮服务;中餐厅;中餐厅,16:00,21:00,杭州湖滨银泰in77A区,"120.162484,30.253160",30.253160,120.162484,4.6
西西梨Brunch&Lounge(杭州湖滨88店),杭州,30.254685,120.162456,100.0,餐饮服务;餐饮相关场所;餐饮相关,11:00,21:00,杭州湖滨银泰in77A区,"120.162484,30.253160",30.253160,120.162484,4.6
杭州君悦酒店·湖滨28中餐厅,杭州,30.254843,120.161906,302.0,餐饮服务;中餐厅;中餐厅,17:30,21:30,杭州湖滨银泰in77A区,"120.162484,30.253160",30.253160,120.162484,4.6
第101座花园餐厅(杭州湖滨88店),杭州,30.254945,120.162473,253.0,餐饮服务;外国餐厅;西餐厅(综合风味),16:30,21:00,杭州湖滨银泰in77A区,"120.162484,30.253160",30.253160,120.162484,4.5
1921餐厅(一线西湖湖景店),杭州,30.251796,120.163967,212.0,餐饮服务;中餐厅;中餐厅,11:00,21:00,杭州湖滨银泰in77A区,"120.162484,30.253160",30.253160,120.162484,4.5
胖哥俩肉蟹煲(湖滨银泰in77C2区店),杭州,30.252520,120.164548,89.0,餐饮服务;中餐厅;中餐厅,10:30,21:30,杭州湖滨银泰in77A区,"120.162484,30.253160",30.253160,120.162484,4.7
杭州酒家(延安路店),杭州,30.251744,120.164014,79.0,餐饮服务;中餐厅;综合酒楼,11:00,20:30,杭州湖滨银泰in77A区,"120.162484,30.253160",30.253160,120.162484,4.6
山顶乡阁庭院餐厅,杭州,30.219221,120.116411,122.0,餐饮服务;餐饮相关场所;餐饮相关,16:30,21:00,龙井村,"120.113500,30.219700",30.219700,120.113500,4.2
云中居民宿(西湖店)餐厅,杭州,30.217913,120.116908,100.0,餐饮服务;休闲餐饮场所;休闲餐饮场所,11:00,21:00,龙井村,"120.113500,30.219700",30.219700,120.113500,3.6
岚轩餐厅,杭州,30.215821,120.117607,100.0,餐饮服务;中餐厅;中餐厅,10:00,21:00,龙井村,"120.113500,30.219700",30.219700,120.113500,4.4
梅岭人家餐厅,杭州,30.215918,120.117925,77.0,餐饮服务;中餐厅;中餐厅,09:00,21:00,龙井村,"120.113500,30.219700",30.219700,120.113500,4.2
龙井草堂,杭州,30.224969,120.116079,709.0,餐饮服务;中餐厅;中餐厅,16:30,21:00,龙井村,"120.113500,30.219700",30.219700,120.113500,4.5
杭州西湖风景名胜区山景花园餐厅,杭州,30.216137,120.118931,486.0,餐饮服务;中餐厅;广东菜(粤菜),10:30,21:00,龙井村,"120.113500,30.219700",30.219700,120.113500,3.8
涤心·龙井,杭州,30.226242,120.115439,813.0,餐饮服务;中餐厅;中餐厅|生活服务;生活服务场所;生活服务场所|住宿服务;住宿服务相关;住宿服务相关,16:00,21:00,龙井村,"120.113500,30.219700",30.219700,120.113500,4.2
龙井院子餐厅,杭州,30.214875,120.107925,100.0,餐饮服务;中餐厅;中餐厅,11:00,21:00,龙井村,"120.113500,30.219700",30.219700,120.113500,4.1
茶岚苑花园餐厅(九溪店),杭州,30.212569,120.117874,92.0,餐饮服务;中餐厅;中餐厅,10:00,20:00,龙井村,"120.113500,30.219700",30.219700,120.113500,4.6
米桂餐厅·时令农家私房菜(满觉陇店),杭州,30.218446,120.123766,105.0,餐饮服务;餐饮相关场所;餐饮相关,16:00,21:00,龙井村,"120.113500,30.219700",30.219700,120.113500,3.8
晓芦创意餐厅(曲院店),杭州,30.246209,120.132068,158.0,餐饮服务;餐饮相关场所;餐饮相关,10:00,21:00,苏堤春晓,"120.137960,30.243880",30.243880,120.137960,4.3
莲遇花园餐厅,杭州,30.247373,120.131962,103.0,餐饮服务;中餐厅;浙江菜,11:00,19:30,苏堤春晓,"120.137960,30.243880",30.243880,120.137960,4.7
乾园·兴禾记(茅家埠店),杭州,30.240230,120.126352,398.0,餐饮服务;中餐厅;广东菜(粤菜),17:00,21:30,苏堤春晓,"120.137960,30.243880",30.243880,120.137960,4.5
杭州香格里拉·咖啡苑,杭州,30.252574,120.137577,207.0,餐饮服务;咖啡厅;咖啡厅,11:00,21:00,浙江省博物馆(孤山馆区),"120.143778,30.251243",30.251243,120.143778,4.1
华北饭店-中餐厅,杭州,30.253808,120.133460,112.0,餐饮服务;中餐厅;中餐厅,17:30,20:30,浙江省博物馆(孤山馆区),"120.143778,30.251243",30.251243,120.143778,4.1
湛碧楼·西湖湖景餐厅,杭州,30.247279,120.133313,100.0,餐饮服务;中餐厅;中餐厅,11:00,22:30,浙江省博物馆(孤山馆区),"120.143778,30.251243",30.251243,120.143778,4.6
十二时辰湖景餐厅,杭州,30.251519,120.131988,100.0,餐饮服务;餐饮相关场所;餐饮相关,10:30,20:00,浙江省博物馆(孤山馆区),"120.143778,30.251243",30.251243,120.143778,4.0
莲遇花园餐厅,杭州,30.247373,120.131962,103.0,餐饮服务;中餐厅;浙江菜,11:00,19:30,浙江省博物馆(孤山馆区),"120.143778,30.251243",30.251243,120.143778,4.7
楼外楼(杭州西湖风景名胜区店),杭州,30.250209,120.140723,157.0,餐饮服务;中餐厅;综合酒楼,16:30,20:30,西泠印社,"120.139948,30.250279",30.250279,120.139948,4.5
杭州香格里拉·咖啡苑,杭州,30.252574,120.137577,207.0,餐饮服务;咖啡厅;咖啡厅,11:00,21:00,西泠印社,"120.139948,30.250279",30.250279,120.139948,4.1
湛碧楼·西湖湖景餐厅,杭州,30.247279,120.133313,100.0,餐饮服务;中餐厅;中餐厅,11:00,22:30,西泠印社,"120.139948,30.250279",30.250279,120.139948,4.6
华北饭店-中餐厅,杭州,30.253808,120.133460,112.0,餐饮服务;中餐厅;中餐厅,17:30,20:30,西泠印社,"120.139948,30.250279",30.250279,120.139948,4.1
杭州新新饭店·1913餐厅,杭州,30.255994,120.144148,371.0,餐饮服务;餐饮相关场所;餐饮相关,09:30,21:30,西泠印社,"120.139948,30.250279",30.250279,120.139948,4.3
浙江西湖山庄·自助餐厅,杭州,30.256935,120.142147,100.0,餐饮服务;中餐厅;中餐厅,11:00,21:00,西泠印社,"120.139948,30.250279",30.250279,120.139948,4.1
十二时辰湖景餐厅,杭州,30.251519,120.131988,100.0,餐饮服务;餐饮相关场所;餐饮相关,10:30,20:00,西泠印社,"120.139948,30.250279",30.250279,120.139948,4.0
莲遇花园餐厅,杭州,30.247373,120.131962,103.0,餐饮服务;中餐厅;浙江菜,11:00,19:30,西泠印社,"120.139948,30.250279",30.250279,120.139948,4.7
青岚(杨公堤店),杭州,30.248263,120.131589,368.0,餐饮服务;餐饮相关场所;餐饮相关,17:30,21:30,西泠印社,"120.139948,30.250279",30.250279,120.139948,4.4
乐墅餐厅,杭州,30.257025,120.144486,100.0,餐饮服务;中餐厅;中餐厅,10:30,21:30,西泠印社,"120.139948,30.250279",30.250279,120.139948,4.0
魏庐·西湖1138文化茶餐厅,杭州,30.230253,120.138864,100.0,餐饮服务;中餐厅;中餐厅,11:00,21:00,花港观鱼,"120.139095,30.230233",30.230233,120.139095,3.8
知味观·味庄(杨公堤店),杭州,30.230581,120.137300,141.0,餐饮服务;中餐厅;中餐厅,16:30,20:00,花港观鱼,"120.139095,30.230233",30.230233,120.139095,4.3
解香楼,杭州,30.229459,120.133953,751.0,餐饮服务;中餐厅;浙江菜,17:00,20:30,花港观鱼,"120.139095,30.230233",30.230233,120.139095,4.5
郁金香茶餐饮(太子湾公园北门迎宾亭店),杭州,30.227600,120.143830,100.0,餐饮服务;快餐厅;快餐厅,11:00,21:00,花港观鱼,"120.139095,30.230233",30.230233,120.139095,3.4
云舍茶餐,杭州,30.227673,120.133043,60.0,餐饮服务;中餐厅;浙江菜,08:00,22:30,花港观鱼,"120.139095,30.230233",30.230233,120.139095,4.1
绿荫餐厅,杭州,30.227666,120.132958,100.0,餐饮服务;茶艺馆;茶艺馆|餐饮服务;中餐厅;中餐厅,08:00,21:00,花港观鱼,"120.139095,30.230233",30.230233,120.139095,4.3
海纳休闲餐厅,杭州,30.224264,120.137429,57.0,餐饮服务;餐饮相关场所;餐饮相关,09:00,21:00,花港观鱼,"120.139095,30.230233",30.230233,120.139095,4.5
清真.伊香源餐厅烤羊排抓饭,杭州,30.224122,120.137461,100.0,餐饮服务;中餐厅;清真菜馆,09:00,24:00,花港观鱼,"120.139095,30.230233",30.230233,120.139095,3.9
浙里本味,杭州,30.224114,120.137490,146.0,餐饮服务;中餐厅;中餐厅,16:30,21:00,花港观鱼,"120.139095,30.230233",30.230233,120.139095,4.5
清真حَلال燕兰人家.西北菜.团建聚餐(太子湾店),杭州,30.224105,120.137483,84.0,餐饮服务;中餐厅;清真菜馆|餐饮服务;中餐厅;综合酒楼,09:00,24:00,花港观鱼,"120.139095,30.230233",30.230233,120.139095,4.4
