city,attraction_name,attraction_id,description,attraction_type,address,latitude,longitude,rating,opening_time,closing_time,closing_dates,min_visit_hours,max_visit_hours,ticket_price
Suzhou,Yi Garden,B0FFG01X8U,"The last garden constructed among the Suzhou classical gardens, incorporating the essence of various garden styles.",Historical and Cultural,,31.307521,120.621266,4.8,07:30,17:30,,0.5,2.0,15
Suzhou,Pingjiang Road Historical and Cultural District,B0FFG6OTD5,"The best-preserved ancient street district in Suzhou, featuring Ming and Qing dynasty buildings along the river, with enchanting night views.",Historical and Cultural,,31.313969,120.634556,4.9,Open 24 Hours,Open 24 Hours,,1.0,2.5,0
Suzhou,Pearl Tower Scenic Garden,B02001GTC8,"A classical garden within Tongli Ancient Town, renowned for its association with the Kunqu opera 'The Peony Pavilion.'",Historical and Cultural,,31.160042,120.718122,4.6,08:00,17:15,,0.5,2.0,0
Suzhou,Shiquan Street,B02000JAH6,"A cultural and artistic district in Suzhou, lined with cafes, bookstores, and galleries, exuding a strong cultural atmosphere.",Leisure Experience,,31.298923,120.632998,4.9,Open 24 Hours,Open 24 Hours,,1.5,3.0,0
Suzhou,Retreat and Reflection Garden,B02001D6W2,"The core garden of Tongli Ancient Town, a UNESCO World Heritage Site and a representative work of late Jiangnan garden design.",Historical and Cultural,,31.157833,120.720272,4.7,08:00,17:15,,1.0,2.5,50
Suzhou,Suzhou Museum,B020001285,"A perfect blend of modern architecture designed by I. M. Pei and classical gardens, showcasing the essence of Jiangnan culture.",Historical and Cultural,,31.322948,120.627856,4.7,09:00,17:00,Monday,1.0,2.5,0
Suzhou,Three Bridges Scenic Area,B0FFLMDS4P,"A symbolic landmark of Tongli Ancient Town, featuring three interconnected stone bridges symbolizing good fortune and prosperity.",Historical and Cultural,,31.158008,120.717448,4.4,Open 24 Hours,Open 24 Hours,,0.0,1.5,0
Suzhou,Shantang Street Scenic Area,B0200178TG,"A thousand-year-old ancient street with picturesque night views, abundant traditional snacks, and a chance to experience Suzhou's classical nightlife.",Historical and Cultural,,31.317059,120.602105,4.7,Open 24 Hours,Open 24 Hours,,1.0,2.5,12
Suzhou,Humble Administrator's Garden,B020001R2Q,"One of China's Four Great Gardens, an outstanding example of Ming dynasty garden art, with clear waters and intricately arranged pavilions and towers.",Historical and Cultural,,31.324194,120.629211,4.7,07:30,17:30,,2.0,3.5,90
