poi_name,latitude,longitude,address,poi_type
Pingjiang Road Historical and Cultural District,31.313969,120.634556,,attraction
Humble Administrator's Garden,31.324194,120.629211,,attraction
Suzhou Museum,31.322948,120.627856,,attraction
Shantang Street Scenic Area,31.317059,120.602105,,attraction
Shiquan Street,31.298923,120.632998,,attraction
Yi Garden,31.307521,120.621266,,attraction
Retreat & Reflection Garden,31.157833,120.720272,,attraction
Three Bridges Scenic Area,31.158008,120.717448,,attraction
Pearl Tower Scenic Garden,31.160042,120.718122,,attraction
Songhelou (Guanqian Branch),31.310677,120.625678,,attraction
De Yue Lou (Guanqian Branch),31.310410,120.625388,,attraction
Pingjiang Peach Blossom Land (Pingjiang Road Branch),31.314561,120.633675,,restaurant
Moke Garden Restaurant,31.315297,120.634429,,restaurant
Come Again Restaurant (Xiaojiagang Alley),31.312201,120.633994,,restaurant
Ziliudi Villa Cafe Restaurant (Pingjiang Road Branch),31.313597,120.636821,,restaurant
Huiyue Fennel & Laurel (Renheng Cangjie Branch),31.312871,120.638349,,restaurant
Grande A'moo (Renheng Cangjie Branch),31.312907,120.638670,,restaurant
Fuyu Shili,31.312708,120.639472,,restaurant
Tongren Four Seasons Coconut Chicken (Suzhou Renheng Cang Street Branch),31.312277,120.639493,,restaurant
Shanye Banza Yungui Sichuan Bistro (Cang Street Branch),31.312262,120.639742,,restaurant
Sui Liu Ju (Jianxin Alley Branch),31.309541,120.631804,,restaurant
Garden Inside Restaurant (Garden Outside Courtyard Branch),31.323827,120.631367,,restaurant
11:11 Restaurant,31.325814,120.627879,,restaurant
Suzhou Tai Tai Su Cuisine · Su Noodle Banquet (Zhuozheng Garden Branch),31.321648,120.629695,,restaurant
Shengchunyang Restaurant (Huayangli Branch),31.322492,120.632072,,restaurant
Su Yaxing · Wenren Su-Style Noodle House (Museum Branch),31.322121,120.626030,,restaurant
Li Bai Crab (Pingjiang Road Branch),31.321145,120.631896,,restaurant
Dukou · Tea Restaurant (Pingjiang Road Branch),31.320864,120.631685,,restaurant
Orange Sauce Restaurant (Shilinli Branch),31.321947,120.625253,,restaurant
Pingjiang Peach Blossom Land (Pingjiang No. 2 Branch),31.320621,120.631810,,restaurant
Finland House Western Restaurant,31.320675,120.631957,,restaurant
Yuexi Pig Trotters · Roasted Meats · Restaurant (Golden Plaza Building Branch),31.311453,120.600703,,restaurant
First Encounter Shantang Music Restaurant & Bar,31.317726,120.601528,,restaurant
Scholarly Family Shantang Mansion · Taoranxuan Chinese Restaurant,31.316772,120.603189,,restaurant
Zhao Yuanzhang Pork Bone Shao (Shantang Street Branch),31.316450,120.603223,,restaurant
Floral Inn Fennel Restaurant (Shantang Renjia Branch),31.315962,120.603731,,restaurant
Wuzhai Manor · Su Cuisine (Shantang Street Branch),31.316888,120.604254,,restaurant
Ma Dongpei Shaomai,31.318929,120.602753,,restaurant
Xinzhenyuan · Su-style Shrimp Pan-fried Dumplings (Shantang Street Branch),31.315078,120.603486,,restaurant
Sun Shengxing Aozao Noodles (Shantang Street Flagship Store),31.315056,120.603787,,restaurant
Pushi Maoyuan Restaurant,31.316030,120.604871,,restaurant
Maoyuan Restaurant · Shantang River View · Republic Era Private Banquet,31.316066,120.604961,,restaurant
Sumanxiang · Vegetarian Buffet Restaurant (Suzhou · Guanqian Street Branch),31.310412,120.625730,,restaurant
De Yue Lou (Guanqian Branch),31.310410,120.625388,,restaurant
Pearl Hotel,31.309900,120.625823,,restaurant
Xianqi Half-Step Tipsy Tavern (Guanqian Street Branch),31.309922,120.625108,,restaurant
Podian Tavern (Guanqian Branch),31.309360,120.626841,,restaurant
Huixianglou Halal Restaurant,31.309343,120.624264,,restaurant
Dongwu Sujinji (Gongxiang Branch),31.308622,120.626670,,restaurant
Those Years Eating Skewers Together (Guanqian Branch),31.308799,120.623973,,restaurant
Li Baixie · Crab Roe (Guanqian Street Branch),31.310294,120.628397,,restaurant
Tianshan Impression Restaurant,31.312575,120.627284,,restaurant
Du Du Du Sweet Porridge (Shiquan Street Branch),31.298997,120.632930,,restaurant
Runji · Cantonese Restaurant (Phoenix Street Branch),31.299340,120.632702,,restaurant
Xiehe Restaurant (Phoenix Street Branch),31.299520,120.632372,,restaurant
Nanyuan Hotel · Yijiangnan Café (Daichengqiao Road Branch),31.296740,120.631931,,restaurant
Wusi Restaurant (Daicheng Bridge Xiatang Branch),31.299167,120.635984,,restaurant
Shishanfang Restaurant,31.302304,120.636011,,restaurant
Xiangxin Dining Store,31.298442,120.627964,,restaurant
PenHouse,31.298418,120.627903,,restaurant
Monkey King Thai-style Bar & Restaurant,31.298628,120.627780,,restaurant
Surenji Vegetarian Restaurant,31.298404,120.627704,,restaurant
Tongli Lake Resort Tongli No.1 Boat Restaurant,31.156125,120.726825,,restaurant
Moli Fusion Restaurant,31.152002,120.726468,,restaurant
Yi Jiangnan Restaurant,31.156787,120.719058,,restaurant
Tongli Cheng'en Hall Courtyard Private Cuisine,31.158649,120.720713,,restaurant
Tongli Lake Resort (Tongli No.1 Boat Restaurant),31.155828,120.730190,,restaurant
Xinxin Noodle Restaurant,31.151863,120.718253,,restaurant
Tongli Zhuangyuanju,31.158314,120.716303,,restaurant
Tongli Lake Hotel Kafka Restaurant,31.163313,120.728278,,restaurant
Tongli Lake Resort Italian Western Restaurant,31.163403,120.728350,,restaurant
Tongli Lake Resort Yijingxuan Chinese Restaurant,31.163440,120.728300,,restaurant
Meili Mountain Seeking Flower Stream · Yunnan Cuisine (Shilu Branch),31.311974,120.605834,,restaurant
Little Joy Su Cuisine,31.311662,120.605837,,restaurant
Saizeriya Italian Restaurant (Suzhou Guanqian Street Branch),31.310619,120.622635,,restaurant
Orange Bird Light Meal Restaurant,31.304606,120.624018,,restaurant
Wyndham Garden Hotel - Dingfeng Pavilion Chinese Restaurant,31.307645,120.625715,,restaurant
Old Changmen Cuisine Restaurant (Yangyu Lane Branch),31.306681,120.616020,,restaurant
Yuanyou Restaurant,31.332687,120.611931,,restaurant
Yonghe Hair Transplant Staff Restaurant (Suzhou World Trade Center Branch),31.333420,120.609595,,restaurant
Golden Mountain Morning Tea · Huaqianzuo Restaurant,31.323137,120.612979,,restaurant
Suzhou High-speed Rail North Station Atour Hotel · Breakfast Restaurant (Wanhui Plaza Branch),31.422074,120.640438,,restaurant
Base Camp Shrimp Non-stop Music Grill Bar,31.422183,120.635784,,restaurant
Loulan Xinjiang Theme Restaurant (Xiangcheng Wuyue Plaza Branch),31.414101,120.631840,,restaurant
Xiangxuehai Hotel Chinese Restaurant · Banquet Hall,31.272630,120.627510,,restaurant
Suyuan Hotel Chinese Restaurant (Changqiao Area Branch),31.273756,120.630269,,restaurant
GreenTree Restaurant (Tianyue Tower Branch),31.271822,120.629163,,restaurant
Courtyard by Marriott Hotel · Wanhuixuan Buffet Restaurant,31.274825,120.527725,,restaurant
Water Paradise Western Restaurant (Ufun Branch),31.275629,120.528432,,restaurant
Star Londo Seafood Buffet Restaurant (Ufun Branch),31.274571,120.528623,,restaurant
New Matou Restaurant,31.232386,120.475671,,restaurant
Janya Restaurant (Shixu Road Branch),31.238974,120.479258,,restaurant
Heting Cultural Restaurant,31.226769,120.478304,,restaurant
Sudia Meizhi Hotel · Tea Restaurant,31.371457,120.605237,,restaurant
Uncle Frog Music Grill Bar (Huicui Commercial Plaza Branch),31.370861,120.607207,,restaurant
Lollipop Music Bistro,31.369408,120.605373,,restaurant
Zhonglian Yuehai International Hotel Chinese Restaurant,31.867002,120.515547,,restaurant
McDonald's Shopping Park Financial Street Restaurant (Huasheng Building Branch),31.867269,120.515086,,restaurant
Yundu Hotel (Zhangjiagang Shopping Park Branch),31.869403,120.516097,,restaurant
Thai Time · Thai Tea Restaurant (Suzhou Global Harbor Branch),31.374945,120.635231,,restaurant
Qian Yuman · Nostalgia Restaurant,31.311636,120.603275,,restaurant
Qingleju [Northwest Ethnic Restaurant],31.311175,120.602679,,restaurant
Suzhou Wuzhong DoubleTree by Hilton Hotel - All-Day Dining Restaurant,31.185425,120.585075,,restaurant
Aimil · Self-Serve Restaurant (Suzhou Bay Central Plaza Branch),31.185079,120.585318,,restaurant
Zapfler German Craft Beer Restaurant (Suzhou Bay Central Plaza Branch),31.183904,120.586571,,restaurant
Niubao Steak Restaurant (Sunshine Pedestrian Street Branch),31.447109,121.105247,,restaurant
KFC Drive-Thru Restaurant (Qianjin 986 Drive-Thru),31.384278,121.003647,,restaurant
Queen Restaurant (Hongji Fortune Plaza Branch),31.384484,121.008743,,restaurant
Kuaike Restaurant (Hongji Fortune Plaza Branch),31.384770,121.009162,,restaurant
Tianyou Restaurant,31.408360,120.447554,,restaurant
Fanhuali Music Bar Bistro,31.375053,120.635620,,restaurant
Home Away Express Restaurant (Xiangcheng Avenue Branch),31.375461,120.637909,,restaurant
Suzhou Yanshan Lake Hilton Hotel · Qingya Chinese Restaurant,31.245443,120.698313,,restaurant
Chongqing No.1 Bridge Hot Pot (Xueshi Street Branch),31.306095,120.611657,,restaurant
Jiuchenli BBQ,31.308067,120.611178,,restaurant
Old Xinpeng Restaurant (Jinhua Garden Branch),31.379381,121.000024,,restaurant
Ludu Restaurant,31.470875,121.183775,,restaurant
Baoshi Chinese Restaurant · Authentic Suzhou Cuisine (Ludu Branch),31.474993,121.183979,,restaurant
Yunshangxuan Restaurant (Ludu Branch),31.464629,121.184501,,restaurant
Defacai · Teochew Congee Tea Restaurant (Zhangjiagang Tangqiao Branch),31.818006,120.642798,,restaurant
BB Restaurant (Tangqiao Branch),31.815179,120.642916,,restaurant
Zhenpin Banquet Restaurant,31.816523,120.644667,,restaurant
Suzhou Shuiyuntian Hotel,31.230760,120.473290,"No. 899, Sunwu Road, Xukou Town.",hotel
Sudia Meizhi Hotel (Xiangcheng Vitality Island Metro Station),31.371696,120.604819,"Building 4, T3 Floor, Huitui Commercial Plaza, Rongtai Street, Xiangcheng District, Suzhou.",hotel
Suzhou Jingpu Hotel (Wujiang Fenhu Economic Development Zone),31.036820,120.846352,"No. 1077, Luxin Avenue, Fenhu High-Tech Zone.",hotel
Zhangjiagang Huafang New City Hotel,31.817596,120.641717,"No. 18, Nanjing Road, Tangqiao Town.",hotel
Zhangjiagang Meilun Boutique Hotel,31.869627,120.513160,"Chengxi Shopping Park, Yangshe Town (at the intersection of Shazhou West Road and Baiqiao Road) (Yangshe Town, near Shazhou West Road).",hotel
Taicang Maritim Garden Hotel,31.454323,121.100810,"No. 11, Renmin North Road (near Zhenghe Road).",hotel
Suzhou Zhonghui Pullman Hotel,31.373102,120.638261,"No. 188, Jiayuan Road, Xiangcheng District, Suzhou, Jiangsu Province.",hotel
Suzhou Wuzhong Hilton Hotel,31.185416,120.585003,"Building 4, No. 99, Youxiang Road, Wuzhong District, Suzhou, Jiangsu Province.",hotel
Suzhou Suyuan Hotel,31.273664,120.627785,"No. 130, Dongwu North Road.",hotel
Ji Hotel Suzhou Guanqian Street Ganjiang West Road,31.305700,120.615000,"No. 236, Ganjiang West Road, Gusu District, Suzhou, Jiangsu Province.",hotel
Ji Hotel Kunshan Economic Development Zone Qianjin East Road,31.384354,121.005351,"Building 8, Dijingtiancheng Plaza, No. 898, Qianjin East Road, Kunshan.",hotel
Atour Hotel Suzhou Taihu Scenic Area Wangting Commercial Plaza,31.416519,120.453376,"No. 1, Hexi Road, Wangting Town.",hotel
Suzhou Hopson Courtyard Hotel,31.275670,120.527328,"No. 264, Jinfeng Road, Wuzhong District.",hotel
Suzhou Yanshan Lake Hilton Hotel,31.245259,120.698247,"No. 1688, Huanhu Road, Guoxiang Subdistrict, Wuzhong District, Suzhou, Jiangsu Province, China.",hotel
Suzhou Kunshan Hilton Garden Inn,31.403129,120.928842,"No. 1398, Lucheng Road, Kunshan, Suzhou, Jiangsu Province.",hotel
Jinjiang Inn (Suzhou Shilu Shantang Street Hotel),31.311639,120.603258,"No. 733, Changxu Road, Gusu District, Suzhou.",hotel
Jinjiang Inn (Taicang Luduo Neighborhood Center),31.469861,121.183540,"Shops S01A and S06, Ludu Neighborhood Center, No. 17, Jinwan Road, Ludu Subdistrict.",hotel
Hanting Hotel (Suzhou Industrial Park Olympic Sports Center),31.304300,120.766000,"Building 41, No. 103, Phase 2, Phoenix New World Commercial, No. 9, Nanxieyu Street, Industrial Park.",hotel
Orange Hotel Suzhou Industrial Park Olympic Sports Center,31.315077,120.755359,"No. 468, Fangzhou Road, Industrial Park.",hotel
Orange Hotel Kunshan Economic Development Zone Qianjin East Road,31.384270,121.003365,"No. 986, Qianjin East Road, Development Zone.",hotel
Suzhou Station,31.329683,120.610870,No. 27 Suzhan Road (70 meters walking from Exit 1B of Suzhou Railway Station Metro Station),train_station
Shengze Station,30.906709,120.568565,"Bei Wang Village, Shengze Town",train_station
Fuzhou Station,26.113972,119.320571,No. 502 Hualin Road,train_station
Suzhou South Station,31.327685,120.611336,No. 27 Chezhan Road,train_station
Hangzhou West Station,30.260867,120.091014,No. 357 Tianmushan Road,train_station
Fuzhou South Station,25.986348,119.391728,No. 2 Yongnan Road,train_station
Suzhou North Station,31.421546,120.644306,Chengtong Road,train_station
Shanghai Hongqiao Station,31.193964,121.320081,"No. 1500 Shengui Road, Xinhong Subdistrict",train_station
Hangzhou East Station,30.290846,120.212605,No. 1 Tiancheng Road,train_station
Suzhou Industrial Park Station,31.341215,120.711549,Intersection of Ruixin Road and Linglong Street,train_station
Suzhou New District Station,31.372297,120.525082,Chengji Road,train_station
Yiwu Station,29.377670,120.044151,"No. 333 North Station Avenue, Houzhai Subdistrict",train_station
Hengdian Station,26.091484,119.305364,"No. 128 Wusi Road, Hengli City Mall, 6th Floor",train_station
Guziqing Fashion Smart Choice Restaurant,31.382917,121.012544,,restaurant
Suzhou Shengze Station,30.906709,120.568565,"Bei Wang Village, Shengze Town",train_station
Run Ji (Aeon Mall Suzhou New District Branch),31.370309,120.529905,,restaurant
Wentong Ice Room (Aeon Mall Suzhou New District Branch),31.369828,120.530014,,restaurant
Loulan Xinjiang Theme Restaurant (New District Aeon Branch),31.369791,120.530134,,restaurant
Water Paradise Western Restaurant (New District Aeon Branch),31.369641,120.530578,,restaurant
Saizeriya Italian Restaurant (Suzhou Intercity Road Branch),31.369640,120.532083,,restaurant
Jiayan Restaurant (Wenxinyuan Branch),26.110632,119.319754,,restaurant
No. 8 Restaurant (Xiyuan Branch),26.113752,119.328643,,restaurant
No. 6 Restaurant (Guishan Branch),26.113630,119.328650,,restaurant
Farmhouse Restaurant (Xiyuan Road Branch),26.122599,119.325070,,restaurant
Half City Smoke & Fire BBQ Music Bar (Houshanli Branch),26.123765,119.326985,,restaurant
Jiujing Music Restaurant,31.329830,120.709938,,restaurant
Xin Shengchang · Chinese Restaurant (Starry Life Plaza Branch),31.329489,120.709096,,restaurant
Star Kaya Restaurant,31.324787,120.716127,,restaurant
Shin Kong Place Drive-Thru Restaurant (Suzhou Branch),31.324187,120.712008,,restaurant
Xiyuan Chinese Restaurant,31.324391,120.715550,,restaurant
Shichaowei Chaoshan Small Restaurant (Taohuawu Lane Branch),31.320958,120.614629,,restaurant
Fanmilian Chinese Fast Food,31.320889,120.602994,,restaurant
Xinjiudian Restaurant,25.986874,119.388768,,restaurant
Jufeng Restaurant,25.984225,119.386025,,restaurant
Huoshi Buffet Restaurant (South Station · Sunshine City Shopping Center),25.986880,119.384363,,restaurant
Fuxia Road Drive-Thru Restaurant,25.981642,119.378788,,restaurant
Lin Ji Stewed Soup Chinese Restaurant,25.979412,119.379478,,restaurant
Pingping Restaurant,31.392060,121.002559,,restaurant
Taicang Maritim Garden Hotel · Zheng He Western Restaurant (Renmin North Road Branch),31.454414,121.100781,,restaurant
Shaxiangyuan Restaurant,31.449631,121.095216,,restaurant
Jiudianban Music Restaurant,31.449776,121.094986,,restaurant
Sun Family Cuisine Restaurant (Changchun South Road Branch),31.447002,121.097740,,restaurant
KFC Taihu Hospital Restaurant,31.190872,120.574762,,restaurant
Berkeley Music Bar · Global Cuisine & Drinks,31.179401,120.596086,,restaurant
Haokelai Steakhouse (Suzhou Zhaojia Lane Neighborhood Center Restaurant),31.315684,120.756025,,restaurant
Tanghui Community Restaurant (Zhaojia Lane Neighborhood Center Building 2 Branch),31.316384,120.756005,,restaurant
Congee King Hong Kong-Style Tea Restaurant (Haiyue Garden Branch),31.311248,120.750583,,restaurant
Supinfangzhou (Jianwu · Fangzhou Branch),31.313425,120.746575,,restaurant
Saizeriya Italian Restaurant (Suzhou Zhongnan Street Branch),31.322644,120.757218,,restaurant
Heaven and Earth Tea Restaurant,31.405583,120.928290,,restaurant
Xinxin Smart Restaurant,31.406006,120.927792,,restaurant
Gumanle Self-Service Restaurant,31.399807,120.927797,,restaurant
Bawen Fresh Taiwanese Restaurant,31.392038,120.929243,,restaurant
Putian Seafood Noodles,31.413783,120.933473,,restaurant
Snow Village Family Restaurant,31.032350,120.850958,,restaurant
Suzhou Zhiyin Wyndham Grand Hotel · Four Seasons Seafood Buffet Restaurant (Fenhu Branch),31.029844,120.845833,,restaurant
Suzhou Wyndham Grand Hotel · Jinxiuyangnan Chinese Restaurant,31.029590,120.846262,,restaurant
Jay Shao Hong Kong-Style Tea Restaurant (Suzhou Musen International Life Plaza Branch),31.027681,120.844478,,restaurant
Yizhan Tea Restaurant,31.047681,120.849954,,restaurant
Park District Lujin Restaurant (Xinglanhui · Lujin Plaza Branch),31.306525,120.765975,,restaurant
Super Paradise Restaurant,31.303940,120.751430,,restaurant
Mammamia Italian Restaurant (Olympic Sports Center Branch),31.303755,120.751343,,restaurant
McDonald's Artificial Intelligence Industrial Park Restaurant,31.293215,120.774965,,restaurant
Yi He Restaurant (Shopping Park Branch),31.870323,120.513879,,restaurant
Bullfighter Steakhouse (Suzhou Zhangjiagang Shopping Park Clara Waterfront Commercial Street Branch),31.869985,120.516607,,restaurant
Suzhou Zhonghui Pullman Hotel · Lingering Garden Chinese Restaurant (Suzhou Zhonghui Pullman Hotel Branch),31.372852,120.638483,,restaurant
Krabi · Thai Cuisine Restaurant (Xiangcheng Branch),31.370275,120.636550,,restaurant
