restaurant_name,city,latitude,longitude,price_per_person,cuisine,opening_time,closing_time,nearby_attraction_name,nearby_attraction_coords,query_latitude,query_longitude,rating,tags
Louwailou (Hangzhou West Lake Scenic Area Branch),Hangzhou,30.250209,120.140723,157.0,Chinese Restaurant;General Restaurant,16:30,20:30,Solitary Hill Park,"120.142481,30.251654",30.251654,120.142481,4.5,Birthday Package
Hangzhou Shangri-La · Coffee Garden,Hangzhou,30.252574,120.137577,207.0,Cafe;Cafe,11:00,21:00,Solitary Hill Park,"120.142481,30.251654",30.251654,120.142481,4.1,Online Queue
Hangzhou Xinxin Hotel · 1913 Restaurant,Hangzhou,30.255994,120.144148,371.0,Food Service Related;Food Service Related,09:30,21:30,Solitary Hill Park,"120.142481,30.251654",30.251654,120.142481,4.3,Private Room;Birthday Package
Huabei Hotel - Chinese Restaurant,Hangzhou,30.253808,120.133460,112.0,Chinese Restaurant;Chinese Restaurant,17:30,20:30,Solitary Hill Park,"120.142481,30.251654",30.251654,120.142481,4.1,Must-Eat Top 10;Waiting Area
Twelve Hours Lakeview Restaurant,Hangzhou,30.251519,120.131988,100.0,Food Service Related;Food Service Related,10:30,20:00,Solitary Hill Park,"120.142481,30.251654",30.251654,120.142481,4.0,Waiting Area
Qinglan (Yang Gong Di Branch),Hangzhou,30.248263,120.131589,368.0,Food Service Related;Food Service Related,17:30,21:30,Solitary Hill Park,"120.142481,30.251654",30.251654,120.142481,4.4,Waiting Area;Birthday Package
Haihui Pavilion New Jiangnan Vegetarian Noodle Restaurant,Hangzhou,30.239004,120.105828,37.0,Food Service Related;Food Service Related,07:00,20:00,Lingyin Temple,"120.101406,30.240826",30.240826,120.101406,4.8,Must-Eat Top 10
Fayun Aman Western Restaurant,Hangzhou,30.237412,120.097724,100.0,Foreign Restaurant;Western Restaurant,11:00,21:00,Lingyin Temple,"120.101406,30.240826",30.240826,120.101406,4.3,Birthday Package
Dayin Qingxin Vegetarian Buffet Restaurant (Hidden Market Branch),Hangzhou,30.240622,120.106983,30.0,Chinese Restaurant;中式素菜馆,17:00,19:00,Lingyin Temple,"120.101406,30.240826",30.240826,120.101406,4.4,Waiting Area
Ru Yi Restaurant,Hangzhou,30.238028,120.106488,105.0,Chinese Restaurant;Chinese Restaurant,10:30,20:30,Lingyin Temple,"120.101406,30.240826",30.240826,120.101406,4.7,Waiting Area
Beigao Summit Cableway Restaurant,Hangzhou,30.243268,120.106763,21.0,Chinese Restaurant;Chinese Restaurant,10:00,21:00,Lingyin Temple,"120.101406,30.240826",30.240826,120.101406,4.1,Waiting Area
Luyingji Forest-Style Restaurant (Lingyin Scenic Area Branch),Hangzhou,30.238288,120.106949,100.0,Food Service Related;Food Service Related,11:00,21:00,Lingyin Temple,"120.101406,30.240826",30.240826,120.101406,4.0,Outdoor Seating;Private Room
Sansheng Xiaowu · Mountain Wild Food Collection (Hangzhou West Lake Lingyin Branch),Hangzhou,30.235894,120.105016,78.0,Chinese Restaurant;Chinese Restaurant,10:30,21:00,Lingyin Temple,"120.101406,30.240826",30.240826,120.101406,4.7,Private Room
Qiantang Courtyard Restaurant (Lingyin Branch),Hangzhou,30.243659,120.107314,106.0,Chinese Restaurant;Chinese Restaurant,10:00,22:00,Lingyin Temple,"120.101406,30.240826",30.240826,120.101406,4.7,Private Room
Manshu · Tianzhu Li Restaurant,Hangzhou,30.235660,120.104613,150.0,Chinese Restaurant;Chinese Restaurant,16:30,20:30,Lingyin Temple,"120.101406,30.240826",30.240826,120.101406,4.4,Must-Eat Top 10;Private Room
Qiaoshi Courtyard Restaurant,Hangzhou,30.235839,120.105186,132.0,Chinese Restaurant;Zhejiang Cuisine,09:00,22:00,Lingyin Temple,"120.101406,30.240826",30.240826,120.101406,4.3,Waiting Area;Birthday Package
Ten Years Courtyard Restaurant (Lingyin Branch),Hangzhou,30.238952,120.108082,81.0,Chinese Restaurant;Chinese Restaurant,16:30,21:00,Yongfu Temple,"120.097524,30.238978",30.238978,120.097524,4.4,Waiting Area;Online Queue
Zhiweiguan · Weizhuang (Yang Gong Di Branch),Hangzhou,30.230581,120.137300,141.0,Chinese Restaurant;Chinese Restaurant,16:30,20:00,Yang Gong Causeway,"120.136580,30.232456",30.232456,120.136580,4.3,Must-Eat Top 10;Outdoor Seating
Weilu · West Lake 1138 Cultural Tea Restaurant,Hangzhou,30.230253,120.138864,100.0,Chinese Restaurant;Chinese Restaurant,11:00,21:00,Yang Gong Causeway,"120.136580,30.232456",30.232456,120.136580,3.8,Must-Eat Top 10
Jie Xiang Lou,Hangzhou,30.229459,120.133953,751.0,Chinese Restaurant;Zhejiang Cuisine,17:00,20:30,Yang Gong Causeway,"120.136580,30.232456",30.232456,120.136580,4.5,Waiting Area
West Lake State Guesthouse Zihui Hall,Hangzhou,30.234669,120.133019,503.0,Chinese Restaurant;Chinese Restaurant,17:00,22:00,Yang Gong Causeway,"120.136580,30.232456",30.232456,120.136580,4.5,Online Queue
Purple Bamboo · Water Music West Lake · Courtyard Restaurant,Hangzhou,30.230567,120.131086,153.0,Chinese Restaurant;Zhejiang Cuisine,16:00,21:00,Yang Gong Causeway,"120.136580,30.232456",30.232456,120.136580,4.7,Must-Eat Top 10;Outdoor Seating
Yunshe Tea Restaurant,Hangzhou,30.227673,120.133043,60.0,Chinese Restaurant;Zhejiang Cuisine,08:00,22:30,Yang Gong Causeway,"120.136580,30.232456",30.232456,120.136580,4.1,Outdoor Seating;Birthday Package
Green Shade Restaurant,Hangzhou,30.227666,120.132958,100.0,Tea House;Tea House|Chinese Restaurant;Chinese Restaurant,08:00,21:00,Yang Gong Causeway,"120.136580,30.232456",30.232456,120.136580,4.3,Outdoor Seating;Private Room
Santai Villa Chinese Restaurant (Santai Road Branch),Hangzhou,30.229423,120.129591,100.0,Food Service Related;Food Service Related,17:00,20:30,Yang Gong Causeway,"120.136580,30.232456",30.232456,120.136580,4.3,Must-Eat Top 10;Online Queue
Zhejiang Hotel Garden Restaurant,Hangzhou,30.232224,120.127510,121.0,Chinese Restaurant;Chinese Restaurant,17:00,21:00,Yang Gong Causeway,"120.136580,30.232456",30.232456,120.136580,4.2,Waiting Area;Online Queue
Tulip Tea Dining (Prince Bay Park North Gate Welcome Pavilion Branch),Hangzhou,30.227600,120.143830,100.0,Fast Food Restaurant;Fast Food Restaurant,11:00,21:00,Yang Gong Causeway,"120.136580,30.232456",30.232456,120.136580,3.4,Waiting Area
Tomacado Flower Kitchen (in77 · Hangzhou First Store),Hangzhou,30.253352,120.162044,178.0,Foreign Restaurant;Western Restaurant,11:00,22:00,Hangzhou Hubin Intime in77 Area A,"120.162484,30.253160",30.253160,120.162484,4.7,Private Room;Birthday Package
Manyunli Garden Restaurant (Lakeside Yintai in77D District Branch),Hangzhou,30.253583,120.163793,121.0,Foreign Restaurant;Western Restaurant,11:00,21:00,Hangzhou Hubin Intime in77 Area A,"120.162484,30.253160",30.253160,120.162484,4.6,Waiting Area;Birthday Package
Xizi Restaurant (Xizi Qingyan),Hangzhou,30.252058,120.163461,97.0,Chinese Restaurant;Chinese Restaurant,16:30,21:00,Hangzhou Hubin Intime in77 Area A,"120.162484,30.253160",30.253160,120.162484,4.6,Waiting Area
Birdsong & Flowers · West Lake · Lakeview Restaurant (Renhe Branch),Hangzhou,30.252050,120.163604,500.0,Chinese Restaurant;Chinese Restaurant,16:00,21:00,Hangzhou Hubin Intime in77 Area A,"120.162484,30.253160",30.253160,120.162484,4.6,Waiting Area;Birthday Package
Sisi Pear Brunch & Lounge (Hangzhou Hubin 88 Branch),Hangzhou,30.254685,120.162456,100.0,Food Service Related;Food Service Related,11:00,21:00,Hangzhou Hubin Intime in77 Area A,"120.162484,30.253160",30.253160,120.162484,4.6,Private Room
Hangzhou Grand Hyatt Hotel · Lakeside 28 Chinese Restaurant,Hangzhou,30.254843,120.161906,302.0,Chinese Restaurant;Chinese Restaurant,17:30,21:30,Hangzhou Hubin Intime in77 Area A,"120.162484,30.253160",30.253160,120.162484,4.6,Online Queue
The 101st Garden Restaurant (Hangzhou Lakeside 88 Branch),Hangzhou,30.254945,120.162473,253.0,Foreign Restaurant;Western Restaurant,16:30,21:00,Hangzhou Hubin Intime in77 Area A,"120.162484,30.253160",30.253160,120.162484,4.5,Birthday Package;Online Queue
1921 Restaurant (West Lake Frontline Lake View Branch),Hangzhou,30.251796,120.163967,212.0,Chinese Restaurant;Chinese Restaurant,11:00,21:00,Hangzhou Hubin Intime in77 Area A,"120.162484,30.253160",30.253160,120.162484,4.5,Must-Eat Top 10
Pang Ge Lia Crab Pot (Lakeside Intime in77C2 Area Branch),Hangzhou,30.252520,120.164548,89.0,Chinese Restaurant;Chinese Restaurant,10:30,21:30,Hangzhou Hubin Intime in77 Area A,"120.162484,30.253160",30.253160,120.162484,4.7,Outdoor Seating;Birthday Package
Hangzhou Restaurant (Yan'an Road Branch),Hangzhou,30.251744,120.164014,79.0,Chinese Restaurant;General Restaurant,11:00,20:30,Hangzhou Hubin Intime in77 Area A,"120.162484,30.253160",30.253160,120.162484,4.6,Online Queue
Xinyaoji Ping Liang Zheng Tea Restaurant,Hangzhou,30.276975,120.163125,100.0,Fast Food Restaurant;Fast Food Restaurant,11:00,21:00,Zhejiang Museum of Natural History,"120.164581,30.276814",30.276814,120.164581,2.3,Private Room;Birthday Package
Zhang Zhengfa Tea Restaurant (West Lake Cultural Plaza Branch),Hangzhou,30.276600,120.163054,24.0,Fast Food Restaurant;Fast Food Restaurant,10:00,22:00,Zhejiang Museum of Natural History,"120.164581,30.276814",30.276814,120.164581,4.2,Private Room;Waiting Area
Huijuan Noodle House · Restaurant (Zhongbei Bridge Branch),Hangzhou,30.276871,120.166147,36.0,Chinese Restaurant;Chinese Restaurant,16:00,21:00,Zhejiang Museum of Natural History,"120.164581,30.276814",30.276814,120.164581,4.2,Private Room
Green Tea Restaurant (Hangzhou West Lake Cultural Plaza Branch),Hangzhou,30.277606,120.163290,71.0,Chinese Restaurant;Chinese Restaurant,10:00,20:00,Zhejiang Museum of Natural History,"120.164581,30.276814",30.276814,120.164581,4.5,Waiting Area
Dalaodian Hong Kong-Style Tea Restaurant (Hangzhou Branch),Hangzhou,30.276375,120.162975,100.0,Fast Food Restaurant;Fast Food Restaurant,11:00,21:00,Zhejiang Museum of Natural History,"120.164581,30.276814",30.276814,120.164581,3.8,Private Room;Online Queue
New Bailu Restaurant (Cultural Plaza Intime Department Store Branch),Hangzhou,30.277581,120.163050,49.0,Chinese Restaurant;Zhejiang Cuisine,16:30,21:00,Zhejiang Museum of Natural History,"120.164581,30.276814",30.276814,120.164581,4.7,Outdoor Seating;Online Queue
Pizza Marzano Italian Restaurant (West Lake Cultural Plaza Branch),Hangzhou,30.277919,120.163326,69.0,Foreign Restaurant;Italian Restaurant,10:00,22:00,Zhejiang Museum of Natural History,"120.164581,30.276814",30.276814,120.164581,4.3,Must-Eat Top 10
Shangxia Ruo Restaurant,Hangzhou,30.277879,120.161926,676.0,Chinese Restaurant;Chinese Restaurant,17:00,21:00,Zhejiang Museum of Natural History,"120.164581,30.276814",30.276814,120.164581,4.6,Birthday Package
Hejiaxuan Shunde Cuisine (Zhaohui Branch),Hangzhou,30.276753,120.168117,100.0,Chinese Restaurant;Chinese Restaurant,16:30,21:30,Zhejiang Museum of Natural History,"120.164581,30.276814",30.276814,120.164581,4.5,Private Room;Online Queue
POLUX Deli,Hangzhou,30.274607,120.161048,186.0,公司企业;公司;公司,11:00,21:00,Zhejiang Museum of Natural History,"120.164581,30.276814",30.276814,120.164581,4.7,Private Room
Rokko Hotel (Hangzhou West Lake Jiuxi Branch) · Restaurant,Hangzhou,30.195991,120.113222,100.0,Chinese Restaurant;Chinese Restaurant,11:00,21:00,Nine Creeks and Misty Trees,"120.113350,30.202395",30.202395,120.113350,3.4,Must-Eat Top 10;Birthday Package
Jiulong Xiangzhang Courtyard Restaurant (Jiuxi Branch),Hangzhou,30.193979,120.115111,80.0,Fast Food Restaurant;Tea Restaurant,08:30,19:30,Nine Creeks and Misty Trees,"120.113350,30.202395",30.202395,120.113350,4.2,Must-Eat Top 10;Online Queue
Jiuxi Xiaozhu · Xunwei Restaurant (Jiuxi Store),Hangzhou,30.193690,120.115651,96.0,Food Service Related;Food Service Related,08:30,20:00,Nine Creeks and Misty Trees,"120.113350,30.202395",30.202395,120.113350,4.1,Must-Eat Top 10;Private Room
Chalan Garden Restaurant (Jiuxi Branch),Hangzhou,30.212569,120.117874,92.0,Chinese Restaurant;Chinese Restaurant,10:00,20:00,Nine Creeks and Misty Trees,"120.113350,30.202395",30.202395,120.113350,4.6,Must-Eat Top 10;Private Room
Hangzhou Millennium Resort Hotel - Shixi Restaurant,Hangzhou,30.191025,120.115325,129.0,Foreign Restaurant;Western Restaurant,10:00,22:00,Nine Creeks and Misty Trees,"120.113350,30.202395",30.202395,120.113350,4.2,Private Room
Longjing Courtyard Restaurant,Hangzhou,30.214875,120.107925,100.0,Chinese Restaurant;Chinese Restaurant,11:00,21:00,Nine Creeks and Misty Trees,"120.113350,30.202395",30.202395,120.113350,4.1,Birthday Package;Online Queue
Shanghai Railway Qianjiang Hotel - Restaurant,Hangzhou,30.190588,120.120679,100.0,Food Service Related;Food Service Related,11:00,21:00,Nine Creeks and Misty Trees,"120.113350,30.202395",30.202395,120.113350,3.7,Online Queue
Lanxuan Restaurant,Hangzhou,30.215821,120.117607,100.0,Chinese Restaurant;Chinese Restaurant,10:00,21:00,Nine Creeks and Misty Trees,"120.113350,30.202395",30.202395,120.113350,4.4,Online Queue
Meiling Renjia Restaurant,Hangzhou,30.215918,120.117925,77.0,Chinese Restaurant;Chinese Restaurant,09:00,21:00,Nine Creeks and Misty Trees,"120.113350,30.202395",30.202395,120.113350,4.2,Outdoor Seating;Birthday Package
Hangzhou West Lake Scenic Area Mountain View Garden Restaurant,Hangzhou,30.216137,120.118931,486.0,Chinese Restaurant;Cantonese Cuisine,10:30,21:00,Nine Creeks and Misty Trees,"120.113350,30.202395",30.202395,120.113350,3.8,Must-Eat Top 10;Private Room
Ouxiangju Restaurant,Hangzhou,30.230372,120.148032,63.0,Chinese Restaurant;Chinese Restaurant,17:00,19:30,Leifeng Pagoda Scenic Area,"120.148849,30.230934",30.230934,120.148849,4.3,Waiting Area
Kouzi International Hotel Restaurant,Hangzhou,30.232386,120.149789,100.0,Chinese Restaurant;Chinese Restaurant,11:00,21:00,Leifeng Pagoda Scenic Area,"120.148849,30.230934",30.230934,120.148849,3.3,Outdoor Seating;Waiting Area
Zizhen Garden Tea Banquet,Hangzhou,30.225658,120.152509,100.0,Tea House;Tea House,10:00,22:00,Leifeng Pagoda Scenic Area,"120.148849,30.230934",30.230934,120.148849,4.2,Private Room
West Lake Banquet · Lakeview Restaurant,Hangzhou,30.236157,120.154292,360.0,Chinese Restaurant;Seafood Restaurant,11:00,21:00,Leifeng Pagoda Scenic Area,"120.148849,30.230934",30.230934,120.148849,4.5,Private Room;Birthday Package
Xiaolu Mansion · Republic Private Banquet,Hangzhou,30.225240,120.143968,206.0,Chinese Restaurant;Zhejiang Cuisine,11:00,21:00,Leifeng Pagoda Scenic Area,"120.148849,30.230934",30.230934,120.148849,4.3,Birthday Package;Online Queue
Xiaolu Creative Restaurant (Taiziwan Branch),Hangzhou,30.225213,120.143880,100.0,Food Service Related;Food Service Related,11:00,21:00,Leifeng Pagoda Scenic Area,"120.148849,30.230934",30.230934,120.148849,3.6,Must-Eat Top 10
West Lake Impressions Restaurant,Hangzhou,30.234732,120.156845,120.0,Chinese Restaurant;Chinese Restaurant,17:00,21:00,Leifeng Pagoda Scenic Area,"120.148849,30.230934",30.230934,120.148849,4.6,Waiting Area
Liuying Lakeside,Hangzhou,30.238732,120.154521,217.0,Chinese Restaurant;Chinese Restaurant,17:00,21:00,Leifeng Pagoda Scenic Area,"120.148849,30.230934",30.230934,120.148849,4.6,Waiting Area
Haoke Steak (Hangzhou Tianyang D32 Restaurant),Hangzhou,30.314744,120.137545,77.0,Foreign Restaurant;牛扒店(扒房),10:00,22:00,Hangzhou Arts and Crafts Museum,"120.136930,30.315645",30.315645,120.136930,4.4,Private Room
Courtyard Restaurant (Gongchen Bridge Store),Hangzhou,30.315401,120.138443,75.0,Chinese Restaurant;Chinese Restaurant,17:00,21:00,Hangzhou Arts and Crafts Museum,"120.136930,30.315645",30.315645,120.136930,4.3,Outdoor Seating
BRIDGE · Western Restaurant,Hangzhou,30.317777,120.136895,100.0,Foreign Restaurant;Foreign Restaurant,11:00,21:00,Hangzhou Arts and Crafts Museum,"120.136930,30.315645",30.315645,120.136930,3.6,Outdoor Seating;Waiting Area
Yiheng Yisu · Auspicious Restaurant (Gongchen Bridge Branch),Hangzhou,30.317787,120.136903,32.0,Chinese Restaurant;Chinese Restaurant,10:30,20:30,Hangzhou Arts and Crafts Museum,"120.136930,30.315645",30.315645,120.136930,4.8,Private Room
Sanren Noodle Restaurant (Jinchang Wenhua Branch),Hangzhou,30.312099,120.142601,25.0,Chinese Restaurant;Chinese Restaurant,16:30,21:00,Hangzhou Arts and Crafts Museum,"120.136930,30.315645",30.315645,120.136930,4.1,Must-Eat Top 10;Birthday Package
Thousand Islands Thousand Flavors (Canal Branch),Hangzhou,30.321992,120.137046,131.0,Chinese Restaurant;Chinese Restaurant,17:00,20:30,Hangzhou Arts and Crafts Museum,"120.136930,30.315645",30.315645,120.136930,4.6,Online Queue
Baijia Dajia Restaurant (Wenzhou Road Branch),Hangzhou,30.320706,120.141437,18.0,Chinese Restaurant;Chinese Restaurant,14:00,19:00,Hangzhou Arts and Crafts Museum,"120.136930,30.315645",30.315645,120.136930,4.2,Birthday Package;Online Queue
Shida Renjia Happy Restaurant (Jiru Garden Branch),Hangzhou,30.317507,120.129761,21.0,Food Service Related;Food Service Related,11:00,21:00,Hangzhou Arts and Crafts Museum,"120.136930,30.315645",30.315645,120.136930,4.1,Waiting Area;Birthday Package
Nongtangli (Xiaohe Branch),Hangzhou,30.309394,120.133173,75.0,Chinese Restaurant;Chinese Restaurant,16:30,21:00,Hangzhou Arts and Crafts Museum,"120.136930,30.315645",30.315645,120.136930,4.4,Must-Eat Top 10;Online Queue
Pizza Italian Restaurant (Grand Canal Street Branch),Hangzhou,30.319066,120.144087,56.0,Foreign Restaurant;Italian Restaurant,10:00,22:00,Hangzhou Arts and Crafts Museum,"120.136930,30.315645",30.315645,120.136930,4.6,Must-Eat Top 10
Xiaolu Creative Restaurant (Quyuan Branch),Hangzhou,30.246209,120.132068,158.0,Food Service Related;Food Service Related,10:00,21:00,Spring Dawn at Su Causeway,"120.137960,30.243880",30.243880,120.137960,4.3,Online Queue
Lotus Encounter Garden Restaurant,Hangzhou,30.247373,120.131962,103.0,Chinese Restaurant;Zhejiang Cuisine,11:00,19:30,Spring Dawn at Su Causeway,"120.137960,30.243880",30.243880,120.137960,4.7,Birthday Package
Qianyuan · Xingheji (Maojiabu Branch),Hangzhou,30.240230,120.126352,398.0,Chinese Restaurant;Cantonese Cuisine,17:00,21:30,Spring Dawn at Su Causeway,"120.137960,30.243880",30.243880,120.137960,4.5,Online Queue
Macau Chan Kwong Kee (Xiaoshan International Airport T4 Departure Mezzanine Branch),Hangzhou,30.234878,120.431013,100.0,Chinese Restaurant;Chinese Restaurant,11:00,21:00,Tianhe International Airport,"120.432413,30.234708",30.234708,120.432413,3.4,Must-Eat Top 10
Original No. 1 Restaurant,Hangzhou,30.228891,120.426744,100.0,Chinese Restaurant;Chinese Restaurant,11:00,21:00,Tianhe International Airport,"120.432413,30.234708",30.234708,120.432413,3.9,Must-Eat Top 10;Birthday Package
Go Wild Restaurant,Hangzhou,30.238984,120.446523,100.0,Chinese Restaurant;Chinese Restaurant,11:00,21:00,Tianhe International Airport,"120.432413,30.234708",30.234708,120.432413,4.0,Birthday Package
Grand Courtyard (Xixi Road),Hangzhou,30.257620,120.092557,86.0,Chinese Restaurant;Chinese Restaurant,16:30,20:30,Hangzhou West Station,"120.091014,30.260867",30.260867,120.091014,4.5,Online Queue
Fudi Restaurant,Hangzhou,30.260346,120.095285,100.0,Chinese Restaurant;Chinese Restaurant,11:00,21:00,Hangzhou West Station,"120.091014,30.260867",30.260867,120.091014,3.9,Outdoor Seating
Fuyuan New Village Elderly Restaurant,Hangzhou,30.264739,120.094010,100.0,Chinese Restaurant;Chinese Restaurant,11:00,21:00,Hangzhou West Station,"120.091014,30.260867",30.260867,120.091014,3.5,Private Room
Tu Haha Music Bar & Restaurant (Taifu Plaza Branch),Hangzhou,30.165000,120.285112,103.0,Chinese Restaurant;Chinese Restaurant,18:30,02:30,Hangzhou South Station,"120.295589,30.172640",30.172640,120.295589,4.3,Outdoor Seating;Waiting Area
Radisson Blu Hotel Xiaoshan · Jufeng Chinese Restaurant (Xiaoshan Branch),Hangzhou,30.163626,120.284667,105.0,Chinese Restaurant;Chinese Restaurant,16:30,20:30,Hangzhou South Station,"120.295589,30.172640",30.172640,120.295589,4.4,Birthday Package
Qingzhu Music Restaurant & Bar,Hangzhou,30.164001,120.283843,98.0,Chinese Restaurant;Chinese Restaurant,16:30,02:30,Hangzhou South Station,"120.295589,30.172640",30.172640,120.295589,4.1,Online Queue
Hangzhou Xiaoshan International Airport - Restaurant No. 3,Hangzhou,30.239055,120.446681,30.0,Chinese Restaurant;Chinese Restaurant,11:00,21:00,Xiaoshan International Airport,"120.432413,30.234708",30.234708,120.432413,4.0,Outdoor Seating
Air China Staff Restaurant (Air China Base Branch),Hangzhou,30.238608,120.449026,17.0,Chinese Restaurant;Chinese Restaurant,11:00,21:00,Xiaoshan International Airport,"120.432413,30.234708",30.234708,120.432413,4.1,Outdoor Seating
Guangweixuan Hong Kong-Style Tea Restaurant (Hangzhou East Station),Hangzhou,30.290107,120.209962,100.0,Fast Food Restaurant;Fast Food Restaurant,11:00,21:00,Hangzhou East Station,"120.212605,30.290846",30.290846,120.212605,2.5,Online Queue
Airuiyun Restaurant (Dongxi Debi Yiyuan Branch),Hangzhou,30.291007,120.217230,76.0,Chinese Restaurant;Chinese Restaurant|Cafe;Cafe,10:00,23:00,Hangzhou East Station,"120.212605,30.290846",30.290846,120.212605,4.0,Private Room;Online Queue
Shen Ji Hong Kong Style Tea Restaurant (Tiancheng Yinzuo Building 3 Branch),Hangzhou,30.289940,120.207477,30.0,Fast Food Restaurant;Tea Restaurant,10:00,19:00,Hangzhou East Station,"120.212605,30.290846",30.290846,120.212605,4.2,Outdoor Seating;Waiting Area
Green Tea Restaurant (Hangzhou East Station MixC Mall Branch),Hangzhou,30.293504,120.217725,74.0,Chinese Restaurant;Chinese Restaurant,10:30,21:30,Hangzhou East Station,"120.212605,30.290846",30.290846,120.212605,4.7,Must-Eat Top 10
Minhua Ice Room (Hangzhou East Station MixC Mall Branch),Hangzhou,30.294025,120.217615,57.0,Food Service Related;Food Service Related,10:00,21:00,Hangzhou East Station,"120.212605,30.290846",30.290846,120.212605,4.4,Private Room
Qilixiang Restaurant (Ouyada Hankou Life Mall Branch),Hangzhou,30.614857,114.254582,45.0,Chinese Restaurant;Chinese Restaurant,10:00,22:00,Hankou Station,"114.254822,30.618531",30.618531,114.254822,3.8,Online Queue
Wuhan Dongfang Jianguo Hotel Restaurant,Hangzhou,30.616003,114.258459,120.0,Chinese Restaurant;Hot Pot,17:00,21:00,Hankou Station,"114.254822,30.618531",30.618531,114.254822,4.0,Private Room
Hubei Specialty Restaurant (Ouyada International Plaza),Hangzhou,30.614411,114.253549,100.0,购物相关场所;购物相关场所,11:00,21:00,Hankou Station,"114.254822,30.618531",30.618531,114.254822,3.6,Waiting Area
Railway Mansion City Plaza Grand Hotel Chinese Restaurant,Hangzhou,30.243947,120.182733,100.0,Chinese Restaurant;Chinese Restaurant,11:00,21:00,Hangzhou Station,"120.182860,30.243482",30.243482,120.182860,3.8,Must-Eat Top 10;Waiting Area
Hangzhou Red Star Cultural Grand Hotel - Jade Dragonfly Restaurant,Hangzhou,30.243913,120.179120,114.0,Chinese Restaurant;Chinese Restaurant,11:00,21:00,Hangzhou Station,"120.182860,30.243482",30.243482,120.182860,3.9,Outdoor Seating;Online Queue
Jade Dragonfly Restaurant,Hangzhou,30.243917,120.178859,78.0,Chinese Restaurant;Chinese Restaurant,17:00,20:00,Hangzhou Station,"120.182860,30.243482",30.243482,120.182860,4.5,Private Room;Online Queue
Baozhongbao Dining Hall,Hangzhou,30.247432,120.180539,100.0,Chinese Restaurant;General Restaurant,16:30,21:00,Hangzhou Station,"120.182860,30.243482",30.243482,120.182860,4.5,Waiting Area;Online Queue
Hangzhou Postal Staff Restaurant (Hangzhou Postal Hub Building),Hangzhou,30.248660,120.184147,100.0,Chinese Restaurant;Chinese Restaurant,11:00,21:00,Hangzhou Station,"120.182860,30.243482",30.243482,120.182860,3.6,Must-Eat Top 10
Xiaoman Food Restaurant (Jinmao Mansion Sales Office Branch),Hangzhou,30.602733,114.421393,38.0,Chinese Restaurant;Chinese Restaurant,11:00,21:00,Wuhan Station,"114.424338,30.606981",30.606981,114.424338,4.0,Outdoor Seating;Private Room
Fuman 1955 · Art Restaurant,Hangzhou,30.608037,114.431900,100.0,Chinese Restaurant;Chinese Restaurant,12:00,21:00,Wuhan Station,"114.424338,30.606981",30.606981,114.424338,4.3,Private Room;Online Queue
Haochiguan Restaurant,Hangzhou,30.611859,114.436241,100.0,Chinese Restaurant;Chinese Restaurant,11:00,21:00,Wuhan Station,"114.424338,30.606981",30.606981,114.424338,3.6,Private Room;Birthday Package
Shun'an Restaurant,Hangzhou,30.609560,114.410848,100.0,Chinese Restaurant;Chinese Restaurant,17:00,21:00,Wuhan Station,"114.424338,30.606981",30.606981,114.424338,3.6,Private Room
Lakeside BBQ Shrimp & Crab House (Yangchun Lakeside Branch),Hangzhou,30.618077,114.417103,42.0,Chinese Restaurant;General Restaurant,16:00,03:00,Wuhan Station,"114.424338,30.606981",30.606981,114.424338,4.3,Private Room;Online Queue
Sifang Restaurant,Hangzhou,30.529796,114.316387,100.0,Chinese Restaurant;Chinese Restaurant,08:00,18:00,Wuchang Station,"114.317603,30.528545",30.528545,114.317603,3.6,Must-Eat Top 10;Outdoor Seating
Daye Restaurant,Hangzhou,30.526811,114.318071,100.0,Chinese Restaurant;Chinese Restaurant,11:00,21:00,Wuchang Station,"114.317603,30.528545",30.528545,114.317603,3.7,Must-Eat Top 10;Private Room
Boqiang Restaurant,Hangzhou,30.526381,114.315283,100.0,Chinese Restaurant;Chinese Restaurant,11:00,21:00,Wuchang Station,"114.317603,30.528545",30.528545,114.317603,3.8,Private Room;Waiting Area
Dabieshan Half Fish Restaurant (Ziyang Village Community Branch),Hangzhou,30.524663,114.317663,46.0,Chinese Restaurant;Chinese Restaurant,09:00,22:00,Wuchang Station,"114.317603,30.528545",30.528545,114.317603,4.1,Must-Eat Top 10;Birthday Package
Lisheng Restaurant (Wuchang Apartment Branch),Hangzhou,30.530909,114.321198,29.0,Chinese Restaurant;Chinese Restaurant,10:00,22:00,Wuchang Station,"114.317603,30.528545",30.528545,114.317603,4.0,Must-Eat Top 10;Outdoor Seating
Songlin Bieyuan Restaurant,Hangzhou,29.473420,119.263381,100.0,Chinese Restaurant;Chinese Restaurant,11:00,21:00,Jianguo Guirui Grand Hotel,"119.263331,29.473498",29.473498,119.263331,2.9,Must-Eat Top 10;Private Room
City Canopy Restaurant (Dianli Lane),Hangzhou,29.473320,119.269756,58.0,Chinese Restaurant;Chinese Restaurant,11:00,21:00,Jianguo Guirui Grand Hotel,"119.263331,29.473498",29.473498,119.263331,4.5,Outdoor Seating;Online Queue
Jinglan Muzhou Chinese Restaurant,Hangzhou,29.474565,119.256898,100.0,Chinese Restaurant;Chinese Restaurant,09:00,22:30,Jianguo Guirui Grand Hotel,"119.263331,29.473498",29.473498,119.263331,3.7,Must-Eat Top 10;Private Room
Yang Pang Restaurant,Hangzhou,29.472644,119.271589,100.0,Chinese Restaurant;Chinese Restaurant,09:30,21:00,Jianguo Guirui Grand Hotel,"119.263331,29.473498",29.473498,119.263331,4.1,Private Room;Birthday Package
Xiao Deng Restaurant Night Supper,Hangzhou,29.473812,119.271911,100.0,Food Service Related;Food Service Related,10:00,22:00,Jianguo Guirui Grand Hotel,"119.263331,29.473498",29.473498,119.263331,4.2,Outdoor Seating
Qu Xiaobao Restaurant,Hangzhou,30.280377,120.169734,60.0,Chinese Restaurant;Chinese Restaurant,17:00,02:00,Hanting Hotel Hangzhou West Lake Cultural Square Metro Station (formerly Chaohui No.1 Branch),"120.169787,30.281245",30.281245,120.169787,4.1,Outdoor Seating;Private Room
Hulu Restaurant,Hangzhou,30.280039,120.169083,100.0,Chinese Restaurant;Chinese Restaurant,10:00,23:00,Hanting Hotel Hangzhou West Lake Cultural Square Metro Station (formerly Chaohui No.1 Branch),"120.169787,30.281245",30.281245,120.169787,4.3,Outdoor Seating
Lulu Bistro,Hangzhou,30.279779,120.168421,210.0,Foreign Restaurant;Western Restaurant|Entertainment Venue;Bar,17:30,22:30,Hanting Hotel Hangzhou West Lake Cultural Square Metro Station (formerly Chaohui No.1 Branch),"120.169787,30.281245",30.281245,120.169787,4.7,Private Room;Birthday Package
Lofee Canteen (Senhe Plaza Branch),Hangzhou,30.253616,120.206541,28.0,Chinese Restaurant;Chinese Restaurant,16:30,20:00,Jinjiang Inn Hangzhou Qingchun Square Hotel,"120.207823,30.255917",30.255917,120.207823,4.4,Outdoor Seating
Yinlonghui Leisure Theme Hotel - Buffet (Senhe Plaza Branch),Hangzhou,30.253173,120.206736,83.0,Foreign Restaurant;Foreign Restaurant,17:00,02:00,Jinjiang Inn Hangzhou Qingchun Square Hotel,"120.207823,30.255917",30.255917,120.207823,4.1,Must-Eat Top 10;Birthday Package
Baixinju Restaurant (Senhe Plaza Branch),Hangzhou,30.253049,120.207153,71.0,Chinese Restaurant;Chinese Restaurant,09:00,21:00,Jinjiang Inn Hangzhou Qingchun Square Hotel,"120.207823,30.255917",30.255917,120.207823,4.2,Outdoor Seating;Waiting Area
Xizi United Restaurant,Hangzhou,30.257779,120.204187,100.0,Fast Food Restaurant;Fast Food Restaurant,11:00,21:00,Jinjiang Inn Hangzhou Qingchun Square Hotel,"120.207823,30.255917",30.255917,120.207823,3.6,Waiting Area
Hong Kong Xin Yao Ji Tea Restaurant (Hangzhou Tower 501 City Plaza),Hangzhou,30.258749,120.204096,50.0,Chinese Restaurant;Chinese Restaurant,10:30,21:00,Jinjiang Inn Hangzhou Qingchun Square Hotel,"120.207823,30.255917",30.255917,120.207823,4.3,Waiting Area
Mi Zhanggui Stir-Fry Self-Service Restaurant,Hangzhou,30.276370,119.991840,29.0,Chinese Restaurant;Chinese Restaurant,06:00,20:00,Orange Hotel Hangzhou West Railway Station Zhejiang First Hospital,"119.992000,30.276200",30.276200,119.992000,4.4,Waiting Area;Online Queue
Nongcaijia Self-Service Restaurant (Haichuang Building Branch),Hangzhou,30.275654,119.990356,100.0,Chinese Restaurant;Chinese Restaurant,11:00,21:00,Orange Hotel Hangzhou West Railway Station Zhejiang First Hospital,"119.992000,30.276200",30.276200,119.992000,3.7,Outdoor Seating
Zifeng · Lanting Xu Restaurant,Hangzhou,30.277056,119.993869,100.0,Chinese Restaurant;Zhejiang Cuisine,17:00,21:00,Orange Hotel Hangzhou West Railway Station Zhejiang First Hospital,"119.992000,30.276200",30.276200,119.992000,4.1,Outdoor Seating;Waiting Area
Shi Yue Fang · Roasted Meat Restaurant,Hangzhou,30.276680,119.996080,100.0,Chinese Restaurant;Chinese Restaurant,11:00,21:00,Orange Hotel Hangzhou West Railway Station Zhejiang First Hospital,"119.992000,30.276200",30.276200,119.992000,4.1,Waiting Area;Online Queue
Meikai Restaurant,Hangzhou,30.279703,119.988633,100.0,Chinese Restaurant;Chinese Restaurant,11:00,21:00,Orange Hotel Hangzhou West Railway Station Zhejiang First Hospital,"119.992000,30.276200",30.276200,119.992000,2.9,Outdoor Seating
Takigawa Main Shop (Gonglian CC Branch),Hangzhou,30.254777,120.165028,97.0,Food Service Related;Food Service Related,11:00,01:30,Home Inn Neo - Hangzhou West Lake Lakeside Pedestrian Street Music Fountain Branch,"120.165774,30.254412",30.254412,120.165774,4.8,Private Room;Waiting Area
Youhao Hotel West Lake Revolving Restaurant,Hangzhou,30.253762,120.166446,250.0,Chinese Restaurant;Chinese Restaurant,09:00,21:00,Home Inn Neo - Hangzhou West Lake Lakeside Pedestrian Street Music Fountain Branch,"120.165774,30.254412",30.254412,120.165774,4.5,Birthday Package
Hangzhou Youhao Hotel,Hangzhou,30.253726,120.166572,139.0,Hotel;Hotel,06:30,22:30,Home Inn Neo - Hangzhou West Lake Lakeside Pedestrian Street Music Fountain Branch,"120.165774,30.254412",30.254412,120.165774,4.5,Private Room
Northeast Small Restaurant,Hangzhou,30.234222,120.470304,87.0,Chinese Restaurant;Local Specialty Restaurant,17:00,03:00,Hangzhou Jingjiang Grand Hotel,"120.473752,30.229744",30.229744,120.473752,4.4,Must-Eat Top 10;Online Queue
Zhang Zhengfa Tea Restaurant,Hangzhou,30.235334,120.472996,100.0,Fast Food Restaurant;Fast Food Restaurant,11:00,21:00,Hangzhou Jingjiang Grand Hotel,"120.473752,30.229744",30.229744,120.473752,4.1,Online Queue
Cheng Xiansheng Steamed Seafood (Konggang Xintiandi),Hangzhou,30.235424,120.473781,160.0,综合市场;农副产品市场,11:00,21:00,Hangzhou Jingjiang Grand Hotel,"120.473752,30.229744",30.229744,120.473752,4.7,Birthday Package
Longjiang Lao Wei Pork Knuckle · Roasted Meat Restaurant (Konggang Xintiandi Branch),Hangzhou,30.235342,120.472522,100.0,Chinese Restaurant;Chinese Restaurant,11:00,21:00,Hangzhou Jingjiang Grand Hotel,"120.473752,30.229744",30.229744,120.473752,4.3,Outdoor Seating
Green Card Xi Elephant · Holiday Restaurant (Airport New World Branch),Hangzhou,30.235804,120.473725,83.0,Food Service Related;Food Service Related,11:00,21:00,Hangzhou Jingjiang Grand Hotel,"120.473752,30.229744",30.229744,120.473752,4.0,Outdoor Seating;Birthday Package
Xiaoluo Hui Restaurant,Hangzhou,30.278482,120.170535,98.0,Chinese Restaurant;Chinese Restaurant,16:30,21:00,Jinjiang Inn (Hangzhou West Lake Cultural Square Metro Station Hotel),"120.171934,30.281250",30.281250,120.171934,4.5,Must-Eat Top 10
Wangchangmen Family Restaurant (Tangwan Mingyuan C Zone Branch),Hangzhou,30.185347,120.278092,100.0,Chinese Restaurant;Chinese Restaurant,11:00,21:00,Hangzhou Yinlonghui Leisure Theme Hotel,"120.285795,30.179290",30.179290,120.285795,3.5,Waiting Area
Jinlaihui Restaurant,Hangzhou,30.181607,120.271366,97.0,Chinese Restaurant;Chinese Restaurant,16:30,22:30,Hangzhou Yinlonghui Leisure Theme Hotel,"120.285795,30.179290",30.179290,120.285795,4.3,Online Queue
Aru Restaurant (Yucai Xiyuan East District Branch),Hangzhou,30.166872,120.279363,100.0,Chinese Restaurant;Chinese Restaurant,10:00,22:00,Hangzhou Yinlonghui Leisure Theme Hotel,"120.285795,30.179290",30.179290,120.285795,4.0,Outdoor Seating;Online Queue
Pizza Italian Restaurant (Xiaoshan MixC Mall Branch),Hangzhou,30.181674,120.269350,77.0,Foreign Restaurant;Italian Restaurant,10:00,22:00,Hangzhou Yinlonghui Leisure Theme Hotel,"120.285795,30.179290",30.179290,120.285795,4.2,Waiting Area
Gaga Duck Private Kitchen Restaurant,Hangzhou,30.261202,120.219781,100.0,Chinese Restaurant;Chinese Restaurant,11:00,21:00,Hangzhou Qianjiang New Town Hilton Home2 Suites,"120.219947,30.260873",30.260873,120.219947,3.7,Online Queue
Yashi Hui Restaurant,Hangzhou,30.258038,120.221636,69.0,Specialty Store;Exclusive Store|Tea House;Tea House,09:00,21:00,Hangzhou Qianjiang New Town Hilton Home2 Suites,"120.219947,30.260873",30.260873,120.219947,4.2,Must-Eat Top 10
Qianjiang New City Holiday Inn · Yilang Restaurant (Qianchao Road Branch),Hangzhou,30.256253,120.220167,90.0,Chinese Restaurant;Chinese Restaurant,06:30,10:30,Hangzhou Qianjiang New Town Hilton Home2 Suites,"120.219947,30.260873",30.260873,120.219947,4.1,Private Room
Athletes' Restaurant,Hangzhou,30.256479,120.223518,100.0,Food Service Related;Food Service Related,11:00,21:00,Hangzhou Qianjiang New Town Hilton Home2 Suites,"120.219947,30.260873",30.260873,120.219947,3.6,Outdoor Seating;Online Queue
Songyun Restaurant,Hangzhou,30.255770,120.222054,100.0,Chinese Restaurant;Chinese Restaurant,11:00,21:00,Hangzhou Qianjiang New Town Hilton Home2 Suites,"120.219947,30.260873",30.260873,120.219947,3.9,Private Room;Online Queue
Hangzhou Xixi Zijin Port Hilton Garden Hotel · Hua Hui Wei All-Day Dining Restaurant (Longhe Business Center),Hangzhou,30.326818,120.098915,100.0,Food Service Related;Food Service Related,11:00,21:00,Hangzhou Xixi Zijin Port Hilton Garden Inn,"120.098728,30.326706",30.326706,120.098728,4.2,Online Queue
Haoshengke Restaurant (Dongye Beiruan Smart Innovation Building Branch),Hangzhou,30.327666,120.097585,21.0,Chinese Restaurant;Chinese Restaurant,11:00,21:00,Hangzhou Xixi Zijin Port Hilton Garden Inn,"120.098728,30.326706",30.326706,120.098728,3.9,Private Room
Spicy Addiction Specialty Gan Cuisine Restaurant,Hangzhou,30.328827,120.097531,106.0,Chinese Restaurant;Chinese Restaurant,11:00,21:30,Hangzhou Xixi Zijin Port Hilton Garden Inn,"120.098728,30.326706",30.326706,120.098728,4.2,Waiting Area;Online Queue
Qinjia Self-Service Restaurant (Shenhua V Times Branch),Hangzhou,30.323299,120.100110,18.0,Chinese Restaurant;Chinese Restaurant,11:00,20:00,Hangzhou Xixi Zijin Port Hilton Garden Inn,"120.098728,30.326706",30.326706,120.098728,4.4,Outdoor Seating;Online Queue
Kongjiadai Branch He Pan Restaurant,Hangzhou,30.330576,120.097787,100.0,Chinese Restaurant;Chinese Restaurant,11:00,21:00,Hangzhou Xixi Zijin Port Hilton Garden Inn,"120.098728,30.326706",30.326706,120.098728,3.8,Waiting Area
Xi Lin Ke Restaurant,Hangzhou,30.434064,120.315583,100.0,Chinese Restaurant;Chinese Restaurant,10:00,02:00,Dehao Design Hotel (Linping East Lake International Commercial Center Branch),"120.314651,30.431516",30.431516,120.314651,4.0,Online Queue
Chuan Meizi Theme Restaurant,Hangzhou,30.434833,120.312926,49.0,Chinese Restaurant;Local Specialty Restaurant,16:00,20:30,Dehao Design Hotel (Linping East Lake International Commercial Center Branch),"120.314651,30.431516",30.431516,120.314651,4.5,Birthday Package;Online Queue
Yinhu · Qiushan Branch,Hangzhou,30.429778,120.309058,108.0,Chinese Restaurant;Chinese Restaurant|生活服务;生活服务场所;生活服务场所,16:00,20:30,Dehao Design Hotel (Linping East Lake International Commercial Center Branch),"120.314651,30.431516",30.431516,120.314651,4.4,Outdoor Seating;Online Queue
Dianweiyuan · Yunnan Cuisine Restaurant (Linping Branch),Hangzhou,30.428199,120.304135,50.0,Chinese Restaurant;Chinese Restaurant,16:00,21:30,Dehao Design Hotel (Linping East Lake International Commercial Center Branch),"120.314651,30.431516",30.431516,120.314651,4.3,Private Room;Online Queue
Xinfengyuan Restaurant,Hangzhou,30.441025,120.316725,100.0,Chinese Restaurant;Chinese Restaurant,11:00,21:00,Dehao Design Hotel (Linping East Lake International Commercial Center Branch),"120.314651,30.431516",30.431516,120.314651,2.8,Waiting Area;Online Queue
Hometown Garden Resort Hotel Chinese Restaurant (Tonghui South Road),Hangzhou,30.150856,120.286415,110.0,Chinese Restaurant;Chinese Restaurant,16:00,20:30,Hangzhou Homeland Garden Resort Hotel,"120.285910,30.150623",30.150623,120.285910,4.3,Private Room;Online Queue
One Meal Canteen Self-Service Restaurant,Hangzhou,30.145854,120.284940,34.0,Chinese Restaurant;Chinese Restaurant,10:00,21:00,Hangzhou Homeland Garden Resort Hotel,"120.285910,30.150623",30.150623,120.285910,4.1,Outdoor Seating;Waiting Area
"Captain Lou · Tripe Hotpot, Seafood & BBQ Buffet Restaurant",Hangzhou,30.144545,120.286619,86.0,Chinese Restaurant;Hot Pot,16:30,21:30,Hangzhou Homeland Garden Resort Hotel,"120.285910,30.150623",30.150623,120.285910,4.6,Must-Eat Top 10;Birthday Package
Gulute Buffet BBQ Restaurant (Xiaoshan Yintai Department Store Branch),Hangzhou,30.144025,120.286225,49.0,Chinese Restaurant;Chinese Restaurant,10:30,21:00,Hangzhou Homeland Garden Resort Hotel,"120.285910,30.150623",30.150623,120.285910,4.2,Outdoor Seating;Online Queue
Zhang Zhengfa Tea Restaurant (Xiaoshan Intime Department Store),Hangzhou,30.143964,120.286664,24.0,Food Service Related;Food Service Related,10:00,22:00,Hangzhou Homeland Garden Resort Hotel,"120.285910,30.150623",30.150623,120.285910,4.5,Birthday Package
Chengyuan Xinxiyang Restaurant (Wenyi West Road Branch),Hangzhou,30.287817,120.080820,103.0,Chinese Restaurant;Chinese Restaurant,17:00,21:00,Orange Hotel Hangzhou Sports Center Xixi Wetland,"120.079410,30.281383",30.281383,120.079410,4.5,Online Queue
Ningkang Restaurant (Xixi Wisdom Building Branch),Hangzhou,30.280132,120.087830,100.0,Chinese Restaurant;Chinese Restaurant,11:00,21:00,Orange Hotel Hangzhou Sports Center Xixi Wetland,"120.079410,30.281383",30.281383,120.079410,4.0,Private Room
Xixi Station Tea Restaurant,Hangzhou,30.280408,120.069749,100.0,Chinese Restaurant;Chinese Restaurant,11:00,21:00,Orange Hotel Hangzhou Sports Center Xixi Wetland,"120.079410,30.281383",30.281383,120.079410,3.8,Outdoor Seating;Private Room
Duobaozhai Vegetarian Buffet Restaurant,Hangzhou,30.420770,120.308529,19.0,Chinese Restaurant;Chinese Restaurant,17:00,19:30,Deer Island Deer Horn Japanese Tatami Hotel (Linping New World Branch),"120.307400,30.420663",30.420663,120.307400,4.4,Outdoor Seating;Waiting Area
Beal Craft Beer & Mexican Restaurant (Hangzhou Linping New World Branch),Hangzhou,30.420991,120.308750,92.0,Entertainment Venue;Bar|Food Service Related;Food Service Related,10:00,02:00,Deer Island Deer Horn Japanese Tatami Hotel (Linping New World Branch),"120.307400,30.420663",30.420663,120.307400,4.2,Must-Eat Top 10;Online Queue
Bitian Restaurant (Hengda Garden Branch),Hangzhou,30.421951,120.305577,100.0,Chinese Restaurant;General Restaurant,16:30,20:00,Deer Island Deer Horn Japanese Tatami Hotel (Linping New World Branch),"120.307400,30.420663",30.420663,120.307400,4.0,Outdoor Seating;Birthday Package
Butterfly Lane (Binjiang Longhu Paradise Walk Branch),Hangzhou,30.200169,120.202197,115.0,Chinese Restaurant;Chinese Restaurant,10:30,21:00,Hangzhou Qianxun Cinema Hotel,"120.202146,30.200183",30.200183,120.202146,4.4,Private Room;Waiting Area
Qingyue Buffet Restaurant (Longfor Hangzhou Binjiang Paradise Walk Branch),Hangzhou,30.200419,120.202065,131.0,Food Service Related;Food Service Related,17:00,21:00,Hangzhou Qianxun Cinema Hotel,"120.202146,30.200183",30.200183,120.202146,3.6,Private Room
Gangji Tea Restaurant · No Pre-made Dishes (Longfor Hangzhou Binjiang Paradise Walk Branch),Hangzhou,30.200525,120.202925,32.0,Fast Food Restaurant;Fast Food Restaurant,11:00,21:00,Hangzhou Qianxun Cinema Hotel,"120.202146,30.200183",30.200183,120.202146,3.8,Online Queue
Qian Xiaonu Seafood Buffet Restaurant (Longfor Hangzhou Binjiang Paradise Walk Branch),Hangzhou,30.200534,120.202949,129.0,Chinese Restaurant;Seafood Restaurant,17:00,22:00,Hangzhou Qianxun Cinema Hotel,"120.202146,30.200183",30.200183,120.202146,4.2,Outdoor Seating;Birthday Package
Mokpo · Mupo · Korean Cuisine (Longfor Hangzhou Binjiang Paradise Walk Branch),Hangzhou,30.200283,120.203173,121.0,Chinese Restaurant;Chinese Restaurant,16:30,21:30,Hangzhou Qianxun Cinema Hotel,"120.202146,30.200183",30.200183,120.202146,4.5,Outdoor Seating;Birthday Package
Jin Xihu (Hangzhou Central Store),Hangzhou,30.272099,120.165798,214.0,Chinese Restaurant;Chinese Restaurant,17:00,21:00,Hanting Hotel Hangzhou Central Wulin Square Metro Station,"120.166721,30.271165",30.271165,120.166721,4.5,Online Queue
Half Spoon Qingshan · Chinese Hui Cuisine (Hangzhou Central Branch),Hangzhou,30.272035,120.165525,113.0,Chinese Restaurant;Chinese Restaurant,11:00,21:30,Hanting Hotel Hangzhou Central Wulin Square Metro Station,"120.166721,30.271165",30.271165,120.166721,4.5,Must-Eat Top 10
Jianyin Center Restaurant (Stadium Road Branch),Hangzhou,30.270125,120.167725,27.0,Chinese Restaurant;Chinese Restaurant,16:00,20:00,Hanting Hotel Hangzhou Central Wulin Square Metro Station,"120.166721,30.271165",30.271165,120.166721,4.2,Online Queue
Hua Hui Wei Restaurant,Hangzhou,30.469781,119.769475,143.0,Food Service Related;Food Service Related,11:00,21:00,Hangzhou Luniu Hilton Garden Inn,"119.769431,30.469522",30.469522,119.769431,4.1,Birthday Package
Xiaozhu Jiangxian Restaurant (Xinhu Golden Pond Branch),Hangzhou,30.470169,119.768906,95.0,Chinese Restaurant;Chinese Restaurant,16:30,20:30,Hangzhou Luniu Hilton Garden Inn,"119.769431,30.469522",30.469522,119.769431,4.2,Must-Eat Top 10
Zhongda Langyuan Restaurant,Hangzhou,30.470213,119.764273,76.0,Chinese Restaurant;Chinese Restaurant,11:00,21:00,Hangzhou Luniu Hilton Garden Inn,"119.769431,30.469522",30.469522,119.769431,3.9,Must-Eat Top 10
Qingchun Canteen (State-Owned Capital Investment Building Branch),Hangzhou,30.257888,120.193475,99.0,Food Service Related;Food Service Related,11:00,21:00,Home Inn - Hangzhou Sijiqing Clothing Market Qingchun East Road Branch,"120.192780,30.258619",30.258619,120.192780,4.7,Must-Eat Top 10
Aizi Restaurant (Zijing Business City Branch),Hangzhou,30.257968,120.191605,82.0,Chinese Restaurant;Chinese Restaurant,09:00,24:00,Home Inn - Hangzhou Sijiqing Clothing Market Qingchun East Road Branch,"120.192780,30.258619",30.258619,120.192780,4.4,Must-Eat Top 10;Birthday Package
Jianyue Restaurant (Zijing Business City Branch),Hangzhou,30.258207,120.190940,79.0,Chinese Restaurant;Chinese Restaurant,10:00,21:00,Home Inn - Hangzhou Sijiqing Clothing Market Qingchun East Road Branch,"120.192780,30.258619",30.258619,120.192780,4.4,Online Queue
Hangzhou JW Marriott Hotel Asia Bistro,Hangzhou,30.274769,120.156955,267.0,Foreign Restaurant;其它亚洲菜,17:30,21:30,Hangzhou JW Marriott Hotel,"120.157166,30.274504",30.274504,120.157166,4.3,Private Room
Hangzhou JW Marriott Hotel Marriott Chinese Restaurant,Hangzhou,30.274804,120.156967,166.0,Chinese Restaurant;Chinese Restaurant,17:30,21:30,Hangzhou JW Marriott Hotel,"120.157166,30.274504",30.274504,120.157166,4.4,Birthday Package
Hangzhou Nade Family - German Flavor · Chinese Restaurant,Hangzhou,30.273365,120.157444,301.0,公司企业;公司;公司,11:00,21:00,Hangzhou JW Marriott Hotel,"120.157166,30.274504",30.274504,120.157166,4.3,Must-Eat Top 10;Private Room
City Blue Hall · Xiangzhang Garden,Hangzhou,30.276928,120.188435,484.0,Chinese Restaurant;Chinese Restaurant,09:30,22:30,Home Inn Neo - Hangzhou Wulin Square Chaohui Road Canal Branch,"120.184128,30.277893",30.277893,120.184128,4.6,Outdoor Seating;Online Queue
Quzhou Cuisine Self-Service Restaurant (Meibo City Branch),Hangzhou,30.276300,120.190958,100.0,Chinese Restaurant;Chinese Restaurant,11:00,21:00,Home Inn Neo - Hangzhou Wulin Square Chaohui Road Canal Branch,"120.184128,30.277893",30.277893,120.184128,4.2,Waiting Area;Online Queue
Hui · Drinks and Snacks (Blue Sky City Garden Branch),Hangzhou,30.284710,120.189495,100.0,Chinese Restaurant;Chinese Restaurant,10:00,22:00,Home Inn Neo - Hangzhou Wulin Square Chaohui Road Canal Branch,"120.184128,30.277893",30.277893,120.184128,4.5,Must-Eat Top 10;Online Queue
Molv · Art Space Restaurant,Hangzhou,30.158534,120.075665,83.0,Chinese Restaurant;Zhejiang Cuisine,16:30,21:00,China Academy of Art Xiangshan Campus,"120.076690,30.155446",30.155446,120.076690,4.6,Waiting Area;Birthday Package
Yongsheng Tea Restaurant,Hangzhou,30.158514,120.075573,32.0,Fast Food Restaurant;Tea Restaurant,08:00,24:00,China Academy of Art Xiangshan Campus,"120.076690,30.155446",30.155446,120.076690,4.6,Must-Eat Top 10;Online Queue
Manxi Hotel Restaurant,Hangzhou,30.159263,120.075329,100.0,Chinese Restaurant;Chinese Restaurant,11:00,21:00,China Academy of Art Xiangshan Campus,"120.076690,30.155446",30.155446,120.076690,3.7,Must-Eat Top 10
Congee King Hong Kong-Style Tea Restaurant (Academy of Arts Branch),Hangzhou,30.159634,120.077400,31.0,Fast Food Restaurant;Fast Food Restaurant,09:00,02:00,China Academy of Art Xiangshan Campus,"120.076690,30.155446",30.155446,120.076690,4.4,Online Queue
Xinjiang Bilali Restaurant,Hangzhou,30.150950,120.078561,75.0,Chinese Restaurant;Halal Restaurant,10:00,24:00,China Academy of Art Xiangshan Campus,"120.076690,30.155446",30.155446,120.076690,4.1,Outdoor Seating
Yuanduoduo Restaurant (Se Ke Bistro),Hangzhou,30.152280,120.072100,100.0,Chinese Restaurant;Chinese Restaurant,11:00,21:00,China Academy of Art Xiangshan Campus,"120.076690,30.155446",30.155446,120.076690,3.7,Outdoor Seating;Online Queue
Jun Gang Hotel Restaurant,Hangzhou,30.161054,120.078568,100.0,Chinese Restaurant;Chinese Restaurant,11:00,24:00,China Academy of Art Xiangshan Campus,"120.076690,30.155446",30.155446,120.076690,4.2,Private Room
Little Chili Restaurant (West Street Food City Branch),Hangzhou,30.159157,120.070865,80.0,Food Service Related;Food Service Related,17:00,21:00,China Academy of Art Xiangshan Campus,"120.076690,30.155446",30.155446,120.076690,4.3,Outdoor Seating;Birthday Package
Sajiao Chuannian Restaurant (Zhuanjiang Street Branch),Hangzhou,30.159292,120.070799,96.0,Chinese Restaurant;Sichuan Cuisine,17:00,21:30,China Academy of Art Xiangshan Campus,"120.076690,30.155446",30.155446,120.076690,4.7,Outdoor Seating
Lava · Western Restaurant (Golden Street Meidi Branch),Hangzhou,30.148904,120.079300,108.0,Foreign Restaurant;Foreign Restaurant,10:00,21:00,China Academy of Art Xiangshan Campus,"120.076690,30.155446",30.155446,120.076690,4.0,Birthday Package
Paper Kite · Fusion Restaurant & Bistro,Hangzhou,30.240719,120.169041,100.0,Chinese Restaurant;Chinese Restaurant,17:00,21:30,Southern Song Imperial Street Zhongshan Road Pedestrian Street,"120.169526,30.240249",30.240249,120.169526,4.6,Must-Eat Top 10;Private Room
Haipaihui Restaurant,Hangzhou,30.240777,120.170435,98.0,Chinese Restaurant;Chinese Restaurant,10:00,22:00,Southern Song Imperial Street Zhongshan Road Pedestrian Street,"120.169526,30.240249",30.240249,120.169526,4.5,Outdoor Seating;Birthday Package
Xiyue · Garden Restaurant,Hangzhou,30.239312,120.169339,174.0,Chinese Restaurant;Chinese Restaurant,17:00,21:00,Southern Song Imperial Street Zhongshan Road Pedestrian Street,"120.169526,30.240249",30.240249,120.169526,4.6,Waiting Area;Birthday Package
"MaLaMaLa Garden Restaurant, Coffee & Afternoon Tea",Hangzhou,30.239071,120.169689,100.0,Food Service Related;Food Service Related,11:00,21:00,Southern Song Imperial Street Zhongshan Road Pedestrian Street,"120.169526,30.240249",30.240249,120.169526,4.7,Birthday Package;Online Queue
Jiujiali · Creative Hangzhou Cuisine (Hefang Street Branch),Hangzhou,30.240648,120.171031,82.0,Chinese Restaurant;General Restaurant,10:00,23:30,Southern Song Imperial Street Zhongshan Road Pedestrian Street,"120.169526,30.240249",30.240249,120.169526,4.6,Must-Eat Top 10
Yuting Plates & Dishes (Gulou Branch),Hangzhou,30.239810,120.171980,68.0,Chinese Restaurant;Zhejiang Cuisine,16:30,21:00,Southern Song Imperial Street Zhongshan Road Pedestrian Street,"120.169526,30.240249",30.240249,120.169526,4.4,Must-Eat Top 10;Private Room
"Jiang Xiaoxie (Xinjiang Cuisine Restaurant, Hefang Street)",Hangzhou,30.239330,120.171880,75.0,Chinese Restaurant;Chinese Restaurant,11:30,21:30,Southern Song Imperial Street Zhongshan Road Pedestrian Street,"120.169526,30.240249",30.240249,120.169526,4.6,Birthday Package
New Zhouji · Jiangnan Flavors in the Alley (Gulou Branch),Hangzhou,30.237432,120.171040,64.0,Chinese Restaurant;Chinese Restaurant,10:30,23:30,Southern Song Imperial Street Zhongshan Road Pedestrian Street,"120.169526,30.240249",30.240249,120.169526,4.6,Online Queue
Pan Fang Chun Pan-Fried Dumplings · Michelin Restaurant (Zhongshan South Road Branch),Hangzhou,30.237205,120.171034,17.0,Chinese Restaurant;Chinese Restaurant,06:00,20:00,Southern Song Imperial Street Zhongshan Road Pedestrian Street,"120.169526,30.240249",30.240249,120.169526,4.6,Waiting Area
New Bailu (West Lake Intime Department Store Branch),Hangzhou,30.242989,120.165847,53.0,Chinese Restaurant;Zhejiang Cuisine|Cold Beverage Shop;Cold Beverage Shop,16:00,21:00,Southern Song Imperial Street Zhongshan Road Pedestrian Street,"120.169526,30.240249",30.240249,120.169526,4.7,Must-Eat Top 10;Online Queue
Longjing Maoju · Western Restaurant · Afternoon Tea,Hangzhou,30.218025,120.100475,100.0,Chinese Restaurant;Chinese Restaurant,11:00,21:00,West Lake Longjing Shifeng Mountain Tea Roasting Center,"120.105302,30.218958",30.218958,120.105302,4.4,Waiting Area
Honey Lane Courtyard Restaurant · Team Building · Café (Faxi Temple),Hangzhou,30.226904,120.097711,65.0,Chinese Restaurant;Chinese Restaurant,10:30,20:30,West Lake Longjing Shifeng Mountain Tea Roasting Center,"120.105302,30.218958",30.218958,120.105302,4.4,Outdoor Seating;Private Room
Faxiang Vegetarian,Hangzhou,30.226345,120.096756,141.0,Food Service Related;Food Service Related,11:00,21:00,West Lake Longjing Shifeng Mountain Tea Roasting Center,"120.105302,30.218958",30.218958,120.105302,4.7,Must-Eat Top 10
Moon Crescent · Pusang Restaurant · Shangtianzhu Branch,Hangzhou,30.227291,120.097714,230.0,Chinese Restaurant;Chinese Restaurant,17:00,21:30,West Lake Longjing Shifeng Mountain Tea Roasting Center,"120.105302,30.218958",30.218958,120.105302,4.4,Online Queue
Feng Yue Oriental Cuisine,Hangzhou,30.226579,120.096738,257.0,Food Service Related;Food Service Related,17:00,21:00,West Lake Longjing Shifeng Mountain Tea Roasting Center,"120.105302,30.218958",30.218958,120.105302,4.5,Online Queue
Yifang Private Garden Restaurant,Hangzhou,30.227219,120.096891,160.0,Tea House;Tea House,09:30,21:30,West Lake Longjing Shifeng Mountain Tea Roasting Center,"120.105302,30.218958",30.218958,120.105302,4.2,Must-Eat Top 10;Private Room
Hangzhou Xihu Dianying Hotel · 1937 Restaurant,Hangzhou,30.263206,120.155350,447.0,Food Service Related;Food Service Related,11:00,21:00,Broken Bridge and Melting Snow,"120.151299,30.258106",30.258106,120.151299,4.2,Waiting Area;Birthday Package
Sullivan Western Restaurant (WAKE TOWN Commercial Street Branch),Hangzhou,30.259038,120.159258,158.0,Foreign Restaurant;Western Restaurant,17:30,21:00,Broken Bridge and Melting Snow,"120.151299,30.258106",30.258106,120.151299,3.9,Private Room
Wanghoulou · Chinese Restaurant,Hangzhou,30.259017,120.159309,144.0,Chinese Restaurant;Chinese Restaurant,17:30,21:00,Broken Bridge and Melting Snow,"120.151299,30.258106",30.258106,120.151299,4.2,Must-Eat Top 10
Hangzhou Xinxin Hotel · 1913 Restaurant,Hangzhou,30.255994,120.144148,371.0,Food Service Related;Food Service Related,09:30,21:30,Autumn Moon over the Calm Lake Scenic Spot,"120.146210,30.252038",30.252038,120.146210,4.3,Must-Eat Top 10;Birthday Package
Leshu Restaurant,Hangzhou,30.257025,120.144486,100.0,Chinese Restaurant;Chinese Restaurant,10:30,21:30,Autumn Moon over the Calm Lake Scenic Spot,"120.146210,30.252038",30.252038,120.146210,4.0,Must-Eat Top 10;Private Room
Zhejiang West Lake Villa · Buffet Restaurant,Hangzhou,30.256935,120.142147,100.0,Chinese Restaurant;Chinese Restaurant,17:30,20:30,Autumn Moon over the Calm Lake Scenic Spot,"120.146210,30.252038",30.252038,120.146210,4.1,Online Queue
Hangzhou Shangri-La · Coffee Garden,Hangzhou,30.252574,120.137577,207.0,Cafe;Cafe,11:00,21:00,Autumn Moon over the Calm Lake Scenic Spot,"120.146210,30.252038",30.252038,120.146210,4.1,Birthday Package;Online Queue
Qianjiang Restaurant,Hangzhou,30.259527,120.148472,100.0,Chinese Restaurant;General Restaurant,10:00,20:00,Autumn Moon over the Calm Lake Scenic Spot,"120.146210,30.252038",30.252038,120.146210,4.2,Waiting Area;Birthday Package
