restaurant_name,city,latitude,longitude,price_per_person,cuisine,opening_time,closing_time,nearby_attraction_name,nearby_attraction_coords,query_latitude,query_longitude,rating
Ninety-Nine Li Tang (Wushang Mall Branch),Nanchang,28.674579,115.906129,93.0,Chinese Restaurant;Cantonese Cuisine,16:30,21:00,Bayi Square,"115.904477,28.673856",28.673856,115.904477,4.6
Tomahawk Steakhouse (Wushang Black Gold Branch),Nanchang,28.675220,115.906042,86.0,Chinese Restaurant;Chinese Restaurant,10:00,22:00,Bayi Square,"115.904477,28.673856",28.673856,115.904477,4.6
Piaoxiang Hall Old Liquor Culture Restaurant,Nanchang,28.672264,115.906275,91.0,Chinese Restaurant;Chinese Restaurant,10:00,22:00,Bayi Square,"115.904477,28.673856",28.673856,115.904477,4.3
Wang Steak (Nanchang Wushang MALL Branch),Nanchang,28.675871,115.906115,275.0,Foreign Restaurant;Western Restaurant,17:00,21:00,Bayi Square,"115.904477,28.673856",28.673856,115.904477,4.5
Gan Li Ji Master Li's Hometown Cuisine Restaurant,Nanchang,28.672485,115.907045,68.0,Chinese Restaurant;Chinese Restaurant,17:00,21:00,Bayi Square,"115.904477,28.673856",28.673856,115.904477,4.5
Green Tea Restaurant (Nanchang Wushang MALL Branch),Nanchang,28.676333,115.906425,60.0,Chinese Restaurant;Chinese Restaurant,10:00,22:00,Bayi Square,"115.904477,28.673856",28.673856,115.904477,4.5
Shangnanyu · Creative Cuisine (Bayi Square Branch),Nanchang,28.671330,115.906420,98.0,Chinese Restaurant;Chinese Restaurant,11:00,21:00,Bayi Square,"115.904477,28.673856",28.673856,115.904477,4.8
Hongyun Restaurant,Nanchang,28.674872,115.901171,100.0,Chinese Restaurant;Chinese Restaurant,17:00,23:00,Bayi Square,"115.904477,28.673856",28.673856,115.904477,4.5
Yudingxian (Bayi Wanda Plaza Branch),Nanchang,28.676963,115.904122,52.0,Chinese Restaurant;Chinese Restaurant,10:00,22:00,Bayi Square,"115.904477,28.673856",28.673856,115.904477,4.2
Halal Yihaocha Hui Tea Restaurant,Nanchang,28.676483,115.902380,21.0,Fast Food Restaurant;Fast Food Restaurant,11:00,21:00,Bayi Square,"115.904477,28.673856",28.673856,115.904477,4.4
Jinfeng Grand Hotel Chinese Restaurant,Nanchang,28.661546,115.898490,51.0,Chinese Restaurant;Chinese Restaurant|Cafe;Cafe,17:00,20:30,Shengjin Pagoda,"115.899890,28.660962",28.660962,115.899890,4.2
Tao Fresh Seafood Restaurant (Zhanqian West Road Branch),Nanchang,28.661934,115.897709,84.0,Chinese Restaurant;Seafood Restaurant,16:30,21:30,Shengjin Pagoda,"115.899890,28.660962",28.660962,115.899890,3.9
Three Cups Li Bai Self-Singing Skewer Music Bar,Nanchang,28.658558,115.902303,59.0,Entertainment Venue;Bar|Chinese Restaurant;Hot Pot,18:00,02:00,Shengjin Pagoda,"115.899890,28.660962",28.660962,115.899890,4.3
Xiao Ou Spicy Boiled Restaurant (Huitang Road Branch),Nanchang,28.660188,115.903966,100.0,Chinese Restaurant;Chinese Restaurant,11:30,23:30,Shengjin Pagoda,"115.899890,28.660962",28.660962,115.899890,4.6
Sister Cheng's Little Eatery,Nanchang,28.659128,115.904257,24.0,Chinese Restaurant;Chinese Restaurant,10:00,21:00,Shengjin Pagoda,"115.899890,28.660962",28.660962,115.899890,4.2
Fangfang Restaurant (Qianjin Road Branch),Nanchang,28.656660,115.899740,100.0,Chinese Restaurant;Chinese Restaurant,09:00,22:00,Shengjin Pagoda,"115.899890,28.660962",28.660962,115.899890,4.2
Longjiang Pork Leg Rice · Roasted Meat Restaurant (Chuanshan Road Branch),Nanchang,28.664218,115.895622,100.0,Chinese Restaurant;Chinese Restaurant,11:00,21:00,Shengjin Pagoda,"115.899890,28.660962",28.660962,115.899890,3.8
Taoyuan Restaurant,Nanchang,28.658065,115.893862,48.0,Chinese Restaurant;Chinese Restaurant,09:00,21:00,Shengjin Pagoda,"115.899890,28.660962",28.660962,115.899890,4.1
Fushan Restaurant,Nanchang,28.664901,115.905641,61.0,Chinese Restaurant;Chinese Restaurant,11:00,21:00,Shengjin Pagoda,"115.899890,28.660962",28.660962,115.899890,3.8
Baijia Restaurant (Hualong International Building Branch),Nanchang,28.664593,115.906351,100.0,Fast Food Restaurant;Fast Food Restaurant,09:00,21:00,Shengjin Pagoda,"115.899890,28.660962",28.660962,115.899890,4.1
Lakeside Elegant Courtyard (Bayi Park Branch),Nanchang,28.678681,115.898637,60.0,Food Service Related;Food Service Related,10:30,21:00,Bayi Park,"115.897626,28.678562",28.678562,115.897626,4.7
Little Dongfang Restaurant (Supu Road),Nanchang,28.679128,115.898794,62.0,Chinese Restaurant;Local Specialty Restaurant,09:00,21:00,Bayi Park,"115.897626,28.678562",28.678562,115.897626,4.2
Nutrition Restaurant,Nanchang,28.678368,115.893321,100.0,Chinese Restaurant;Chinese Restaurant,11:00,21:00,Bayi Park,"115.897626,28.678562",28.678562,115.897626,3.6
Hu Ji Stir-Fry,Nanchang,28.674702,115.896701,53.0,Chinese Restaurant;Chinese Restaurant,17:00,20:30,Bayi Park,"115.897626,28.678562",28.678562,115.897626,4.3
Ganpai Restaurant,Nanchang,28.674375,115.897175,100.0,Chinese Restaurant;Chinese Restaurant,11:00,21:00,Bayi Park,"115.897626,28.678562",28.678562,115.897626,0.2
Fuqituo Three Rooms Two Halls (Second Branch),Nanchang,28.674356,115.897148,56.0,Chinese Restaurant;Chinese Restaurant,17:00,21:00,Bayi Park,"115.897626,28.678562",28.678562,115.897626,4.7
Jiangxi Hotel Chinese Restaurant,Nanchang,28.679705,115.902385,113.0,Chinese Restaurant;Chinese Restaurant,17:30,21:00,Bayi Park,"115.897626,28.678562",28.678562,115.897626,3.7
Pingping Eatery (Minde Road Branch),Nanchang,28.682147,115.900550,100.0,Chinese Restaurant;Chinese Restaurant,10:00,22:00,Bayi Park,"115.897626,28.678562",28.678562,115.897626,4.1
Little Sichuan Authentic Sichuan Snacks,Nanchang,28.674161,115.898900,36.0,Chinese Restaurant;Sichuan Cuisine,07:30,23:00,Bayi Park,"115.897626,28.678562",28.678562,115.897626,4.6
Pin · Huanhu 69 Restaurant,Nanchang,28.683367,115.895531,91.0,Food Service Related;Food Service Related,10:00,21:00,Apricot Flower Tower (Water Guanyin Pavilion),"115.894609,28.681531",28.681531,115.894609,4.6
North Lake Restaurant,Nanchang,28.683713,115.893462,100.0,Chinese Restaurant;Chinese Restaurant,17:00,20:30,Apricot Flower Tower (Water Guanyin Pavilion),"115.894609,28.681531",28.681531,115.894609,4.7
Lychee Restaurant,Nanchang,28.683951,115.893900,77.0,Foreign Restaurant;Western Restaurant,11:00,21:00,Apricot Flower Tower (Water Guanyin Pavilion),"115.894609,28.681531",28.681531,115.894609,4.9
Qingjiang Family Restaurant,Nanchang,28.684540,115.892623,19.0,Fast Food Restaurant;Fast Food Restaurant,06:30,20:30,Apricot Flower Tower (Water Guanyin Pavilion),"115.894609,28.681531",28.681531,115.894609,4.3
Lage Restaurant,Nanchang,28.684403,115.891659,100.0,Chinese Restaurant;Chinese Restaurant,11:00,21:00,Apricot Flower Tower (Water Guanyin Pavilion),"115.894609,28.681531",28.681531,115.894609,3.4
Xiao Zhang Restaurant (Tangjiayuan Branch),Nanchang,28.684205,115.890945,100.0,Chinese Restaurant;Chinese Restaurant,06:00,21:00,Apricot Flower Tower (Water Guanyin Pavilion),"115.894609,28.681531",28.681531,115.894609,3.9
Wangwang Restaurant (Daijia Road Branch),Nanchang,28.683183,115.899780,100.0,Chinese Restaurant;Chinese Restaurant,11:00,21:00,Apricot Flower Tower (Water Guanyin Pavilion),"115.894609,28.681531",28.681531,115.894609,3.9
Yunlin Mountain Hotel · Meihu Chinese Restaurant,Nanchang,28.607862,115.912846,73.0,Chinese Restaurant;Chinese Restaurant,11:00,21:00,Memorial Hall of Bada Shanren,"115.916642,28.604789",28.604789,115.916642,3.9
Ink Fragrance Restaurant,Nanchang,28.602499,115.911372,100.0,Chinese Restaurant;Chinese Restaurant,11:00,21:00,Memorial Hall of Bada Shanren,"115.916642,28.604789",28.604789,115.916642,3.6
Sijiale Restaurant,Nanchang,28.606961,115.928080,100.0,Chinese Restaurant;Chinese Restaurant,11:00,21:00,Memorial Hall of Bada Shanren,"115.916642,28.604789",28.604789,115.916642,3.8
Wu's Eatery (Hongling Building Branch),Nanchang,28.613977,115.907696,100.0,Chinese Restaurant;Chinese Restaurant,11:00,21:00,Memorial Hall of Bada Shanren,"115.916642,28.604789",28.604789,115.916642,3.7
Sister Xiong Restaurant,Nanchang,28.607440,115.930285,100.0,Chinese Restaurant;Chinese Restaurant,11:00,21:00,Memorial Hall of Bada Shanren,"115.916642,28.604789",28.604789,115.916642,2.9
Jiaxing Restaurant,Nanchang,28.617213,115.913810,100.0,Chinese Restaurant;Chinese Restaurant,11:00,21:00,Memorial Hall of Bada Shanren,"115.916642,28.604789",28.604789,115.916642,3.8
Smile Theme Restaurant (Hengmao Huijing Branch),Nanchang,28.607537,115.932403,100.0,Chinese Restaurant;Chinese Restaurant,11:00,21:00,Memorial Hall of Bada Shanren,"115.916642,28.604789",28.604789,115.916642,3.5
Pengcheng Jiuyun Restaurant,Nanchang,28.603836,115.933579,100.0,Chinese Restaurant;Chinese Restaurant,11:00,21:00,Memorial Hall of Bada Shanren,"115.916642,28.604789",28.604789,115.916642,3.6
Garden Bistro,Nanchang,28.621357,115.921621,100.0,Chinese Restaurant;Chinese Restaurant,11:00,21:00,Memorial Hall of Bada Shanren,"115.916642,28.604789",28.604789,115.916642,4.5
Dongming Seafood Food Stall (Temporarily Closed),Nanchang,28.607937,115.934335,46.0,Chinese Restaurant;Seafood Restaurant,11:00,21:00,Memorial Hall of Bada Shanren,"115.916642,28.604789",28.604789,115.916642,4.2
Reader Restaurant,Nanchang,28.704138,115.880581,100.0,Chinese Restaurant;Chinese Restaurant,17:00,18:45,Jiangxi Provincial Museum,"115.881823,28.705900",28.705900,115.881823,4.3
Mujia Music Restaurant & Bar Phoenix Island Branch (Jianjun Sculpture Square Branch),Nanchang,28.702944,115.882016,128.0,Chinese Restaurant;Chinese Restaurant,11:00,22:00,Jiangxi Provincial Museum,"115.881823,28.705900",28.705900,115.881823,4.4
Millennium Fortune Tea Restaurant (Phoenix Holiday Plaza Branch),Nanchang,28.709715,115.880360,100.0,Fast Food Restaurant;Fast Food Restaurant,11:00,22:00,Jiangxi Provincial Museum,"115.881823,28.705900",28.705900,115.881823,3.9
Mango Joy Restaurant,Nanchang,28.701301,115.879440,100.0,Food Service Related;Food Service Related,11:00,21:00,Jiangxi Provincial Museum,"115.881823,28.705900",28.705900,115.881823,3.8
Thousand Flavors·Red Restaurant (Provincial Science and Technology Museum Branch),Nanchang,28.700795,115.878631,80.0,Chinese Restaurant;Chinese Restaurant,17:00,21:00,Jiangxi Provincial Museum,"115.881823,28.705900",28.705900,115.881823,4.6
Blue Whale Seafood & Jiangxi Cuisine Restaurant,Nanchang,28.700706,115.878777,78.0,Chinese Restaurant;Seafood Restaurant,16:30,21:00,Jiangxi Provincial Museum,"115.881823,28.705900",28.705900,115.881823,4.3
Nine-Colored Deer Restaurant (Honggutan Branch),Nanchang,28.703468,115.874768,65.0,Chinese Restaurant;Chinese Restaurant,10:30,21:00,Jiangxi Provincial Museum,"115.881823,28.705900",28.705900,115.881823,4.7
Culinary Arts Restaurant (Jiuzongshanhe Branch),Nanchang,28.698989,115.876357,51.0,Chinese Restaurant;Chinese Restaurant,16:30,21:00,Jiangxi Provincial Museum,"115.881823,28.705900",28.705900,115.881823,4.2
Mishi Ji · Yunxi Steak Buffet Restaurant (Greenland Bund Mansion Office Building Branch),Nanchang,28.716479,115.880720,74.0,Food Service Related;Food Service Related,16:00,21:30,Jiangxi Provincial Museum,"115.881823,28.705900",28.705900,115.881823,4.5
Fu Ji Roasted Meat Restaurant (Wutongli Branch),Nanchang,28.716122,115.877511,17.0,Food Service Related;Food Service Related,11:00,21:00,Jiangxi Provincial Museum,"115.881823,28.705900",28.705900,115.881823,4.4
Yipin Jiahua Buffet Restaurant (Gougou Mall Branch),Nanchang,28.675246,115.890008,70.0,Chinese Restaurant;Chinese Restaurant,10:00,22:00,Nanchang Bayi Uprising Memorial Hall,"115.889435,28.674670",28.674670,115.889435,4.4
Star Kee Tea Restaurant (Wanshou Palace Branch),Nanchang,28.673815,115.891090,32.0,Fast Food Restaurant;Fast Food Restaurant,09:30,21:30,Nanchang Bayi Uprising Memorial Hall,"115.889435,28.674670",28.674670,115.889435,4.4
Chen Ji Handmade Mung Bean Cake (Zhubao Street Branch),Nanchang,28.673066,115.890280,16.0,糕饼店;糕饼店,08:00,22:30,Nanchang Bayi Uprising Memorial Hall,"115.889435,28.674670",28.674670,115.889435,4.7
Jordan Tea Restaurant (Xiangshan South Road Branch),Nanchang,28.675008,115.891432,58.0,服装鞋帽皮具店;服装鞋帽皮具店,11:00,21:00,Nanchang Bayi Uprising Memorial Hall,"115.889435,28.674670",28.674670,115.889435,4.6
Bu'er Folk Music Bar (Nanchang Branch),Nanchang,28.674621,115.887100,102.0,Chinese Restaurant;Chinese Restaurant,11:00,02:00,Nanchang Bayi Uprising Memorial Hall,"115.889435,28.674670",28.674670,115.889435,4.8
Nanchang Grand Hotel (Wanshou Palace Branch),Nanchang,28.673696,115.887108,100.0,Hotel;Hotel,11:00,21:00,Nanchang Bayi Uprising Memorial Hall,"115.889435,28.674670",28.674670,115.889435,4.7
Ah Ju Hong Kong Style Restaurant (Baisheng B Mall Branch),Nanchang,28.676784,115.891040,69.0,Food Service Related;Food Service Related,10:00,22:00,Nanchang Bayi Uprising Memorial Hall,"115.889435,28.674670",28.674670,115.889435,3.8
Dongfadao Tea Ice Hall (Wanshou Palace Historical and Cultural Street Area Branch),Nanchang,28.673802,115.886297,54.0,Food Service Related;Food Service Related,11:00,21:30,Nanchang Bayi Uprising Memorial Hall,"115.889435,28.674670",28.674670,115.889435,3.8
Nanchang Li·Old Street Nanchang Flavor (Wanshou Palace Branch),Nanchang,28.672945,115.886539,56.0,Chinese Restaurant;Chinese Restaurant,16:30,21:00,Nanchang Bayi Uprising Memorial Hall,"115.889435,28.674670",28.674670,115.889435,4.7
Daidai Private Seafood,Nanchang,28.673664,115.892870,93.0,Chinese Restaurant;Seafood Restaurant,11:30,21:00,Nanchang Bayi Uprising Memorial Hall,"115.889435,28.674670",28.674670,115.889435,4.4
Qianhu Hotel Buffet Restaurant,Nanchang,28.652881,115.807440,223.0,Chinese Restaurant;Chinese Restaurant,11:00,21:00,Nanchang University (Qianhu Campus),"115.801325,28.656317",28.656317,115.801325,4.1
Staff Canteen (Xuefu Avenue Branch),Nanchang,28.660004,115.815343,100.0,Chinese Restaurant;Chinese Restaurant,08:00,21:00,Nanchang University (Qianhu Campus),"115.801325,28.656317",28.656317,115.801325,4.1
Yonyou Industrial Park (Nanchang) Staff Cafeteria Building,Nanchang,28.650387,115.784309,15.0,Food Service Related;Food Service Related,11:00,21:00,Nanchang University (Qianhu Campus),"115.801325,28.656317",28.656317,115.801325,4.3
Grand Courtyard (Xixi Road),Nanchang,30.257620,120.092557,86.0,Chinese Restaurant;Chinese Restaurant,16:30,20:30,Hangzhou West Station,"120.091014,30.260867",30.260867,120.091014,4.5
Fudi Restaurant,Nanchang,30.260346,120.095285,100.0,Chinese Restaurant;Chinese Restaurant,11:00,21:00,Hangzhou West Station,"120.091014,30.260867",30.260867,120.091014,3.9
Fuyuan Xincun Elderly Restaurant,Nanchang,30.264739,120.094010,100.0,Chinese Restaurant;Chinese Restaurant,11:00,21:00,Hangzhou West Station,"120.091014,30.260867",30.260867,120.091014,3.5
Xixi Courtyard (Xixi Paradise Branch),Nanchang,30.265570,120.089190,122.0,旅馆招待所;旅馆招待所,16:30,21:00,Hangzhou West Station,"120.091014,30.260867",30.260867,120.091014,4.6
Xixi No.7 Restaurant,Nanchang,30.257162,120.086848,100.0,Chinese Restaurant;Chinese Restaurant,11:00,21:00,Hangzhou West Station,"120.091014,30.260867",30.260867,120.091014,3.9
Cuilin Courtyard · Yard Restaurant,Nanchang,28.502502,115.935682,100.0,Chinese Restaurant;Chinese Restaurant,16:30,21:30,Hangzhou South Station,"115.950071,28.500238",28.500238,115.950071,4.1
Cuilin Golf Holiday Hotel - Chinese Restaurant,Nanchang,28.505375,115.935875,100.0,Chinese Restaurant;Chinese Restaurant,11:00,21:00,Hangzhou South Station,"115.950071,28.500238",28.500238,115.950071,3.8
Hao Wei Duo Nutritional Restaurant,Nanchang,28.516711,115.952072,100.0,Chinese Restaurant;Chinese Restaurant,09:00,14:00,Hangzhou South Station,"115.950071,28.500238",28.500238,115.950071,4.0
Macau Chan Kwong Kei (Xiaoshan International Airport T4 Departure Mezzanine Branch),Nanchang,30.234878,120.431013,100.0,Chinese Restaurant;Chinese Restaurant,11:00,21:00,Xiaoshan International Airport,"120.432413,30.234708",30.234708,120.432413,3.4
Original No.1 Restaurant,Nanchang,30.228891,120.426744,100.0,Chinese Restaurant;Chinese Restaurant,11:00,21:00,Xiaoshan International Airport,"120.432413,30.234708",30.234708,120.432413,4.0
Go Wild Restaurant,Nanchang,30.238984,120.446523,100.0,Chinese Restaurant;Chinese Restaurant,11:00,21:00,Xiaoshan International Airport,"120.432413,30.234708",30.234708,120.432413,4.0
Hangzhou Xiaoshan International Airport - Third Restaurant,Nanchang,30.239055,120.446681,30.0,Chinese Restaurant;Chinese Restaurant,11:00,21:00,Xiaoshan International Airport,"120.432413,30.234708",30.234708,120.432413,4.0
Air China Staff Restaurant (Air China Base Branch),Nanchang,30.238608,120.449026,17.0,Chinese Restaurant;Chinese Restaurant,11:00,21:00,Xiaoshan International Airport,"120.432413,30.234708",30.234708,120.432413,4.1
Guangwei Xuan Hong Kong-Style Tea Restaurant (Hangzhou East Station),Nanchang,30.290107,120.209962,100.0,Fast Food Restaurant;Fast Food Restaurant,11:00,21:00,Hangzhou East Station,"120.212605,30.290846",30.290846,120.212605,2.5
Airuiyun Restaurant (Dongxi Debi Yiyuan Branch),Nanchang,30.291007,120.217230,76.0,Chinese Restaurant;Chinese Restaurant|Cafe;Cafe,10:00,23:00,Hangzhou East Station,"120.212605,30.290846",30.290846,120.212605,4.0
Shenji Hong Kong Style Tea Restaurant (Tiancheng Yinzuo Building 3 Branch),Nanchang,30.289940,120.207477,30.0,Fast Food Restaurant;Tea Restaurant,10:00,19:00,Hangzhou East Station,"120.212605,30.290846",30.290846,120.212605,4.2
Green Tea Restaurant (Hangzhou East Station MixC Branch),Nanchang,30.293504,120.217725,74.0,Chinese Restaurant;Chinese Restaurant,10:30,21:30,Hangzhou East Station,"120.212605,30.290846",30.290846,120.212605,4.7
Man Wah Ice Room (Hangzhou East Station MixC Branch),Nanchang,30.294025,120.217615,57.0,Food Service Related;Food Service Related,10:00,21:00,Hangzhou East Station,"120.212605,30.290846",30.290846,120.212605,4.4
Real Kung Fu Restaurant (Nanchang West Station),Nanchang,28.626458,115.796782,100.0,Food Service Related;Food Service Related,11:00,21:00,Nanchang West Station,"115.792938,28.622886",28.622886,115.792938,3.7
Mi Chu Memory Restaurant (Xinlv Mingyue Mansion Branch),Nanchang,28.616407,115.792685,100.0,Chinese Restaurant;Chinese Restaurant,11:00,21:00,Nanchang West Station,"115.792938,28.622886",28.622886,115.792938,3.9
Spicy Stir-Fried Pork Theme Restaurant (China Resources Triumph Arch Branch),Nanchang,28.621543,115.801287,44.0,Chinese Restaurant;Chinese Restaurant,10:30,22:00,Nanchang West Station,"115.792938,28.622886",28.622886,115.792938,4.5
Railway Mansion City Plaza Grand Hotel Chinese Restaurant,Nanchang,30.243947,120.182733,100.0,Chinese Restaurant;Chinese Restaurant,11:00,21:00,Hangzhou Station,"120.182860,30.243482",30.243482,120.182860,3.8
Hangzhou Hongxing Cultural Hotel - Jade Dragonfly Restaurant,Nanchang,30.243913,120.179120,114.0,Chinese Restaurant;Chinese Restaurant,11:00,21:00,Hangzhou Station,"120.182860,30.243482",30.243482,120.182860,3.9
Jade Dragonfly Restaurant,Nanchang,30.243917,120.178859,78.0,Chinese Restaurant;Chinese Restaurant,17:00,20:00,Hangzhou Station,"120.182860,30.243482",30.243482,120.182860,4.5
Baozhongbao Food Court,Nanchang,30.247432,120.180539,100.0,Chinese Restaurant;General Restaurant,16:30,21:00,Hangzhou Station,"120.182860,30.243482",30.243482,120.182860,4.5
Hangzhou Postal Staff Canteen (Hangzhou Postal Hub Building Branch),Nanchang,30.248660,120.184147,100.0,Chinese Restaurant;Chinese Restaurant,11:00,21:00,Hangzhou Station,"120.182860,30.243482",30.243482,120.182860,3.6
Tiantian Restaurant (Erqi South Road),Nanchang,28.658575,115.917769,100.0,Chinese Restaurant;Chinese Restaurant,11:00,21:00,Nanchang Station,"115.919876,28.661832",28.661832,115.919876,3.5
Affordable Restaurant,Nanchang,28.665728,115.918452,100.0,Chinese Restaurant;Chinese Restaurant,11:00,21:00,Nanchang Station,"115.919876,28.661832",28.661832,115.919876,3.7
Bacun Restaurant (Railway Bacun East District Branch),Nanchang,28.662429,115.924649,100.0,Chinese Restaurant;Chinese Restaurant,04:30,21:00,Nanchang Station,"115.919876,28.661832",28.661832,115.919876,3.7
Fang's Flavor Eatery (COFCO · Jianfa · Xiangyun Yuefu Branch),Nanchang,28.639130,115.865311,100.0,Chinese Restaurant;Chinese Restaurant,11:00,21:00,Ji Hotel Nanchang Chaoyang Xihu Wanda Joy City Hotel,"115.862351,28.641395",28.641395,115.862351,3.9
Xiangni Restaurant (Zhongliang·Jianda·Xiangyun Yuefu Branch),Nanchang,28.639754,115.866252,100.0,Chinese Restaurant;Chinese Restaurant,11:00,21:00,Ji Hotel Nanchang Chaoyang Xihu Wanda Joy City Hotel,"115.862351,28.641395",28.641395,115.862351,3.9
Benjie Residential Hotpot (Jiulonghu Branch),Nanchang,28.624009,115.781954,100.0,Chinese Restaurant;Hot Pot,10:00,22:00,Ji Hotel Nanchang West Station Hotel,"115.788671,28.626964",28.626964,115.788671,4.6
Rao's Flavor Jiangxi Cuisine Theme Restaurant (Yulongyuan Yiyuan Branch),Nanchang,28.628940,115.801558,102.0,Chinese Restaurant;Chinese Restaurant,09:00,21:00,Ji Hotel Nanchang West Station Hotel,"115.788671,28.626964",28.626964,115.788671,4.5
Ameigo Meiguo • Yungui Sichuan Bistro (Causeway Bay T16 Branch),Nanchang,28.700373,115.867503,91.0,Food Service Related;Food Service Related,11:00,21:30,Ji Hotel Nanchang Honggutan Times Square Hotel,"115.865000,28.697100",28.697100,115.865000,4.4
Zhu Guangyu Hot Pot Restaurant (Causeway Bay Plaza Branch),Nanchang,28.700295,115.867744,109.0,Chinese Restaurant;Hot Pot,11:00,22:00,Ji Hotel Nanchang Honggutan Times Square Hotel,"115.865000,28.697100",28.697100,115.865000,4.6
Jordan Tea Restaurant (Nanchang T16 Shopping Center Branch),Nanchang,28.700435,115.867547,82.0,Food Service Related;Food Service Related,10:00,22:00,Ji Hotel Nanchang Honggutan Times Square Hotel,"115.865000,28.697100",28.697100,115.865000,4.4
Yueyan · Traditional Cantonese Seafood Restaurant,Nanchang,28.685704,115.844233,28.0,Chinese Restaurant;Seafood Restaurant,11:00,21:00,Home Inn - Nanchang Honggutan Phoenix Middle Avenue Wanda Plaza Branch,"115.844574,28.685926",28.685926,115.844574,4.0
Fishing Cat Tang Yun Restaurant,Nanchang,28.685755,115.844961,68.0,购物相关场所;购物相关场所,11:00,21:00,Home Inn - Nanchang Honggutan Phoenix Middle Avenue Wanda Plaza Branch,"115.844574,28.685926",28.685926,115.844574,4.3
Mushroom Dining Restaurant (Honggutan Branch),Nanchang,28.685146,115.845277,91.0,Chinese Restaurant;Chinese Restaurant,16:00,22:00,Home Inn - Nanchang Honggutan Phoenix Middle Avenue Wanda Plaza Branch,"115.844574,28.685926",28.685926,115.844574,4.6
Lanxi Garden · Western Cuisine (Honggutan Branch),Nanchang,28.687454,115.843580,75.0,Foreign Restaurant;Western Restaurant,11:00,23:00,Home Inn - Nanchang Honggutan Phoenix Middle Avenue Wanda Plaza Branch,"115.844574,28.685926",28.685926,115.844574,4.9
Jixing Pavilion Tea Restaurant (Liantai·Xiangyu Central A Zone Branch),Nanchang,28.684350,115.842379,100.0,Fast Food Restaurant;Tea Restaurant,10:00,20:00,Home Inn - Nanchang Honggutan Phoenix Middle Avenue Wanda Plaza Branch,"115.844574,28.685926",28.685926,115.844574,3.9
Wanguo International Grand Hotel (Bayi Square Branch) - Restaurant,Nanchang,28.663552,115.909550,100.0,Chinese Restaurant;Chinese Restaurant,11:00,21:00,Home Inn · Neo - Nanchang Bayi Square Dinggong Road South Metro Station Branch,"115.911202,28.662060",28.662060,115.911202,3.9
Nanbin Restaurant (Nanbin International Financial Building Branch),Nanchang,28.662993,115.908445,100.0,Chinese Restaurant;Chinese Restaurant,11:00,21:00,Home Inn · Neo - Nanchang Bayi Square Dinggong Road South Metro Station Branch,"115.911202,28.662060",28.662060,115.911202,3.8
Huimin Restaurant (Zhanqian Road Branch),Nanchang,28.662001,115.914338,100.0,Chinese Restaurant;Chinese Restaurant,09:00,22:00,Home Inn · Neo - Nanchang Bayi Square Dinggong Road South Metro Station Branch,"115.911202,28.662060",28.662060,115.911202,4.1
Huiting Bauhinia Banquet,Nanchang,28.738823,115.832759,93.0,Chinese Restaurant;Chinese Restaurant,17:00,21:30,Orange Hotel Nanchang Zijing Night Market Finance University Hotel,"115.833462,28.737963",28.737963,115.833462,4.5
Huitouke Restaurant (Jinpu Yiyuan Branch),Nanchang,28.735889,115.833366,100.0,Chinese Restaurant;Chinese Restaurant,09:30,22:00,Orange Hotel Nanchang Zijing Night Market Finance University Hotel,"115.833462,28.737963",28.737963,115.833462,4.0
Tasty Restaurant (Maple Love Garden Branch),Nanchang,28.734032,115.838138,100.0,Chinese Restaurant;Chinese Restaurant,08:00,22:00,Orange Hotel Nanchang Zijing Night Market Finance University Hotel,"115.833462,28.737963",28.737963,115.833462,4.3
Grand Skylight Garden International Hotel Buffet Restaurant,Nanchang,28.557472,115.935644,100.0,Food Service Related;Food Service Related,17:30,20:30,Jialite Garden International Hotel Nanchang County (Chengbi Lake Branch),"115.935652,28.556998",28.556998,115.935652,4.3
Tomahawk Steakhouse (Xiyue City Lifestyle Plaza Branch),Nanchang,28.553844,115.938373,97.0,Foreign Restaurant;Western Restaurant|Foreign Restaurant;牛扒店(扒房),10:00,22:00,Jialite Garden International Hotel Nanchang County (Chengbi Lake Branch),"115.935652,28.556998",28.556998,115.935652,4.5
Gurut Grilled Meat Buffet Restaurant (Liantang Xiyue City Branch),Nanchang,28.553655,115.938210,56.0,Chinese Restaurant;Chinese Restaurant,16:00,21:00,Jialite Garden International Hotel Nanchang County (Chengbi Lake Branch),"115.935652,28.556998",28.556998,115.935652,4.4
Affordable Eatery (Erqi North Road Branch),Nanchang,28.674662,115.918647,100.0,Chinese Restaurant;Chinese Restaurant,11:00,21:00,Home Inn · Neo - Nanchang Bayi Square Shida South Road Metro Station Branch,"115.921446,28.673967",28.673967,115.921446,3.7
Baiwei Restaurant (Shunwai Banbian Street),Nanchang,28.671558,115.920089,100.0,Chinese Restaurant;Chinese Restaurant,11:00,21:00,Home Inn · Neo - Nanchang Bayi Square Shida South Road Metro Station Branch,"115.921446,28.673967",28.673967,115.921446,3.8
Morning Light Small Restaurant (Shida South Road Branch),Nanchang,28.670200,115.924402,13.0,Chinese Restaurant;Chinese Restaurant,10:00,22:00,Home Inn · Neo - Nanchang Bayi Square Shida South Road Metro Station Branch,"115.921446,28.673967",28.673967,115.921446,3.8
Northwest Tea Restaurant,Nanchang,28.627636,115.907305,54.0,Fast Food Restaurant;Tea Restaurant,11:00,21:00,Home Inn · Neo - Nanchang Yingbin Avenue Jiangling Branch,"115.907234,28.627121",28.627121,115.907234,4.1
Budget Restaurant (Jiangling East First Road),Nanchang,28.625435,115.909702,100.0,Chinese Restaurant;Chinese Restaurant,11:00,21:00,Home Inn · Neo - Nanchang Yingbin Avenue Jiangling Branch,"115.907234,28.627121",28.627121,115.907234,3.6
Fujian Cai · Ah Song Wellness Beef Restaurant (Xianghu Venice Garden Branch),Nanchang,28.630579,115.901176,100.0,Food Service Related;Food Service Related,11:00,21:00,Home Inn · Neo - Nanchang Yingbin Avenue Jiangling Branch,"115.907234,28.627121",28.627121,115.907234,4.2
Shangpin Steak Western Restaurant,Nanchang,28.579748,115.789593,100.0,Fast Food Restaurant;Tea Restaurant,11:00,21:00,Pullman Nanchang Sunac Hotel,"115.795978,28.580284",28.580284,115.795978,3.7
Sunac Mercure Hotel - Western Restaurant,Nanchang,28.584206,115.788629,100.0,Food Service Related;Food Service Related,11:00,21:00,Pullman Nanchang Sunac Hotel,"115.795978,28.580284",28.580284,115.795978,3.7
China Railway 18th Bureau Restaurant (Wanda Cultural Tourism City K Zone Branch),Nanchang,28.565823,115.803189,100.0,公司企业;公司;公司,11:00,21:00,Pullman Nanchang Sunac Hotel,"115.795978,28.580284",28.580284,115.795978,3.6
Air China Interstellar Restaurant,Nanchang,28.655783,115.826237,100.0,Chinese Restaurant;Chinese Restaurant,11:00,21:00,Jiangxi Qianhu Guesthouse,"115.807273,28.653157",28.653157,115.807273,3.9
Food Delight in Autumn,Nanchang,28.675702,115.914255,82.0,Chinese Restaurant;Chinese Restaurant,12:00,20:30,Orange Hotel Nanchang Bayi Square Provincial Art Museum,"115.913792,28.673445",28.673445,115.913792,4.6
Huang's Clay Pot Soup (East Plaza Road Branch),Nanchang,28.671392,115.909792,100.0,Chinese Restaurant;Chinese Restaurant,02:30,24:00,Orange Hotel Nanchang Bayi Square Provincial Art Museum,"115.913792,28.673445",28.673445,115.913792,4.7
Laosan Restaurant (Weidong Garden Phase II Zone 7 Branch),Nanchang,28.678075,115.844245,100.0,Chinese Restaurant;Chinese Restaurant,09:00,22:00,Vienna Hotel (5.0 Nanchang Honggutan Wanda Branch),"115.842383,28.678757",28.678757,115.842383,4.0
Yachang Art Garden Tea Restaurant,Nanchang,28.682593,115.845199,268.0,Fast Food Restaurant;Tea Restaurant,10:00,23:00,Vienna Hotel (5.0 Nanchang Honggutan Wanda Branch),"115.842383,28.678757",28.678757,115.842383,4.2
People's Commune Canteen (Cuiyuan Road Branch),Nanchang,28.674279,115.844188,100.0,Chinese Restaurant;Chinese Restaurant,09:00,21:30,Vienna Hotel (5.0 Nanchang Honggutan Wanda Branch),"115.842383,28.678757",28.678757,115.842383,3.5
Sister Lan Restaurant,Nanchang,28.658186,115.889287,100.0,Chinese Restaurant;Chinese Restaurant,11:00,21:00,Grace Select Hotel (Nanchang Tengwang Pavilion Bayi Square Branch),"115.888221,28.659588",28.659588,115.888221,3.8
Li Wangjiu Restaurant,Nanchang,28.658299,115.892086,100.0,Food Service Related;Food Service Related,11:00,21:00,Grace Select Hotel (Nanchang Tengwang Pavilion Bayi Square Branch),"115.888221,28.659588",28.659588,115.888221,3.8
Shihui Restaurant (Hongcheng Road Branch),Nanchang,28.655212,115.886039,100.0,Chinese Restaurant;Chinese Restaurant,08:00,22:00,Grace Select Hotel (Nanchang Tengwang Pavilion Bayi Square Branch),"115.888221,28.659588",28.659588,115.888221,4.2
Peony Pavilion (Fish Soup Rice),Nanchang,28.575634,115.885676,54.0,Chinese Restaurant;Chinese Restaurant,17:00,21:00,Nanchang Kamei Travel City International Hotel (Xianghu Nanchang Medical College Branch),"115.890116,28.577148",28.577148,115.890116,4.6
Lu Ming Cantonese Dim Sum (Nanchang County Xianghu Branch),Nanchang,28.574710,115.885639,29.0,Fast Food Restaurant;Tea Restaurant,11:00,21:00,Nanchang Kamei Travel City International Hotel (Xianghu Nanchang Medical College Branch),"115.890116,28.577148",28.577148,115.890116,4.3
Hong Kong-Style BBQ Fast Food Restaurant (Lakeside Town Commercial Street Branch),Nanchang,28.574341,115.884888,100.0,Food Service Related;Food Service Related,09:00,22:30,Nanchang Kamei Travel City International Hotel (Xianghu Nanchang Medical College Branch),"115.890116,28.577148",28.577148,115.890116,3.8
Huike Small Restaurant (Nanchang Residential Theme Park South Zone Branch),Nanchang,28.593833,115.886048,100.0,Chinese Restaurant;Chinese Restaurant,11:00,21:00,Nanchang Tianmu Grand Hotel,"115.899631,28.602712",28.602712,115.899631,3.7
Jiangxin Restaurant,Nanchang,28.587744,115.907633,100.0,Chinese Restaurant;Chinese Restaurant,09:00,21:00,Nanchang Tianmu Grand Hotel,"115.899631,28.602712",28.602712,115.899631,4.2
Oriental Grandview Garden Hotel - Yijing Revolving Restaurant,Nanchang,28.678026,115.886839,144.0,Foreign Restaurant;Western Restaurant,16:30,20:00,Lavande Hotel · Nanchang Tengwang Pavilion Wanshou Palace Metro Station Branch,"115.885196,28.676745",28.676745,115.885196,4.2
MIYA·Miyang Freedom Restaurant,Nanchang,28.678785,115.886451,60.0,Foreign Restaurant;Foreign Restaurant,10:00,21:00,Lavande Hotel · Nanchang Tengwang Pavilion Wanshou Palace Metro Station Branch,"115.885196,28.676745",28.676745,115.885196,4.4
Old Flavor Restaurant (Zhangjiang Road Branch),Nanchang,28.678848,115.883719,105.0,Chinese Restaurant;Chinese Restaurant,10:00,22:30,Lavande Hotel · Nanchang Tengwang Pavilion Wanshou Palace Metro Station Branch,"115.885196,28.676745",28.676745,115.885196,4.0
Xiao Liu Restaurant,Nanchang,28.673557,115.884538,100.0,Fast Food Restaurant;Fast Food Restaurant,11:00,21:00,Lavande Hotel · Nanchang Tengwang Pavilion Wanshou Palace Metro Station Branch,"115.885196,28.676745",28.676745,115.885196,4.0
Little Dot Restaurant,Nanchang,28.668202,115.907276,100.0,Food Service Related;Food Service Related,11:00,21:00,Jinjiang Inn Nanchang Bayi Square Yongshu Road Metro Station Hotel,"115.903680,28.667162",28.667162,115.903680,4.0
Donghu District Vegetarian Delight Restaurant,Nanchang,28.683893,115.889614,27.0,Chinese Restaurant;中式素菜馆,17:30,20:00,Home Inn - Nanchang Tengwang Pavilion Bayi Uprising Memorial Hall Branch,"115.890588,28.683650",28.683650,115.890588,4.6
Ameigo Meiguo • Yungui Sichuan Bistro (Causeway Bay T16 Branch),Nanchang,28.700373,115.867503,91.0,Food Service Related;Food Service Related,11:00,21:30,Orange Hotel Nanchang Honggutan Times Square Hotel,"115.867000,28.699400",28.699400,115.867000,4.4
Zhu Guangyu Hot Pot Restaurant (Causeway Bay Plaza Branch),Nanchang,28.700295,115.867744,109.0,Chinese Restaurant;Hot Pot,11:00,22:00,Orange Hotel Nanchang Honggutan Times Square Hotel,"115.867000,28.699400",28.699400,115.867000,4.6
Jordan Tea Restaurant (Nanchang T16 Shopping Center Branch),Nanchang,28.700435,115.867547,82.0,Food Service Related;Food Service Related,10:00,22:00,Orange Hotel Nanchang Honggutan Times Square Hotel,"115.867000,28.699400",28.699400,115.867000,4.4
Jinxi Home (Causeway Bay Branch),Nanchang,28.700108,115.868188,26.0,Foreign Restaurant;韩国料理,10:00,21:00,Orange Hotel Nanchang Honggutan Times Square Hotel,"115.867000,28.699400",28.699400,115.867000,4.0
Issho Sukiyaki (Nanchang T16 Shopping Center Branch),Nanchang,28.700575,115.867675,194.0,Foreign Restaurant;Japanese Cuisine,17:00,21:30,Orange Hotel Nanchang Honggutan Times Square Hotel,"115.867000,28.699400",28.699400,115.867000,4.5
Zhengwei Restaurant,Nanchang,28.999457,115.910318,100.0,Chinese Restaurant;Chinese Restaurant,11:00,21:00,Xiangshan Forest Park,"115.966089,28.951573",28.951573,115.966089,3.8
Old Place Restaurant,Nanchang,28.996346,115.905953,100.0,Chinese Restaurant;Chinese Restaurant,12:00,19:00,Xiangshan Forest Park,"115.966089,28.951573",28.951573,115.966089,3.7
Jianhua Restaurant (S509 Branch),Nanchang,29.010993,115.913387,57.0,Chinese Restaurant;Chinese Restaurant,09:30,21:00,Xiangshan Forest Park,"115.966089,28.951573",28.951573,115.966089,4.1
Yunlin Mountain Hotel · Meihu Chinese Restaurant,Nanchang,28.607862,115.912846,73.0,Chinese Restaurant;Chinese Restaurant,11:00,21:00,Qingyunpu Taoist Temple,"115.916642,28.604789",28.604789,115.916642,3.9
Ink Fragrance Restaurant,Nanchang,28.602499,115.911372,100.0,Chinese Restaurant;Chinese Restaurant,11:00,21:00,Qingyunpu Taoist Temple,"115.916642,28.604789",28.604789,115.916642,3.4
Wu's Eatery (Hongling Building Branch),Nanchang,28.613977,115.907696,100.0,Chinese Restaurant;Chinese Restaurant,11:00,21:00,Qingyunpu Taoist Temple,"115.916642,28.604789",28.604789,115.916642,3.7
Sister Xiong Restaurant,Nanchang,28.607440,115.930285,100.0,Chinese Restaurant;Chinese Restaurant,11:00,21:00,Qingyunpu Taoist Temple,"115.916642,28.604789",28.604789,115.916642,2.9
Jiaxing Restaurant,Nanchang,28.617213,115.913810,100.0,Chinese Restaurant;Chinese Restaurant,11:00,21:00,Qingyunpu Taoist Temple,"115.916642,28.604789",28.604789,115.916642,3.8
