poi_name,latitude,longitude,address,poi_type
Viewing Fish at Flower Harbor,30.230233,120.139095,,attraction
Leifeng Pagoda Scenic Area,30.230934,120.148849,,attraction
Qinghefang Pedestrian Street,30.240073,120.168923,,attraction
Xiaohe Historical and Cultural District,30.308302,120.135337,,attraction
Broken Bridge and Melting Snow,30.258106,120.151299,,attraction
Bai Causeway,30.255701,120.149189,,attraction
Impression West Lake Show,30.250800,120.149800,,attraction
Nine Creeks and Misty Trees,30.202395,120.113350,,attraction
Zhejiang Provincial Museum (Gushan Branch),30.251243,120.143778,,attraction
Hangzhou Arts and Crafts Museum,30.315645,120.136930,,attraction
Kouzi International Hotel Restaurant,30.232386,120.149789,,restaurant
Willow Warbler on the Lake,30.238732,120.154521,,restaurant
West Lake Feast Lakeview Restaurant,30.236157,120.154292,,restaurant
Lotus Fragrance Residence Restaurant,30.230372,120.148032,,restaurant
Weilu · West Lake 1138 Cultural Tea Restaurant,30.230253,120.138864,,restaurant
West Lake Impression Restaurant,30.234732,120.156845,,restaurant
Zhiweiguan · Weizhuang (Yang Gong Di Branch),30.230581,120.137300,,restaurant
Zhanbi Tower · West Lake Lakeside Restaurant,30.247279,120.133313,,restaurant
Lianyu Garden Restaurant,30.247373,120.131962,,restaurant
Louwailou (Hangzhou West Lake Scenic Area Branch),30.250209,120.140723,,restaurant
Hangzhou Shangri-La · Coffee Garden,30.252574,120.137577,,restaurant
Twelve Hours Lakeside Restaurant,30.251519,120.131988,,restaurant
North China Hotel - Chinese Restaurant,30.253808,120.133460,,restaurant
Jiexiang Lou,30.229459,120.133953,,restaurant
Tulip Tea Dining (Taiziwan Park North Gate Welcome Pavilion Branch),30.227600,120.143830,,restaurant
Yunshe Tea Restaurant,30.227673,120.133043,,restaurant
Green Shade Restaurant,30.227666,120.132958,,restaurant
Haina Leisure Restaurant,30.224264,120.137429,,restaurant
Halal Yixiangyuan Restaurant - Roasted Lamb Ribs & Pilaf,30.224122,120.137461,,restaurant
Zheli Benwei,30.224114,120.137490,,restaurant
Halal Yanlan Home · Northwest Cuisine · Group Dining (Taiziwan Branch),30.224105,120.137483,,restaurant
Zizhen Garden Tea Banquet,30.225658,120.152509,,restaurant
Xiaolu Mansion · Republic Private Banquet,30.225240,120.143968,,restaurant
Xiaolu Creative Restaurant (Prince Bay Branch),30.225213,120.143880,,restaurant
One Lake Spring Restaurant,30.257141,120.158020,,restaurant
Green Tea Restaurant (Six Park Branch),30.257779,120.157824,,restaurant
Yixiangyuan Restaurant - Halal Ethnic Cuisine,30.257475,120.159475,,restaurant
Sullivan Western Restaurant (WAKE TOWN Commercial Street Branch),30.259038,120.159258,,restaurant
Wanghoulou · Chinese Restaurant,30.259017,120.159309,,restaurant
In the Corner Restaurant,30.260575,120.153651,,restaurant
Hangzhou Casablanca Music Bar & Restaurant,30.260378,120.157253,,restaurant
Longjing Courtyard Restaurant,30.214875,120.107925,,restaurant
Paper Kite · Fusion Restaurant · Bistro,30.240719,120.169041,,restaurant
Xiyue Garden Restaurant,30.239312,120.169339,,restaurant
"MaLaMaLa Garden Restaurant, Coffee & Afternoon Tea",30.239071,120.169689,,restaurant
Haipaihui Restaurant,30.240777,120.170435,,restaurant
Jiujiali · Creative Hangzhou Cuisine (Hefang Street Branch),30.240648,120.171031,,restaurant
Yuting Zhandie (Gulou Branch),30.239810,120.171980,,restaurant
Jiang Xiaoxie (Xinjiang Cuisine Restaurant · Hefang Street Branch),30.239330,120.171880,,restaurant
New Zhouji · Jiangnan Flavors in the Alley (Gulou Branch),30.237432,120.171040,,restaurant
Panfangchun Dumplings · Michelin Restaurant (Zhongshan South Road Branch),30.237205,120.171034,,restaurant
New Bailu (West Lake Intime Department Store Branch),30.242989,120.165847,,restaurant
Yiheng Yisu · Jixiang Restaurant (Gongchen Bridge Branch),30.317787,120.136903,,restaurant
BRIDGE · Western Restaurant,30.317777,120.136895,,restaurant
Baijia Family Restaurant (Wenzhou Road Branch),30.320706,120.141437,,restaurant
Courtyard Restaurant (Gongchen Bridge Branch),30.315401,120.138443,,restaurant
Pizza Italian Restaurant (Canal Street Branch),30.319066,120.144087,,restaurant
Haokelai Steak (Hangzhou Tianyang D32 Restaurant),30.314744,120.137545,,restaurant
Qianyu Qianwei (Canal Branch),30.321992,120.137046,,restaurant
Sanren Noodle Restaurant (Jinchang Wenhua Branch),30.312099,120.142601,,restaurant
Shida Home Happy Restaurant (Jirujiayuan Branch),30.317507,120.129761,,restaurant
Yu He Bistro & Canteen Restaurant,30.307864,120.135234,,restaurant
Lulege Cat Garden Restaurant,30.307912,120.136153,,restaurant
Heyixuan · Garden Restaurant,30.308787,120.134207,,restaurant
The 101st Garden Restaurant (Xiaohezhi Street Branch),30.308955,120.133764,,restaurant
Tengfei Small Eatery · Artisan Handmade · Tea & Wine Restaurant,30.308920,120.133695,,restaurant
Xintengfei Huayu Restaurant (Xiaohe Straight Street Branch),30.308929,120.133698,,restaurant
Ancient Path Lamb Flavor Restaurant,30.307053,120.137177,,restaurant
Yunshuiyao · Yunnan Flavor,30.306812,120.137098,,restaurant
Nongtangli (Xiaohe Branch),30.309394,120.133173,,restaurant
Geju Dining & Wine Lounge,30.306462,120.136888,,restaurant
Qianjiang Restaurant,30.259527,120.148472,,restaurant
Leshu Restaurant,30.257025,120.144486,,restaurant
Hangzhou West Lake Dianying Hotel · 1937 Restaurant,30.263206,120.155350,,restaurant
Hangzhou Xinxin Hotel 1913 Restaurant,30.255994,120.144148,,restaurant
Zhejiang West Lake Villa · Buffet Restaurant,30.256935,120.142147,,restaurant
Lanxuan Restaurant,30.215821,120.117607,,restaurant
Meiling Family Restaurant,30.215918,120.117925,,restaurant
Hangzhou West Lake Scenic Area Mountain View Garden Restaurant,30.216137,120.118931,,restaurant
Chalan Garden Restaurant (Jiuxi Branch),30.212569,120.117874,,restaurant
Funloop Fanglu · Lakeside Southern European Restaurant (West Lake Tiandi Branch),30.246602,120.158183,,restaurant
Dahua Hotel Chinese Restaurant (Minghu Garden),30.248644,120.159973,,restaurant
One Way Eat · Lakeside Restaurant · Taste West Lake,30.249628,120.160452,,restaurant
Hidden Lake Shangyue Restaurant,30.247175,120.160262,,restaurant
Liujia Hotel (Hangzhou West Lake Jiuxi Branch) · Restaurant,30.195991,120.113222,,restaurant
Jiulong Xiangzhang Courtyard Restaurant (Jiuxi Branch),30.193979,120.115111,,restaurant
Jiuxi Xiaozhu · Flavor-Seeking Restaurant (Jiuxi Branch),30.193690,120.115651,,restaurant
Hangzhou Millennium Resort Hotel - Shixi Restaurant,30.191025,120.115325,,restaurant
Shanghai Railway Qianjiang Hotel - Restaurant,30.190588,120.120679,,restaurant
Dazhaiyuan (Xixi Road),30.257620,120.092557,,restaurant
Fudi Restaurant,30.260346,120.095285,,restaurant
Fuyuan Xincun Senior Dining Restaurant,30.264739,120.094010,,restaurant
Tu Haha Music Bar (Taifu Plaza Branch),30.165000,120.285112,,restaurant
Radisson Blu Hotel Jiafeng Chinese Restaurant (Xiaoshan Branch),30.163626,120.284667,,restaurant
Qingzhu Music Bar & Restaurant,30.164001,120.283843,,restaurant
Qiandao Lake Golden Autumn Garden Hotel 4th Floor Music Restaurant,29.610814,119.142770,,restaurant
Qiangqiang Restaurant,29.608844,119.151917,,restaurant
Fangxin Restaurant,29.608854,119.153053,,restaurant
Shu Lao Hei Quzhou Cuisine Self-Service Restaurant (Zhonghe Middle Road Branch),30.254296,120.172149,,restaurant
Fangming Snacks,30.252551,120.170327,,restaurant
Cai Ji Nine-Meter Lamb Hotpot,30.251470,120.170428,,restaurant
Pizza Marzano Italian Restaurant (Xiaoshan MixC Mall Branch),30.181674,120.269350,,restaurant
Shangpin Restaurant,30.262778,120.160015,,restaurant
Sister Hong's Old Hotpot (Hangzhou Flagship Store),30.262199,120.160416,,restaurant
Great Northeast Aoxing Restaurant (Yigao Plaza Branch),30.274784,120.133338,,restaurant
Chengyuan Xinxiyang Restaurant (Wenyi West Road Branch),30.287817,120.080820,,restaurant
Ningkang Restaurant (Xixi Wisdom Building Branch),30.280132,120.087830,,restaurant
Xixi Station Tea Restaurant,30.280408,120.069749,,restaurant
Macau Chan Kwong Kee (Xiaoshan International Airport T4 Departure Mezzanine Branch),30.234878,120.431013,,restaurant
Original No.1 Restaurant,30.228891,120.426744,,restaurant
Go Wild Restaurant,30.238984,120.446523,,restaurant
Golden Pig,30.262217,120.160761,,restaurant
Quzhou Farmhouse Cuisine Self-service Restaurant,30.315386,120.312897,,restaurant
Hangquji Self-Service Restaurant (Jinsha Lake Branch),30.310383,120.321309,,restaurant
Chef Li's Dongpo Pork Self-Service Restaurant,30.310175,120.316175,,restaurant
Flower Flavor Restaurant,30.469781,119.769475,,restaurant
Xiaozhu Jiangxian Restaurant (Xinhu Golden Pond Branch),30.470169,119.768906,,restaurant
Zhongda Langyuan Restaurant,30.470213,119.764273,,restaurant
Dianweiyuan Yunnan Cuisine Restaurant (Linping Branch),30.428199,120.304135,,restaurant
Yinhu · Qiushan Branch,30.429778,120.309058,,restaurant
Linping Hotel - Grand Restaurant,30.425491,120.305586,,restaurant
Mong Kok Tea Restaurant (Zijin Dream Plaza Branch),30.328490,120.066671,,restaurant
Heartfelt Restaurant,30.329625,120.070055,,restaurant
Haihong Self-service Restaurant,30.324328,120.063094,,restaurant
Shen Ji Hong Kong-Style Tea Restaurant (Tiancheng Yinzuo Building 3 Branch),30.289940,120.207477,,restaurant
Guangwei Xuan Hong Kong-Style Tea Restaurant (Hangzhou East Station),30.290107,120.209962,,restaurant
Airuiyun Restaurant (Dongxi Debi Yiyuan Branch),30.291007,120.217230,,restaurant
Jiafeng Weijia Grand Hotel Yunshui Restaurant (Wanyue City Snail Plaza Branch),30.460295,120.299338,,restaurant
Yihaoyuan · Self-Service Restaurant (Canal Branch),30.462277,120.298998,,restaurant
Shiweilai Restaurant,30.453525,120.293075,,restaurant
Hangzhou Yinlonghui Leisure Theme Hotel,30.179290,120.285795,"No. 698, Tonghui Middle Road",hotel
Vienna Hotel (5.0 Enhanced Version Hangzhou Tonglu Fuchun River Branch),29.789091,119.678699,"No. 1108, Chunjiang Road, Chengnan Subdistrict",hotel
Hangzhou Huaxi Grand Hotel,30.429301,120.305511,"No. 234, Donghu Middle Road, Donghu Subdistrict, Linping District, Hangzhou, Zhejiang Province",hotel
Manju Hotel (Hangzhou Xindeng Fuchun Port Branch),29.972619,119.737452,"No. 69, Dengcheng North Road, Fuyang District",hotel
Hangzhou Agricultural and Forestry University Qingshan Lake Kaiyuan Mingting Hotel,30.231863,119.731587,"No. 282, Qianwang Street, Jincheng Subdistrict",hotel
Hangzhou Run Hotel,30.007460,119.930448,"No. 118, Jiangbo Street, Building 2, Ruisheng Jiangpan Mingzuo",hotel
Grace Select Hotel Hangzhou Jinsha Lake Branch,30.319279,120.319595,"Room 117, Building 5, Tianfu Caizhi Building, No. 1288, Xingfu South Road, Economic and Technological Development Zone",hotel
Hangzhou West Lake Yiting Garden Hotel,30.328002,120.066380,"Building 5, Lansheng Jihong Commercial Complex, No. 36, Xinran Street, Sandun Town, Xihu District, Hangzhou (inside Zijin Dream Plaza)",hotel
Four Points by Sheraton Qiandao Lake Hotel,29.659642,119.003828,"No. 1699, Jixian Road, Qiandao Lake",hotel
Ji Hotel Jiande Xin'an River Riverside Hotel,29.473400,119.263000,"No. 283, Xin'an Road, Xin'anjiang, Jiande",hotel
Hangzhou West Lake Lakeside Fengqi Road Atour Hotel,30.263271,120.160516,"No. 503, Fengqi Road",hotel
MOXY Qiandao Lake Hotel,29.610373,119.144395,"Room 606, Building 6, Qingxi Intime City, Qiandao Lake Town, Chun'an County, Hangzhou, Zhejiang Province",hotel
Hangzhou Binjiang Hilton Hampton Hotel,30.214829,120.224650,"No. 599, Binfen Street, Binjiang District, Hangzhou, near Jiangnan Avenue",hotel
Hangzhou Luniu Hilton Garden Hotel,30.469522,119.769431,"No. 8, Xunli Street, Luniu Town",hotel
Home Inn - Hangzhou Xiaoshan International Airport Branch,30.231844,120.399721,"No. 55, Hongshan Avenue, Xiaoshan District, Hangzhou, Zhejiang Province (accessible via Metro Line 1 or airport shuttle to Xiaoshan Airport Station, contact hotel shuttle for pickup, inquire at hotel front desk for details)",hotel
Home Inn - Hangzhou West Lake Huanglong Vanke Center Yigao Branch,30.274559,120.133797,"No. 11, Huanggu Mountain Road, Xihu District",hotel
Home Inn·Neo - Hangzhou West Lake Lakeside Yintai in77 Branch,30.252786,120.172684,"No. 168, Zhonghe Middle Road",hotel
Hanting Hangzhou Xintiandi Hotel,30.323959,120.186371,"Building 15, Xintiandi Business Center, No. 630, Feijiatang Road, partial first floor, second to third floors",hotel
Hanting Hangzhou Donghu North Road Hotel,30.460900,120.297000,"No. 3, Hongda Road, Linping District",hotel
Orange Hotel Hangzhou Sports Center Xixi Wetland Hotel,30.281383,120.079410,"No. 738, Wener West Road, Xihu District",hotel
Zhengding International Airport,38.280523,114.698495,Xinhang Avenue,airport
Xiaoshan International Airport,30.234708,120.432413,"No. 1, Airport Road 1",airport
Tianhe International Airport,30.234708,120.432413,"No. 1, Airport Road 1",airport
Xinzheng International Airport,34.528476,113.856808,"No. 1, Yingbin Avenue, Zhengzhou Aviation Port District",airport
Gaoqi International Airport,24.539495,118.137090,"No. 121, Xiangyun First Road, Heshan Subdistrict",airport
Changle International Airport,25.928896,119.674042,Konggang Avenue,airport
Hangzhou East Station,30.290846,120.212605,"No. 1, Tiancheng Road",train_station
Fuzhou Station,26.113972,119.320571,"No. 502, Hualin Road",train_station
Hangzhou West Station,30.260867,120.091014,"No. 357, Tianmushan Road",train_station
Hangzhou South Station,30.172640,120.295589,"No. 328, Zhanqian Road, Xintang Subdistrict",train_station
Fuzhou South Station,25.986348,119.391728,"No. 2, Yongnan Road",train_station
Shangrao Station,28.490464,118.006797,"No. 666, Zhanqian Avenue",train_station
Rui'an Station,27.766806,120.581982,Jiangnan Avenue,train_station
Hangzhou Xiaoshan International Airport,30.234708,120.432413,"No. 1, Airport Road 1",airport
Fuzhou Changle International Airport,25.928896,119.674042,Konggang Avenue,airport
Airport Living Area Staff Restaurant,25.921943,119.656431,,restaurant
Jiayan Restaurant (Wenxinyuan Branch),26.110632,119.319754,,restaurant
No. 8 Restaurant (Xiyuan Branch),26.113752,119.328643,,restaurant
No. 6 Restaurant (Guishan Branch),26.113630,119.328650,,restaurant
Farmhouse Restaurant (Xiyuan Road Branch),26.122599,119.325070,,restaurant
Half City Smoke & Fire · BBQ · Music Bar (Houshanli Branch),26.123765,119.326985,,restaurant
Hangzhou Xiaoshan International Airport - No. 3 Restaurant,30.239055,120.446681,,restaurant
Air China Staff Restaurant (Air China Base Branch),30.238608,120.449026,,restaurant
Green Tea Restaurant (Hangzhou East Station MixC Branch),30.293504,120.217725,,restaurant
Minhua Ice Room (Hangzhou East Station MixC Branch),30.294025,120.217615,,restaurant
Xinjudian Restaurant,25.986874,119.388768,,restaurant
Jufeng Restaurant,25.984225,119.386025,,restaurant
Huoshi Buffet Restaurant (South Station · Sunshine City Shopping Center Branch),25.986880,119.384363,,restaurant
Fuxia Road Drive-Thru Restaurant,25.981642,119.378788,,restaurant
Linji Stewed Soup Chinese Restaurant,25.979412,119.379478,,restaurant
Zhongnan Jinshan Restaurant,30.223607,120.387163,,restaurant
Zhongze Mingzhou Restaurant,30.221547,120.387442,,restaurant
Lai's Noodle House (Binfen Community Branch),30.215658,120.225423,,restaurant
New Horizon Restaurant (Colorful Community Branch),30.215693,120.225437,,restaurant
Xiangyi Art Restaurant (Xinglanli Branch),30.214907,120.222038,,restaurant
Jin • JIN Restaurant (Xinglanli Branch),30.214704,120.220826,,restaurant
Meichu Restaurant (Internet of Things Branch),30.214613,120.220007,,restaurant
Wangchangmen Family Restaurant (Tangwan Mingyuan C District Branch),30.185347,120.278092,,restaurant
Jinlaihui Restaurant,30.181607,120.271366,,restaurant
Aru Restaurant (Yucai Xiyuan East District Branch),30.166872,120.279363,,restaurant
Songlin Courtyard Restaurant,29.473420,119.263381,,restaurant
Jinglan Muzhou Chinese Restaurant,29.474565,119.256898,,restaurant
Urban Shady Restaurant (Dianli Lane),29.473320,119.269756,,restaurant
Yangpang Restaurant,29.472644,119.271589,,restaurant
Xiao Deng Restaurant & Late-Night Snacks,29.473812,119.271911,,restaurant
Fish & Fisherman Restaurant (Former Hengfan Small Kitchen),30.232401,119.733129,,restaurant
Changhua Family Restaurant (Gongchen Mountain Community Branch),30.230115,119.730404,,restaurant
Fujia Flavor Restaurant,30.233800,119.733424,,restaurant
Lin'an Mansion Restaurant · Hangzhou Radisson Blu Hotel,30.230108,119.726766,,restaurant
Impression Nonglin Theme Restaurant,30.236039,119.727243,,restaurant
A Small Dish Chinese Restaurant (Xindeng Branch),29.972920,119.737209,,restaurant
Lin Pang Restaurant,29.974698,119.737549,,restaurant
Your Kitchen,29.974493,119.740403,,restaurant
Orange Restaurant,29.975241,119.735325,,restaurant
Nange Restaurant,29.969604,119.742271,,restaurant
Wanfulai Pickled Fish Restaurant,29.788424,119.678718,,restaurant
Longteng Restaurant (Shengtai Guangyu Apartment Branch),29.787523,119.680390,,restaurant
311 Korean Cuisine · Fusion Dining Restaurant,29.788294,119.682401,,restaurant
Village Neighbors (Sunshine Branch),29.789018,119.682646,,restaurant
Wangjiawei Restaurant,29.786549,119.682780,,restaurant
Li Bai Library Restaurant (Xintiandi Branch),30.323665,120.183016,,restaurant
Quzhou Farmhouse Cuisine Self-service Restaurant (Xinjingyuan Branch),30.320029,120.185830,,restaurant
Xintiandi Shangzuo Restaurant (Xintiandi Shangzuo East Tower Branch),30.327048,120.182046,,restaurant
Bayi Ke Buffet Restaurant (Zhongwang Juqi Building Branch),30.327854,120.189730,,restaurant
Taizhou Harbor Seafood Restaurant,30.328715,120.188059,,restaurant
Hangzhou Jinhao Radisson Hotel Western Restaurant,30.007159,119.929529,,restaurant
Silver Pot Food Court Express Restaurant (Shanshui International Center Plaza Branch),30.010162,119.927823,,restaurant
Wu Ji Tea Restaurant,30.010659,119.928010,,restaurant
Zhenqi Restaurant,30.003240,119.929961,,restaurant
Lvheyuan Eco Restaurant (Shanshui International Center Building 3 Branch),30.011818,119.928953,,restaurant
Shanshuijian Restaurant Chunwei Local Cuisine (Qiandao Lake Scenic Area Branch),29.652884,118.999254,,restaurant
Pizza Italian Restaurant (Wensan Road Branch),30.275505,120.133858,,restaurant
Zhang Zhengfa Tea Restaurant,30.274279,120.135553,,restaurant
East Orange West Wine Music Bistro,30.276072,120.134715,,restaurant
KFC (Hangzhou Qingfeng Branch),30.274022,120.135997,,restaurant
