restaurant_name,city,latitude,longitude,price_per_person,cuisine,opening_time,closing_time,nearby_attraction_name,nearby_attraction_coords,query_latitude,query_longitude,rating
Chongqing Restaurant (Jiahua Road Branch),Quanzhou,24.703018,118.452352,100.0,Chinese Restaurant;Chinese Restaurant,09:00,22:00,Anping Bridge,"118.448945,24.707569",24.707569,118.448945,4.0
Thumbs Up Fast Food Restaurant (Anping Branch),Quanzhou,24.702140,118.451665,24.0,Fast Food Restaurant;Fast Food Restaurant,08:00,21:00,Anping Bridge,"118.448945,24.707569",24.707569,118.448945,4.1
Chuan Yu Restaurant,Quanzhou,24.701145,118.451819,100.0,Chinese Restaurant;Chinese Restaurant,10:00,24:00,Anping Bridge,"118.448945,24.707569",24.707569,118.448945,3.7
Shiweitian Fast Food Restaurant,Quanzhou,24.701463,118.443982,100.0,Food Service Related;Food Service Related,11:00,21:00,Anping Bridge,"118.448945,24.707569",24.707569,118.448945,4.1
Anping Tea Restaurant,Quanzhou,24.705692,118.457473,76.0,Chinese Restaurant;Chinese Restaurant,17:00,21:30,Anping Bridge,"118.448945,24.707569",24.707569,118.448945,4.3
Shangyiyuan Fast Food Restaurant,Quanzhou,24.706721,118.459936,100.0,Chinese Restaurant;Chinese Restaurant,11:00,21:00,Anping Bridge,"118.448945,24.707569",24.707569,118.448945,4.0
Juxian Fast Food Restaurant (Hai Ba Long Building Branch),Quanzhou,24.697803,118.451460,100.0,Fast Food Restaurant;Fast Food Restaurant,09:00,22:00,Anping Bridge,"118.448945,24.707569",24.707569,118.448945,4.0
He Sanmiao Restaurant (Qiaocheng Jinsha City Renfu Garden Branch),Quanzhou,24.708459,118.461820,100.0,Chinese Restaurant;Chinese Restaurant,09:00,21:00,Anping Bridge,"118.448945,24.707569",24.707569,118.448945,4.0
Fourth Hospital Restaurant,Quanzhou,24.702665,118.436896,100.0,Chinese Restaurant;Chinese Restaurant,09:00,21:00,Anping Bridge,"118.448945,24.707569",24.707569,118.448945,4.0
Brothers Restaurant (Jiehong · Feast Branch),Quanzhou,24.707549,118.463624,100.0,Chinese Restaurant;Chinese Restaurant,08:30,22:00,Anping Bridge,"118.448945,24.707569",24.707569,118.448945,3.6
Lina Life Western and Chinese Music Restaurant (Quanzhou Flagship Store),Quanzhou,24.894490,118.588141,100.0,Fast Food Restaurant;Fast Food Restaurant,10:00,22:00,Tianhou Temple,"118.588755,24.895235",24.895235,118.588755,4.1
Victory Restaurant,Quanzhou,24.894445,118.587585,38.0,Chinese Restaurant;Chinese Restaurant,11:00,21:00,Tianhou Temple,"118.588755,24.895235",24.895235,118.588755,4.3
Self-Service Fast Food Restaurant,Quanzhou,24.897184,118.590875,100.0,Fast Food Restaurant;Fast Food Restaurant,11:00,21:00,Tianhou Temple,"118.588755,24.895235",24.895235,118.588755,3.4
Wanjia Restaurant,Quanzhou,24.895030,118.593372,100.0,Chinese Restaurant;Chinese Restaurant,11:00,21:00,Tianhou Temple,"118.588755,24.895235",24.895235,118.588755,3.8
Jixiang Restaurant (Dengfu Street Branch),Quanzhou,24.891104,118.592805,50.0,Chinese Restaurant;Chinese Restaurant,10:30,22:30,Tianhou Temple,"118.588755,24.895235",24.895235,118.588755,4.5
Zhen Hao Jia Self-Service Weighing Fast Food Restaurant (Dayang Branch),Quanzhou,24.895851,118.594983,33.0,Food Service Related;Food Service Related,10:00,22:00,Tianhou Temple,"118.588755,24.895235",24.895235,118.588755,4.2
Yi He Yuan Vegetarian Buffet Restaurant,Quanzhou,24.900897,118.592886,29.0,Chinese Restaurant;Chinese Restaurant|生活服务;生活服务场所;生活服务场所,17:00,20:30,Tianhou Temple,"118.588755,24.895235",24.895235,118.588755,4.6
Hao Cheng Cai Steakhouse (Tumen Main Store),Quanzhou,24.901835,118.591758,100.0,Foreign Restaurant;牛扒店(扒房),10:00,20:30,Tianhou Temple,"118.588755,24.895235",24.895235,118.588755,4.3
Xinjiang Rehe Cuisine Restaurant (Quanzhou Branch),Quanzhou,24.897409,118.596286,36.0,Food Service Related;Food Service Related,11:30,02:00,Tianhou Temple,"118.588755,24.895235",24.895235,118.588755,4.5
Minnan Flavor Restaurant (Qipanyuan Branch),Quanzhou,24.900000,118.594903,59.0,Chinese Restaurant;Fujian Cuisine,10:30,24:00,Tianhou Temple,"118.588755,24.895235",24.895235,118.588755,4.2
Brothers Restaurant (Qianban New Village West District Branch),Quanzhou,24.895574,118.596981,43.0,Chinese Restaurant;Chinese Restaurant,10:30,01:30,Tianhou Temple - Deji Gate Ruins,"118.588435,24.894531",24.894531,118.588435,4.4
Mr. Li's Music-Themed Restaurant,Quanzhou,24.674252,118.707382,100.0,Fast Food Restaurant;Fast Food Restaurant,11:00,21:00,Shishi Golden Coast,"118.707192,24.673685",24.673685,118.707192,3.8
Three Four Buds Beverage Shop,Quanzhou,24.674252,118.707382,90.0,Chinese Restaurant;Fujian Cuisine|Cold Beverage Shop;Cold Beverage Shop,11:00,21:00,Shishi Golden Coast,"118.707192,24.673685",24.673685,118.707192,3.8
Island Seafood House (Golden Coast Branch),Quanzhou,24.674513,118.707283,50.0,Chinese Restaurant;Chinese Restaurant,10:00,23:30,Shishi Golden Coast,"118.707192,24.673685",24.673685,118.707192,3.8
Binhai Seafood Restaurant,Quanzhou,24.672361,118.702255,81.0,Chinese Restaurant;Seafood Restaurant,10:00,23:00,Shishi Golden Coast,"118.707192,24.673685",24.673685,118.707192,4.3
Laijia Fast Food Restaurant,Quanzhou,24.683187,118.702781,100.0,Chinese Restaurant;Chinese Restaurant,11:00,21:00,Shishi Golden Coast,"118.707192,24.673685",24.673685,118.707192,3.8
Meiyu Delicious Restaurant,Quanzhou,24.683232,118.701637,100.0,Chinese Restaurant;Chinese Restaurant,11:00,21:00,Shishi Golden Coast,"118.707192,24.673685",24.673685,118.707192,0.2
Minshi Yu Seafood Restaurant,Quanzhou,24.685975,118.717825,70.0,Chinese Restaurant;Seafood Restaurant,08:00,24:00,Shishi Golden Coast,"118.707192,24.673685",24.673685,118.707192,4.0
Arriving with Light Music Dining Bar (Hongta Bay Branch),Quanzhou,24.685406,118.718791,100.0,Food Service Related;Food Service Related,11:00,21:00,Shishi Golden Coast,"118.707192,24.673685",24.673685,118.707192,3.9
No. 9 Kitchen Seafood Restaurant (Shishi Shili Golden Coast Hongta Bay Tourist Area Branch),Quanzhou,24.686294,118.717923,85.0,Chinese Restaurant;Seafood Restaurant,10:30,01:00,Shishi Golden Coast,"118.707192,24.673685",24.673685,118.707192,4.3
Haidibay Seafood Restaurant,Quanzhou,24.686325,118.717903,100.0,Chinese Restaurant;Seafood Restaurant,11:00,23:45,Shishi Golden Coast,"118.707192,24.673685",24.673685,118.707192,4.0
North Waterside Pavilion Tea Restaurant,Quanzhou,24.928607,118.584494,41.0,Fast Food Restaurant;Tea Restaurant,08:00,23:30,West Lake Park,"118.581605,24.929148",24.929148,118.581605,4.1
Yidu New Farmer Restaurant (Xinhua Community Jiannan Garden Branch),Quanzhou,24.925189,118.580905,60.0,Chinese Restaurant;Chinese Restaurant,16:30,23:00,West Lake Park,"118.581605,24.929148",24.929148,118.581605,4.2
Auntie's Chinese Restaurant (Zhongjun Xihu No.1 North District Branch),Quanzhou,24.931942,118.577349,61.0,Chinese Restaurant;Chinese Restaurant,18:00,21:00,West Lake Park,"118.581605,24.929148",24.929148,118.581605,4.0
Hao Zai Lai Restaurant (Zhongjun Xihu No.1 North District Branch),Quanzhou,24.931815,118.577244,41.0,Chinese Restaurant;Chinese Restaurant,10:00,24:00,West Lake Park,"118.581605,24.929148",24.929148,118.581605,4.0
Lakeside Garden Restaurant,Quanzhou,24.934433,118.579499,66.0,Chinese Restaurant;Chinese Restaurant,09:00,22:00,West Lake Park,"118.581605,24.929148",24.929148,118.581605,3.8
Baolong Xinhua Restaurant (Quanzhou Xinhua Community Baolong Garden Phase II Branch),Quanzhou,24.923299,118.581532,100.0,Chinese Restaurant;Chinese Restaurant,10:00,24:00,West Lake Park,"118.581605,24.929148",24.929148,118.581605,4.2
Quanzhou Taste Restaurant,Quanzhou,24.924267,118.585372,10.0,Chinese Restaurant;Chinese Restaurant,11:00,21:00,West Lake Park,"118.581605,24.929148",24.929148,118.581605,3.9
Star Fate Music Bar,Quanzhou,24.934758,118.584752,262.0,Entertainment Venue;KTV,11:00,21:00,West Lake Park,"118.581605,24.929148",24.929148,118.581605,4.0
Fumanxuan Restaurant,Quanzhou,24.935483,118.578573,100.0,Chinese Restaurant;Chinese Restaurant,11:00,21:00,West Lake Park,"118.581605,24.929148",24.929148,118.581605,4.0
Economy Restaurant,Quanzhou,24.934823,118.575415,100.0,Chinese Restaurant;Chinese Restaurant,10:00,22:00,West Lake Park,"118.581605,24.929148",24.929148,118.581605,4.2
Shanlin Hongshun Restaurant (Nan'an Branch),Quanzhou,24.818444,118.418512,93.0,Food Service Related;Food Service Related,09:00,22:00,Cai Family Ancient Residential Complex,"118.413917,24.813513",24.813513,118.413917,3.9
Farm Brothers Restaurant,Quanzhou,24.806396,118.417117,100.0,Chinese Restaurant;Chinese Restaurant,10:00,23:00,Cai Family Ancient Residential Complex,"118.413917,24.813513",24.813513,118.413917,3.9
Zunyi Restaurant,Quanzhou,24.811787,118.423795,100.0,Chinese Restaurant;Chinese Restaurant,11:00,21:00,Cai Family Ancient Residential Complex,"118.413917,24.813513",24.813513,118.413917,3.5
Zero Point Music Barbecue,Quanzhou,24.803832,118.417346,100.0,Chinese Restaurant;Chinese Restaurant,11:00,21:00,Cai Family Ancient Residential Complex,"118.413917,24.813513",24.813513,118.413917,3.8
Yishan Restaurant (Wenquan Xinducheng North District Branch),Quanzhou,24.806784,118.424633,100.0,Chinese Restaurant;Chinese Restaurant,11:00,21:00,Cai Family Ancient Residential Complex,"118.413917,24.813513",24.813513,118.413917,3.6
Good Wine Music Bar (Wenquan Xinducheng Branch),Quanzhou,24.807286,118.425284,100.0,Entertainment Venue;Bar|Chinese Restaurant;Chinese Restaurant,11:00,21:00,Cai Family Ancient Residential Complex,"118.413917,24.813513",24.813513,118.413917,4.0
Homeland Fast Food Restaurant,Quanzhou,24.801860,118.418307,100.0,医疗保健服务;医药保健销售店;医疗保健用品,11:00,21:00,Cai Family Ancient Residential Complex,"118.413917,24.813513",24.813513,118.413917,3.7
Ahu Restaurant (Century Garden A Zone Branch),Quanzhou,24.801996,118.419529,100.0,Chinese Restaurant;Chinese Restaurant,10:00,02:00,Cai Family Ancient Residential Complex,"118.413917,24.813513",24.813513,118.413917,4.0
Taste of Hong Kong Tea Restaurant,Quanzhou,24.808259,118.426920,47.0,Fast Food Restaurant;Tea Restaurant,11:00,21:30,Cai Family Ancient Residential Complex,"118.413917,24.813513",24.813513,118.413917,4.4
Yamigu Pizza and Steak Restaurant (Guanqiao Branch),Quanzhou,24.805503,118.425550,45.0,Food Service Related;Food Service Related,10:00,22:00,Cai Family Ancient Residential Complex,"118.413917,24.813513",24.813513,118.413917,4.1
Xinxiang Restaurant,Quanzhou,24.935964,118.595053,100.0,Chinese Restaurant;Chinese Restaurant,11:00,21:30,China Fujian-Taiwan Kinship Museum,"118.589887,24.934989",24.934989,118.589887,4.3
Qingyuan Chinese Restaurant,Quanzhou,24.938396,118.594929,65.0,Fast Food Restaurant;Fast Food Restaurant,11:00,22:00,China Fujian-Taiwan Kinship Museum,"118.589887,24.934989",24.934989,118.589887,4.1
Delicious Restaurant (Qingyuan Mountain Branch),Quanzhou,24.940220,118.595308,100.0,Food Service Related;Food Service Related,08:00,20:00,China Fujian-Taiwan Kinship Museum,"118.589887,24.934989",24.934989,118.589887,4.2
Under the Railway Restaurant,Quanzhou,24.943075,118.589191,100.0,Chinese Restaurant;Local Specialty Restaurant,11:00,21:00,China Fujian-Taiwan Kinship Museum,"118.589887,24.934989",24.934989,118.589887,4.1
Hao Shi Zai Restaurant,Quanzhou,24.941154,118.595897,100.0,Chinese Restaurant;Chinese Restaurant,11:00,21:00,China Fujian-Taiwan Kinship Museum,"118.589887,24.934989",24.934989,118.589887,4.1
Old Spring Mountain Restaurant,Quanzhou,24.941661,118.595652,48.0,Chinese Restaurant;Chinese Restaurant,16:30,21:30,China Fujian-Taiwan Kinship Museum,"118.589887,24.934989",24.934989,118.589887,4.1
First Restaurant (Information College First Canteen),Quanzhou,24.942700,118.585388,36.0,Chinese Restaurant;Chinese Restaurant,06:30,21:00,China Fujian-Taiwan Kinship Museum,"118.589887,24.934989",24.934989,118.589887,4.4
Fisher's Private Kitchen Quanzhou Cuisine,Quanzhou,24.913223,118.584174,69.0,Chinese Restaurant;Chinese Restaurant,11:00,21:30,Quanzhou Kaiyuan Temple,"118.585519,24.914168",24.914168,118.585519,4.6
Ah Zhong Seafood Restaurant (Xinhua North Road Branch),Quanzhou,24.916149,118.584741,52.0,Chinese Restaurant;Seafood Restaurant,16:30,22:30,Quanzhou Kaiyuan Temple,"118.585519,24.914168",24.914168,118.585519,4.4
Sunday Eight Fusion Restaurant (Binfa Fund Building Branch),Quanzhou,24.916196,118.584752,19.0,Fast Food Restaurant;Fast Food Restaurant,08:30,22:30,Quanzhou Kaiyuan Temple,"118.585519,24.914168",24.914168,118.585519,4.4
Red Mom Seafood Restaurant,Quanzhou,24.912722,118.587884,100.0,Chinese Restaurant;Seafood Restaurant,10:00,24:00,Quanzhou Kaiyuan Temple,"118.585519,24.914168",24.914168,118.585519,4.3
Three-Legged Tiger Stir-Fry Gout Pot (West Street Branch),Quanzhou,24.914277,118.582408,100.0,Chinese Restaurant;Chinese Restaurant,11:00,23:30,Quanzhou Kaiyuan Temple,"118.585519,24.914168",24.914168,118.585519,4.7
Kaiyuan Shengshi Plaza Restaurant,Quanzhou,24.917233,118.584235,100.0,Chinese Restaurant;Chinese Restaurant,11:00,21:00,Quanzhou Kaiyuan Temple,"118.585519,24.914168",24.914168,118.585519,3.9
Philly Queen Steak Buffet Restaurant (Kaiyuan Shengshi Plaza Branch),Quanzhou,24.917467,118.585093,74.0,Chinese Restaurant;Chinese Restaurant,10:00,21:30,Quanzhou Kaiyuan Temple,"118.585519,24.914168",24.914168,118.585519,4.4
Citong Zhai · Vegetarian Buffet Restaurant (Kaiyuan Shengshi Plaza Branch),Quanzhou,24.917628,118.584496,24.0,Food Service Related;Food Service Related,17:00,20:30,Quanzhou Kaiyuan Temple,"118.585519,24.914168",24.914168,118.585519,4.5
Zhang Lin A Shan Ginger Duck (Quanzhou Xinhua North Road Branch),Quanzhou,24.911231,118.583200,66.0,Chinese Restaurant;Chinese Restaurant,11:00,20:30,Quanzhou Kaiyuan Temple,"118.585519,24.914168",24.914168,118.585519,4.5
Bafanglin · Quanzhou Cuisine Restaurant (West Street Branch),Quanzhou,24.912134,118.588839,75.0,Chinese Restaurant;Chinese Restaurant,11:00,21:30,Quanzhou West Street,"118.585013,24.913284",24.913284,118.585013,4.7
Hewei Fast Food Restaurant,Quanzhou,24.737439,118.576122,100.0,Fast Food Restaurant;Fast Food Restaurant,11:00,21:00,Quanzhou South Station,"118.584161,24.737783",24.737783,118.584161,3.5
Xiang La Ge Fast Food Restaurant,Quanzhou,24.730996,118.569305,100.0,Food Service Related;Food Service Related,06:00,22:00,Quanzhou South Station,"118.584161,24.737783",24.737783,118.584161,3.9
Yijiaxing Restaurant,Quanzhou,24.732106,118.568531,100.0,Chinese Restaurant;Chinese Restaurant,11:00,21:00,Quanzhou South Station,"118.584161,24.737783",24.737783,118.584161,2.1
Zuo Bing Room Hong Kong-Style Tea Restaurant,Quanzhou,23.197975,113.792125,100.0,Fast Food Restaurant;Fast Food Restaurant,11:00,21:00,Zengcheng Station,"113.799503,23.203885",23.203885,113.799503,2.4
Zuolin Ice Room (Tea Restaurant and Chess Room),Quanzhou,23.197878,113.792047,100.0,Food Service Related;Food Service Related,06:30,22:00,Zengcheng Station,"113.799503,23.203885",23.203885,113.799503,4.4
Victoria Harbour Tea Restaurant (Minjie Dongyuefu Branch),Quanzhou,23.196421,113.790534,51.0,Chinese Restaurant;Chinese Restaurant,10:45,22:00,Zengcheng Station,"113.799503,23.203885",23.203885,113.799503,4.4
Bald En Nongjiale Restaurant,Quanzhou,23.217053,113.790997,100.0,Chinese Restaurant;Chinese Restaurant,09:00,21:00,Zengcheng Station,"113.799503,23.203885",23.203885,113.799503,4.1
Pepsi Joy Restaurant,Quanzhou,24.795173,118.601081,100.0,Chinese Restaurant;Chinese Restaurant,09:00,21:00,Quanzhou Jinjiang International Airport,"118.593047,24.794712",24.794712,118.593047,3.8
Drive-Thru Restaurant,Quanzhou,24.799145,118.586300,100.0,Fast Food Restaurant;Fast Food Restaurant,11:00,21:00,Quanzhou Jinjiang International Airport,"118.593047,24.794712",24.794712,118.593047,3.6
Jinhang Wellness Restaurant,Quanzhou,24.799100,118.586188,100.0,Chinese Restaurant;Chinese Restaurant,10:00,22:00,Quanzhou Jinjiang International Airport,"118.593047,24.794712",24.794712,118.593047,3.9
Chao Yue Xuan Restaurant,Quanzhou,22.988580,113.277198,100.0,Chinese Restaurant;Chinese Restaurant,06:00,01:30,Guangzhou South Station,"113.269097,22.988344",22.988344,113.269097,3.9
Xiangyu Jiawei Restaurant,Quanzhou,22.981550,113.265371,100.0,Chinese Restaurant;Chinese Restaurant,11:00,24:00,Guangzhou South Station,"113.269097,22.988344",22.988344,113.269097,3.7
Chao Yuan Restaurant,Quanzhou,22.988778,113.277390,100.0,Fast Food Restaurant;Fast Food Restaurant,11:00,21:00,Guangzhou South Station,"113.269097,22.988344",22.988344,113.269097,3.5
Tai Heng Ice Room (South Station Xi Street Branch),Quanzhou,22.984517,113.280317,39.0,Cold Beverage Shop;Cold Beverage Shop,11:00,21:00,Guangzhou South Station,"113.269097,22.988344",22.988344,113.269097,4.6
Manmailai Thai Restaurant (Guangzhou East Center · Guanghui New World Branch),Quanzhou,23.133988,113.599260,100.0,Foreign Restaurant;Western Restaurant,17:00,22:00,Guangzhou Xintang Station,"113.606262,23.134057",23.134057,113.606262,4.8
Four Seasons Delight Fusion Cuisine Restaurant (Guanghui Tiandi Branch),Quanzhou,23.134272,113.599019,146.0,Chinese Restaurant;Chinese Restaurant,11:00,22:00,Guangzhou Xintang Station,"113.606262,23.134057",23.134057,113.606262,4.3
MINBURN Mingben · Macau,Quanzhou,23.133767,113.599015,100.0,体育休闲服务场所;体育休闲服务场所,11:00,21:00,Guangzhou Xintang Station,"113.606262,23.134057",23.134057,113.606262,3.8
Fantas Steak Restaurant (Golden Coast City Plaza Branch),Quanzhou,23.127775,113.602253,92.0,Foreign Restaurant;牛扒店(扒房),10:30,21:30,Guangzhou Xintang Station,"113.606262,23.134057",23.134057,113.606262,4.4
PITA PITA Spanish Cuisine Restaurant (Xintang Guanghui Tiandi Branch),Quanzhou,23.133937,113.598136,172.0,Foreign Restaurant;Foreign Restaurant,11:30,22:30,Guangzhou Xintang Station,"113.606262,23.134057",23.134057,113.606262,4.2
Hub Station Fast Food Restaurant,Quanzhou,24.971945,118.564849,100.0,Fast Food Restaurant;Fast Food Restaurant,09:15,16:00,Quanzhou Station,"118.567400,24.972310",24.972310,118.567400,3.6
Green Source Neighborhood Restaurant,Quanzhou,24.973962,118.562939,100.0,Chinese Restaurant;Chinese Restaurant,11:00,21:00,Quanzhou Station,"118.567400,24.972310",24.972310,118.567400,3.5
Liaoyuan Neighborhood Restaurant,Quanzhou,24.973965,118.562914,52.0,Chinese Restaurant;Chinese Restaurant,06:00,23:30,Quanzhou Station,"118.567400,24.972310",24.972310,118.567400,4.4
Boss Time·Tea Restaurant,Quanzhou,24.967432,118.570541,79.0,Fast Food Restaurant;Fast Food Restaurant,17:00,21:00,Quanzhou Station,"118.567400,24.972310",24.972310,118.567400,4.5
Chinese Fast Food Restaurant (Tianyuan Future City Branch),Quanzhou,24.969217,118.559577,100.0,Fast Food Restaurant;Fast Food Restaurant,11:00,21:00,Quanzhou Station,"118.567400,24.972310",24.972310,118.567400,3.6
Meiyu Delicious Restaurant (Dongyuan Branch),Quanzhou,24.911243,118.755931,100.0,Chinese Restaurant;Chinese Restaurant,11:00,21:00,Quanzhou East Station,"118.769523,24.921998",24.921998,118.769523,3.7
Sea Source Restaurant (Dongyuan Branch),Quanzhou,24.915088,118.752800,100.0,Chinese Restaurant;Chinese Restaurant,10:00,22:00,Quanzhou East Station,"118.769523,24.921998",24.921998,118.769523,4.2
Guangzhou Feng·Attitude Hotel Restaurant,Quanzhou,23.150938,113.258589,100.0,Chinese Restaurant;Chinese Restaurant,11:00,21:00,Guangzhou Station,"113.257331,23.149243",23.149243,113.257331,3.6
iFUNANYA FOOD (Ifunya Restaurant),Quanzhou,23.151352,113.256330,100.0,Foreign Restaurant;Foreign Restaurant,11:00,21:00,Guangzhou Station,"113.257331,23.149243",23.149243,113.257331,3.6
A Pinch of Salt Restaurant and Café,Quanzhou,23.146393,113.257404,100.0,Food Service Related;Food Service Related,11:00,21:00,Guangzhou Station,"113.257331,23.149243",23.149243,113.257331,3.6
Kowloon Ice Room (Guangzhou Baima Clothing Market Branch),Quanzhou,23.146877,113.254422,58.0,Food Service Related;Food Service Related,10:00,18:00,Guangzhou Station,"113.257331,23.149243",23.149243,113.257331,4.6
Damascus Light Music Restaurant,Quanzhou,23.145499,113.257968,77.0,Chinese Restaurant;Chinese Restaurant,10:00,23:30,Guangzhou Station,"113.257331,23.149243",23.149243,113.257331,4.2
Pullman Guangzhou Baiyun Airport Hotel · Tianyuan Creative Chinese Restaurant,Quanzhou,23.388786,113.303939,195.0,Chinese Restaurant;Cantonese Cuisine,17:30,21:00,Baiyun International Airport,"113.307392,23.387375",23.387375,113.307392,4.3
Pullman Guangzhou Baiyun Airport Hotel · U8 Cuisine Restaurant,Quanzhou,23.388920,113.303728,175.0,Foreign Restaurant;Western Restaurant,11:00,21:00,Baiyun International Airport,"113.307392,23.387375",23.387375,113.307392,4.2
Zhongtu Restaurant (Guangzhou Baiyun International Airport Terminal 1),Quanzhou,23.382661,113.305204,100.0,Fast Food Restaurant;Fast Food Restaurant,11:00,21:00,Baiyun International Airport,"113.307392,23.387375",23.387375,113.307392,3.7
Tao Tao Ju Restaurant (Baiyun Airport T2 Branch),Quanzhou,23.396440,113.302356,109.0,Chinese Restaurant;Chinese Restaurant,06:00,21:00,Baiyun International Airport,"113.307392,23.387375",23.387375,113.307392,4.3
Tsui Wah Restaurant (T2 International Departure Branch),Quanzhou,23.397570,113.308578,45.0,Fast Food Restaurant;Tea Restaurant,07:00,22:00,Baiyun International Airport,"113.307392,23.387375",23.387375,113.307392,4.3
Minhua Ice Room (Guangzhou Oriental Baotai Branch),Quanzhou,23.149505,113.325236,58.0,Cold Beverage Shop;Cold Beverage Shop|Fast Food Restaurant;Fast Food Restaurant,08:00,22:00,Guangzhou East Station,"113.324964,23.150588",23.150588,113.324964,4.5
Wen Tong Ice Room (Oriental Baotai Branch),Quanzhou,23.149907,113.323959,50.0,Chinese Restaurant;Cantonese Cuisine,10:00,21:30,Guangzhou East Station,"113.324964,23.150588",23.150588,113.324964,4.6
Saizeriya Italian Restaurant (072 Oriental Baotai Plaza Branch),Quanzhou,23.148721,113.325496,34.0,Foreign Restaurant;Italian Restaurant,10:00,22:00,Guangzhou East Station,"113.324964,23.150588",23.150588,113.324964,4.6
Oyster Happiness · Happy Oyster Theme Restaurant,Quanzhou,23.148626,113.323387,100.0,Chinese Restaurant;Chinese Restaurant,11:00,21:00,Guangzhou East Station,"113.324964,23.150588",23.150588,113.324964,2.3
Sufu Cultural Arts Restaurant,Quanzhou,23.148390,113.323522,100.0,Chinese Restaurant;Cantonese Cuisine,11:00,21:00,Guangzhou East Station,"113.324964,23.150588",23.150588,113.324964,3.9
True Love Eatery,Quanzhou,24.899912,118.607285,100.0,Food Service Related;Food Service Related,10:00,20:00,Quanzhou Fengze Plaza Financial Street Atour Hotel,"118.607474,24.899894",24.899894,118.607474,4.2
Authentic Flavor Restaurant,Quanzhou,24.900111,118.608259,100.0,Chinese Restaurant;Chinese Restaurant,11:00,21:00,Quanzhou Fengze Plaza Financial Street Atour Hotel,"118.607474,24.899894",24.899894,118.607474,4.1
Luckin Coffee (Fengze Street Pacific Garden Branch),Quanzhou,24.902171,118.610118,15.0,Cafe;Cafe,11:00,21:00,Quanzhou Fengze Plaza Financial Street Atour Hotel,"118.607474,24.899894",24.899894,118.607474,4.5
Haoke Lai Steak (Quanzhou Fuxin Garden Restaurant),Quanzhou,24.900633,118.611190,100.0,Foreign Restaurant;Western Restaurant,10:30,22:00,Quanzhou Fengze Plaza Financial Street Atour Hotel,"118.607474,24.899894",24.899894,118.607474,4.7
Haochidian Restaurant (Dongtu Houbanshan East District Branch),Quanzhou,24.896290,118.603235,26.0,Chinese Restaurant;Chinese Restaurant,10:00,24:00,Quanzhou Fengze Plaza Financial Street Atour Hotel,"118.607474,24.899894",24.899894,118.607474,4.2
Marriott Fairfield Hotel Chinese Restaurant,Quanzhou,24.934451,118.653341,100.0,Chinese Restaurant;Chinese Restaurant,11:00,21:00,Quanzhou Fengze Marriott Fairfield Hotel,"118.653010,24.934883",24.934883,118.653010,3.8
Xuefu Seafood Restaurant (Xuefu Shangcheng Branch),Quanzhou,24.933770,118.652296,37.0,Chinese Restaurant;Chinese Restaurant,10:00,24:00,Quanzhou Fengze Marriott Fairfield Hotel,"118.653010,24.934883",24.934883,118.653010,4.1
Mountain and Sea New Restaurant,Quanzhou,24.938548,118.648584,23.0,Chinese Restaurant;Chinese Restaurant,10:00,24:00,Quanzhou Fengze Marriott Fairfield Hotel,"118.653010,24.934883",24.934883,118.653010,3.9
Alan Seafood Restaurant,Quanzhou,24.905978,118.605802,128.0,Chinese Restaurant;Seafood Restaurant,17:00,02:00,Ji Hotel Quanzhou Fengze Plaza Huxin Street,"118.606263,24.906247",24.906247,118.606263,4.1
Huali Music Restaurant & Bar,Quanzhou,24.906516,118.606802,83.0,Food Service Related;Food Service Related,20:00,03:00,Ji Hotel Quanzhou Fengze Plaza Huxin Street,"118.606263,24.906247",24.906247,118.606263,4.4
Aqiu Steakhouse (Huxin Street Branch),Quanzhou,24.906250,118.605429,100.0,Chinese Restaurant;Chinese Restaurant,11:00,20:30,Ji Hotel Quanzhou Fengze Plaza Huxin Street,"118.606263,24.906247",24.906247,118.606263,4.4
Bin Ge Seafood Restaurant,Quanzhou,24.906013,118.605297,67.0,Chinese Restaurant;Seafood Restaurant,17:00,23:30,Ji Hotel Quanzhou Fengze Plaza Huxin Street,"118.606263,24.906247",24.906247,118.606263,4.2
Miss Royal Fast Food Restaurant (Donghu Branch),Quanzhou,24.907218,118.604513,20.0,Chinese Restaurant;Chinese Restaurant,11:00,21:00,Ji Hotel Quanzhou Fengze Plaza Huxin Street,"118.606263,24.906247",24.906247,118.606263,3.9
Farmhouse Gourmet Restaurant,Quanzhou,24.957039,118.386528,100.0,Chinese Restaurant;Chinese Restaurant,11:00,21:00,Hanting Hotel Nan'an Zhongjun World City Huxin Road,"118.386297,24.956813",24.956813,118.386297,3.4
Huaqiao Grand Hotel - Restaurant,Quanzhou,24.957525,118.387225,100.0,Chinese Restaurant;Chinese Restaurant,11:00,21:00,Hanting Hotel Nan'an Zhongjun World City Huxin Road,"118.386297,24.956813",24.956813,118.386297,3.9
Hua Xing Fast Food Restaurant (Hexing Huayuan Branch),Quanzhou,24.955656,118.382939,100.0,Chinese Restaurant;Chinese Restaurant,10:00,20:00,Hanting Hotel Nan'an Zhongjun World City Huxin Road,"118.386297,24.956813",24.956813,118.386297,4.0
New Honghao Restaurant,Quanzhou,24.808288,118.579435,100.0,Chinese Restaurant;Chinese Restaurant,11:00,21:00,Jiyun Hotel (Quanzhou Jinjiang International Airport Wudian City Branch),"118.579673,24.809857",24.809857,118.579673,3.7
Xiaxing Mouse Brother Seafood Cuisine Restaurant,Quanzhou,24.807395,118.580606,100.0,Chinese Restaurant;Chinese Restaurant,11:00,21:00,Jiyun Hotel (Quanzhou Jinjiang International Airport Wudian City Branch),"118.579673,24.809857",24.809857,118.579673,3.7
Hong Kong Cantonese Dim Sum · Hong Kong-Style Tea Restaurant (Jinjiang Branch),Quanzhou,24.810919,118.582694,17.0,Fast Food Restaurant;Fast Food Restaurant,11:00,21:00,Jiyun Hotel (Quanzhou Jinjiang International Airport Wudian City Branch),"118.579673,24.809857",24.809857,118.579673,4.2
Baoshan Haixing Restaurant,Quanzhou,24.889784,118.649548,100.0,Chinese Restaurant;Chinese Restaurant,11:00,21:00,Quanzhou Guesthouse,"118.655171,24.885045",24.885045,118.655171,3.8
Jinbiao Tower Restaurant,Quanzhou,24.874189,118.657790,100.0,Chinese Restaurant;Chinese Restaurant,11:00,21:00,Quanzhou Guesthouse,"118.655171,24.885045",24.885045,118.655171,3.0
Red Heart Sweet Potato Porridge Express Restaurant (Donghai Branch),Quanzhou,24.872290,118.655164,17.0,Fast Food Restaurant;Fast Food Restaurant,11:00,21:00,Quanzhou Guesthouse,"118.655171,24.885045",24.885045,118.655171,3.8
Mom's Fast Food Restaurant (Donghai Bay Parent-Child Plaza Branch),Quanzhou,24.872033,118.654740,21.0,Fast Food Restaurant;Fast Food Restaurant,10:00,20:00,Quanzhou Guesthouse,"118.655171,24.885045",24.885045,118.655171,4.0
Hao Ke Lai Steakhouse (Quanzhou Donghai Bay Xinhua Du Restaurant),Quanzhou,24.871418,118.653567,66.0,Foreign Restaurant;Foreign Restaurant,10:00,22:00,Quanzhou Guesthouse,"118.655171,24.885045",24.885045,118.655171,4.5
Yuxin Seafood Restaurant (Tian'an Branch),Quanzhou,24.885522,118.592752,46.0,Chinese Restaurant;Seafood Restaurant|Chinese Restaurant;General Restaurant,17:00,21:30,Ji Hotel Quanzhou Puxi Wanda Jiangbin North Road,"118.589698,24.886232",24.886232,118.589698,4.8
Abo Beef Shop (Dengzhou Commercial City Resettlement Housing Branch),Quanzhou,24.885253,118.594977,30.0,Chinese Restaurant;Chinese Restaurant,10:30,24:00,Ji Hotel Quanzhou Puxi Wanda Jiangbin North Road,"118.589698,24.886232",24.886232,118.589698,4.5
A Liang Restaurant (Huai Fu Street Branch),Quanzhou,24.885262,118.596223,100.0,Chinese Restaurant;Chinese Restaurant,11:00,21:00,Ji Hotel Quanzhou Puxi Wanda Jiangbin North Road,"118.589698,24.886232",24.886232,118.589698,4.1
Lin Family Minnan Cuisine (Quanzhou Branch),Quanzhou,24.884716,118.596496,100.0,Chinese Restaurant;Fujian Cuisine,17:00,21:00,Ji Hotel Quanzhou Puxi Wanda Jiangbin North Road,"118.589698,24.886232",24.886232,118.589698,4.6
Yanzhi Lane Soup Dumplings,Quanzhou,24.903301,118.588315,100.0,Chinese Restaurant;Local Specialty Restaurant,09:00,20:00,Ji Hotel Quanzhou West Street Zhongshan Road,"118.588272,24.903599",24.903599,118.588272,4.7
Shuimen Guozi Old Shop (Shuimen Lane),Quanzhou,24.903078,118.587157,100.0,Chinese Restaurant;Chinese Restaurant,06:00,21:00,Ji Hotel Quanzhou West Street Zhongshan Road,"118.588272,24.903599",24.903599,118.588272,4.5
Stan Ginger Duck (Quanzhou Main Store),Quanzhou,24.903031,118.590654,100.0,Food Service Related;Food Service Related,10:30,20:30,Ji Hotel Quanzhou West Street Zhongshan Road,"118.588272,24.903599",24.903599,118.588272,4.6
West Street First House (Zhongshan Road Branch),Quanzhou,24.905770,118.589087,82.0,Food Service Related;Food Service Related,10:00,22:00,Ji Hotel Quanzhou West Street Zhongshan Road,"118.588272,24.903599",24.903599,118.588272,4.8
Shan Heyuan Vegetarian Restaurant (Baiyuan Road Branch),Quanzhou,24.903708,118.590841,35.0,Chinese Restaurant;中式素菜馆,17:00,20:00,Ji Hotel Quanzhou West Street Zhongshan Road,"118.588272,24.903599",24.903599,118.588272,4.4
Small Stove Restaurant (Qijing Road Branch),Quanzhou,24.885401,118.578230,22.0,Food Service Related;Food Service Related,10:30,24:00,Quanzhou·Jinjiang | AESTHETIC·DESIGNER Yuzhou International Hotel (Quanzhou Zhongshan Street Branch),"118.579555,24.886786",24.886786,118.579555,4.1
Delicious Restaurant (Baijie·Golden Street Branch),Quanzhou,24.883617,118.571776,13.0,Chinese Restaurant;Chinese Restaurant,10:30,21:00,Quanzhou·Jinjiang | AESTHETIC·DESIGNER Yuzhou International Hotel (Quanzhou Zhongshan Street Branch),"118.579555,24.886786",24.886786,118.579555,4.4
Amei Restaurant & Barbecue (Liuxia Garden Branch),Quanzhou,24.878405,118.580789,100.0,Chinese Restaurant;Chinese Restaurant,11:00,21:00,Quanzhou·Jinjiang | AESTHETIC·DESIGNER Yuzhou International Hotel (Quanzhou Zhongshan Street Branch),"118.579555,24.886786",24.886786,118.579555,3.7
Jinjiang Baixiang Century Hotel Western Restaurant,Quanzhou,24.791712,118.559784,131.0,Food Service Related;Food Service Related,18:00,21:30,Quanzhou Jinjiang Baixiang Century Hotel (Wudian City Branch),"118.560120,24.791292",24.791292,118.560120,4.3
Minlong Restaurant (Cangbian Xinyuan Branch),Quanzhou,24.784412,118.558610,100.0,Food Service Related;Food Service Related,09:00,22:00,Quanzhou Jinjiang Baixiang Century Hotel (Wudian City Branch),"118.560120,24.791292",24.791292,118.560120,3.7
Kuai'er Le Chinese Fast Food Restaurant,Quanzhou,24.783418,118.563231,100.0,Fast Food Restaurant;Fast Food Restaurant,10:00,20:30,Quanzhou Jinjiang Baixiang Century Hotel (Wudian City Branch),"118.560120,24.791292",24.791292,118.560120,4.3
Weimei Restaurant (Longgong Commercial Residential Building Branch),Quanzhou,24.903589,118.595795,15.0,Chinese Restaurant;Chinese Restaurant,17:00,19:30,Home Inn·Neo - Quanzhou Jiuyi Road West Street Ancient City Branch,"118.594325,24.905283",24.905283,118.594325,4.2
Yikouxiang Restaurant (Huafeng Community Branch),Quanzhou,24.891624,118.597577,100.0,Fast Food Restaurant;Fast Food Restaurant,11:00,21:00,Orange Hotel Quanzhou Wanda Quanshou Road,"118.596199,24.892604",24.892604,118.596199,4.1
Shucheng Fragrance Restaurant (Liuguan Road Branch),Quanzhou,24.894404,118.598392,37.0,Chinese Restaurant;Chinese Restaurant,16:00,02:00,Orange Hotel Quanzhou Wanda Quanshou Road,"118.596199,24.892604",24.892604,118.596199,4.3
Xinxiu Restaurant (Guangyi Garden Branch),Quanzhou,24.893592,118.599337,102.0,Chinese Restaurant;Chinese Restaurant,17:00,21:00,Orange Hotel Quanzhou Wanda Quanshou Road,"118.596199,24.892604",24.892604,118.596199,4.1
Hechu Flavor Self-Service Fast Food Restaurant (Dongjie No.10 District Branch),Quanzhou,24.911475,118.596001,28.0,Fast Food Restaurant;Fast Food Restaurant,11:00,20:30,Home Inn·Neo - Quanzhou Clock Tower West Street Kaiyuan Temple Branch,"118.597887,24.911346",24.911346,118.597887,4.1
Delicious Restaurant (Dongjie Branch),Quanzhou,24.912451,118.599995,24.0,Chinese Restaurant;Chinese Restaurant,11:00,21:00,Home Inn·Neo - Quanzhou Clock Tower West Street Kaiyuan Temple Branch,"118.597887,24.911346",24.911346,118.597887,4.1
You & Me,Quanzhou,24.911593,118.600496,35.0,Food Service Related;Food Service Related,10:30,20:00,Home Inn·Neo - Quanzhou Clock Tower West Street Kaiyuan Temple Branch,"118.597887,24.911346",24.911346,118.597887,4.2
Li Hao Tea Restaurant,Quanzhou,24.909813,118.595386,33.0,Fast Food Restaurant;Tea Restaurant,16:00,21:00,Home Inn·Neo - Quanzhou Clock Tower West Street Kaiyuan Temple Branch,"118.597887,24.911346",24.911346,118.597887,3.9
Ayán Diary · Restaurant (Licheng Branch),Quanzhou,24.910048,118.594914,61.0,Chinese Restaurant;Chinese Restaurant,11:00,21:30,Home Inn·Neo - Quanzhou Clock Tower West Street Kaiyuan Temple Branch,"118.597887,24.911346",24.911346,118.597887,4.7
L'UNICO Italian Restaurant (Quanzhou Branch),Quanzhou,24.866940,118.607888,283.0,Foreign Restaurant;Italian Restaurant,11:00,23:00,Quanzhou Quanshang Hilton Hotel,"118.608072,24.867114",24.867114,118.608072,4.5
Quanshang Hilton Hotel Hometown Chinese Restaurant (Quanshang Investment Building Branch),Quanzhou,24.866659,118.608394,189.0,Chinese Restaurant;Chinese Restaurant,17:30,22:00,Quanzhou Quanshang Hilton Hotel,"118.608072,24.867114",24.867114,118.608072,4.1
Lin's Hong Kong-Style Tea Restaurant,Quanzhou,24.865019,118.607394,100.0,Fast Food Restaurant;Tea Restaurant,10:00,21:00,Quanzhou Quanshang Hilton Hotel,"118.608072,24.867114",24.867114,118.608072,3.7
Kou Kou Fu Restaurant,Quanzhou,25.463178,118.262301,100.0,Chinese Restaurant;Chinese Restaurant,10:00,23:00,Dehua Wanjia International Hotel (Tea Ware City Branch),"118.275424,25.464316",25.464316,118.275424,4.1
Lianlian Small Restaurant (Happiness Garden Branch),Quanzhou,25.465092,118.260787,100.0,Chinese Restaurant;Chinese Restaurant,11:00,21:00,Dehua Wanjia International Hotel (Tea Ware City Branch),"118.275424,25.464316",25.464316,118.275424,4.0
Liming Restaurant (Xingfu Jiayuan Branch),Quanzhou,25.465357,118.260672,100.0,Chinese Restaurant;Chinese Restaurant,11:00,21:00,Dehua Wanjia International Hotel (Tea Ware City Branch),"118.275424,25.464316",25.464316,118.275424,3.6
Xinjiang Rehe Cuisine Restaurant,Quanzhou,24.815350,118.590528,68.0,Chinese Restaurant;Halal Restaurant,12:00,24:00,Orange Hotel Quanzhou Jinjiang International Airport Sunshine Road,"118.590626,24.814777",24.814777,118.590626,4.5
Lotus Garden Restaurant,Quanzhou,24.814924,118.589923,100.0,Chinese Restaurant;Chinese Restaurant,09:00,21:00,Orange Hotel Quanzhou Jinjiang International Airport Sunshine Road,"118.590626,24.814777",24.814777,118.590626,4.3
Stray Pet-Friendly Restaurant,Quanzhou,24.815027,118.589169,72.0,Chinese Restaurant;Chinese Restaurant,11:00,21:00,Orange Hotel Quanzhou Jinjiang International Airport Sunshine Road,"118.590626,24.814777",24.814777,118.590626,4.0
Xiaoxiangbo Fast Food Restaurant (Quanzhou Shuitou Branch),Quanzhou,24.701700,118.424280,100.0,Fast Food Restaurant;Fast Food Restaurant,10:30,22:00,Hanting Hotel Quanzhou Nan'an Shuitou Stone Material City,"118.423274,24.703732",24.703732,118.423274,4.1
Haokelai Steak (Shuitou Junhui Restaurant),Quanzhou,24.701490,118.422910,78.0,Foreign Restaurant;Western Restaurant,10:00,22:00,Hanting Hotel Quanzhou Nan'an Shuitou Stone Material City,"118.423274,24.703732",24.703732,118.423274,4.5
Maple · Restaurant,Quanzhou,24.703577,118.420572,100.0,Chinese Restaurant;Chinese Restaurant,11:00,21:00,Hanting Hotel Quanzhou Nan'an Shuitou Stone Material City,"118.423274,24.703732",24.703732,118.423274,3.9
Puxi Manhan Restaurant,Quanzhou,24.884613,118.597770,31.0,Chinese Restaurant;Chinese Restaurant,17:00,23:00,Ji Hotel Quanzhou Wanda,"118.597148,24.884269",24.884269,118.597148,4.2
Pinzhen·South Beauty,Quanzhou,24.883308,118.597730,146.0,Food Service Related;Food Service Related,17:00,21:30,Ji Hotel Quanzhou Wanda,"118.597148,24.884269",24.884269,118.597148,4.6
Jiexin Restaurant,Quanzhou,24.913278,118.608548,30.0,Chinese Restaurant;Sichuan Cuisine,10:30,23:45,Home Inn·Neo - Quanzhou West Street Overseas Chinese Museum Branch,"118.606971,24.911931",24.911931,118.606971,4.2
Donghu Impression Restaurant,Quanzhou,24.912386,118.604184,56.0,Chinese Restaurant;Fujian Cuisine,10:00,01:00,Home Inn·Neo - Quanzhou West Street Overseas Chinese Museum Branch,"118.606971,24.911931",24.911931,118.606971,4.0
Xiao Xiao Dian Restaurant,Quanzhou,24.913370,118.604205,59.0,Chinese Restaurant;Chinese Restaurant|Cold Beverage Shop;Cold Beverage Shop,17:00,02:00,Home Inn·Neo - Quanzhou West Street Overseas Chinese Museum Branch,"118.606971,24.911931",24.911931,118.606971,4.3
Yidu New Farmer Restaurant (Xinhua Community Jiannan Garden Branch),Quanzhou,24.925189,118.580905,60.0,Chinese Restaurant;Chinese Restaurant,16:30,23:00,Home Inn - Quanzhou West Lake West Street Reibai·Cloud Hotel,"118.580025,24.928706",24.928706,118.580025,4.2
Hao Zai Lai Restaurant (Zhongjun Xihu No.1 North District Branch),Quanzhou,24.931815,118.577244,41.0,Chinese Restaurant;Chinese Restaurant,10:00,24:00,Home Inn - Quanzhou West Lake West Street Reibai·Cloud Hotel,"118.580025,24.928706",24.928706,118.580025,4.0
Auntie's Chinese Restaurant (Zhongjun Xihu No.1 North District Branch),Quanzhou,24.931942,118.577349,61.0,Chinese Restaurant;Chinese Restaurant,18:00,21:00,Home Inn - Quanzhou West Lake West Street Reibai·Cloud Hotel,"118.580025,24.928706",24.928706,118.580025,4.0
North Waterside Pavilion Tea Restaurant,Quanzhou,24.928607,118.584494,41.0,Fast Food Restaurant;Tea Restaurant,08:00,23:30,Home Inn - Quanzhou West Lake West Street Reibai·Cloud Hotel,"118.580025,24.928706",24.928706,118.580025,4.1
Baolong Xinhua Restaurant (Quanzhou Xinhua Community Baolong Garden Phase II Branch),Quanzhou,24.923299,118.581532,100.0,Chinese Restaurant;Chinese Restaurant,10:00,24:00,Home Inn - Quanzhou West Lake West Street Reibai·Cloud Hotel,"118.580025,24.928706",24.928706,118.580025,4.2
Lina Life Western and Chinese Music Restaurant (Quanzhou Flagship Store),Quanzhou,24.894490,118.588141,100.0,Fast Food Restaurant;Fast Food Restaurant,10:00,22:00,Deji Gate Ruins,"118.588435,24.894531",24.894531,118.588435,4.0
Victory Restaurant,Quanzhou,24.894445,118.587585,38.0,Chinese Restaurant;Chinese Restaurant,11:00,21:00,Deji Gate Ruins,"118.588435,24.894531",24.894531,118.588435,4.3
Self-Service Fast Food Restaurant,Quanzhou,24.897184,118.590875,100.0,Fast Food Restaurant;Fast Food Restaurant,11:00,21:00,Deji Gate Ruins,"118.588435,24.894531",24.894531,118.588435,3.4
Wanjia Restaurant,Quanzhou,24.895030,118.593372,100.0,Chinese Restaurant;Chinese Restaurant,11:00,21:00,Deji Gate Ruins,"118.588435,24.894531",24.894531,118.588435,3.8
Jixiang Restaurant (Dengfu Street Branch),Quanzhou,24.891104,118.592805,50.0,Chinese Restaurant;Chinese Restaurant,10:30,22:30,Deji Gate Ruins,"118.588435,24.894531",24.894531,118.588435,4.5
