restaurant_name,city,latitude,longitude,price_per_person,cuisine,opening_time,closing_time,nearby_attraction_name,nearby_attraction_coords,query_latitude,query_longitude,rating
Zhonghong Feast · Bird's Nest Restaurant (Asian Games Village Branch),Beijing,39.992378,116.395075,171.0,Chinese Restaurant;Chinese Restaurant,17:00,21:00,National Aquatics Center (Water Cube),"116.390397,39.992834",39.992834,116.390397,4.5
Guofeng · Home Restaurant (Bird's Nest Scenic View Branch),Beijing,39.992725,116.395475,556.0,Chinese Restaurant;Chinese Restaurant,16:30,22:00,National Aquatics Center (Water Cube),"116.390397,39.992834",39.992834,116.390397,4.6
Bird's Nest Cultural Center Guofengjia Restaurant,Beijing,39.992875,116.397025,756.0,Chinese Restaurant;Cantonese Cuisine,11:30,21:30,National Aquatics Center (Water Cube),"116.390397,39.992834",39.992834,116.390397,4.0
Beijing Academy of Social Sciences Restaurant,Beijing,39.989342,116.385246,40.0,Chinese Restaurant;Chinese Restaurant,16:30,20:00,National Aquatics Center (Water Cube),"116.390397,39.992834",39.992834,116.390397,4.2
InterContinental Beijing Beichen · Italian Restaurant Trattoria Italiana,Beijing,39.998325,116.388176,414.0,Foreign Restaurant;Italian Restaurant,17:30,22:00,National Aquatics Center (Water Cube),"116.390397,39.992834",39.992834,116.390397,4.3
Xiangyun Tower Restaurant,Beijing,39.994451,116.381719,100.0,Chinese Restaurant;Chinese Restaurant,11:00,21:00,National Aquatics Center (Water Cube),"116.390397,39.992834",39.992834,116.390397,3.3
Yuexiu Pavilion Chinese Restaurant,Beijing,39.999089,116.386255,288.0,Chinese Restaurant;Chinese Restaurant,17:30,22:00,National Aquatics Center (Water Cube),"116.390397,39.992834",39.992834,116.390397,4.1
Beijing Grand Skylight Hotel Elysee Western Restaurant (Asian Games Village Branch),Beijing,39.992708,116.400185,100.0,Cafe;Cafe,06:30,21:00,National Aquatics Center (Water Cube),"116.390397,39.992834",39.992834,116.390397,4.1
AmazingThai Authentic Thai Restaurant (Beitou Xinao Shopping Center Branch),Beijing,39.999286,116.395925,87.0,Foreign Restaurant;泰国/越南菜品餐厅,11:00,21:00,National Aquatics Center (Water Cube),"116.390397,39.992834",39.992834,116.390397,4.7
Little Sheep (Beitou New World Shopping Center Branch),Beijing,40.000038,116.396371,104.0,Chinese Restaurant;Hot Pot,10:00,21:30,National Aquatics Center (Water Cube),"116.390397,39.992834",39.992834,116.390397,4.4
Shanxi Beijing Office Restaurant,Beijing,39.927321,116.393306,100.0,Food Service Related;Food Service Related,11:00,21:00,Beihai Park,"116.391802,39.928775",39.928775,116.391802,3.9
Jinfu Hotel Restaurant,Beijing,39.927334,116.393352,100.0,Chinese Restaurant;Chinese Restaurant,11:00,21:00,Beihai Park,"116.391802,39.928775",39.928775,116.391802,3.4
Eatalia Carpe Diem Italian Restaurant,Beijing,39.933060,116.395723,169.0,Foreign Restaurant;Italian Restaurant,11:00,22:00,Beihai Park,"116.391802,39.928775",39.928775,116.391802,4.5
Neighbor's Home Restaurant,Beijing,39.934005,116.388577,100.0,Chinese Restaurant;Chinese Restaurant,11:00,21:00,Beihai Park,"116.391802,39.928775",39.928775,116.391802,3.6
Longhong Restaurant,Beijing,39.933970,116.388425,34.0,Chinese Restaurant;Chinese Restaurant,11:00,21:00,Beihai Park,"116.391802,39.928775",39.928775,116.391802,4.3
Wangchun Food Pavilion,Beijing,39.927349,116.400152,100.0,Chinese Restaurant;Chinese Restaurant,17:00,20:00,Beihai Park,"116.391802,39.928775",39.928775,116.391802,4.3
Gutang Old Courtyard Copper Pot Hotpot · Halal (Dianmen Branch),Beijing,39.934360,116.396446,85.0,Chinese Restaurant;Halal Restaurant|Chinese Restaurant;Hot Pot,11:00,22:00,Beihai Park,"116.391802,39.928775",39.928775,116.391802,4.7
Courtyard (Dianmen Branch),Beijing,39.933384,116.384409,97.0,Chinese Restaurant;Chinese Restaurant,11:00,21:00,Beihai Park,"116.391802,39.928775",39.928775,116.391802,4.4
Camellia Sister Yunnan Restaurant (Di'anmen Branch),Beijing,39.935500,116.396060,67.0,Chinese Restaurant;云贵菜,10:00,22:30,Beihai Park,"116.391802,39.928775",39.928775,116.391802,4.6
Chengdu Beijing Office Restaurant (Shudu Hotel Branch),Beijing,39.925170,116.400666,100.0,Food Service Related;Food Service Related,11:00,21:00,Beihai Park,"116.391802,39.928775",39.928775,116.391802,4.4
Deyuelou,Beijing,39.895540,116.394553,57.0,Chinese Restaurant;Chinese Restaurant,10:00,23:00,Beijing Dashilan,"116.395042,39.895715",39.895715,116.395042,4.0
Jing B · Dongli Craft Beer Music Restaurant,Beijing,39.896192,116.394755,85.0,Chinese Restaurant;Chinese Restaurant,16:30,03:00,Beijing Dashilan,"116.395042,39.895715",39.895715,116.395042,4.5
Hidden Alley Night · Music Skewer Bar · liveHouse,Beijing,39.896375,116.395958,103.0,Fast Food Restaurant;Fast Food Restaurant,17:00,02:00,Beijing Dashilan,"116.395042,39.895715",39.895715,116.395042,4.5
Suzuki Canteen (Yangmeizhu Branch),Beijing,39.895977,116.393610,73.0,Foreign Restaurant;Japanese Cuisine,11:30,21:30,Beijing Dashilan,"116.395042,39.895715",39.895715,116.395042,4.7
Taste Restaurant,Beijing,39.896782,116.394354,34.0,Chinese Restaurant;Chinese Restaurant,11:00,21:00,Beijing Dashilan,"116.395042,39.895715",39.895715,116.395042,4.0
Sixth Master’s Century-Old Braised Offal (Dashilan West Street Commercial Branch),Beijing,39.896964,116.395585,100.0,Chinese Restaurant;北京菜,10:00,21:30,Beijing Dashilan,"116.395042,39.895715",39.895715,116.395042,4.4
TIDU · TIDU (Beijing Fun Branch),Beijing,39.897546,116.394922,177.0,Chinese Restaurant;北京菜,17:00,21:00,Beijing Dashilan,"116.395042,39.895715",39.895715,116.395042,4.6
Capital Nine Gates Roast Duck Restaurant (Qianmen Branch),Beijing,39.895127,116.397562,78.0,Chinese Restaurant;Local Specialty Restaurant,10:30,21:30,Beijing Dashilan,"116.395042,39.895715",39.895715,116.395042,4.7
Noah Restaurant,Beijing,39.895318,116.397724,48.0,Chinese Restaurant;Chinese Restaurant,11:00,21:00,Beijing Dashilan,"116.395042,39.895715",39.895715,116.395042,4.2
Jiang · Restaurant PEKING LIANG (Qianmen Branch),Beijing,39.897387,116.397002,102.0,Chinese Restaurant;Chinese Restaurant,11:00,22:00,Beijing Dashilan,"116.395042,39.895715",39.895715,116.395042,4.7
Seven Seek Eight Find Hutong Cuisine (Yonghe Temple Branch),Beijing,39.945578,116.418686,92.0,Chinese Restaurant;Chinese Restaurant,11:00,21:00,Guozijian Street,"116.419000,39.947000",39.947000,116.419000,4.5
Halal Xilou Wang's Beef Noodles,Beijing,39.945343,116.419251,21.0,Chinese Restaurant;Halal Restaurant,08:30,21:00,Guozijian Street,"116.419000,39.947000",39.947000,116.419000,4.6
Candu Southeast Asian Restaurant (Wudaoying Branch),Beijing,39.948454,116.415557,126.0,Foreign Restaurant;其它亚洲菜,17:00,21:30,Guozijian Street,"116.419000,39.947000",39.947000,116.419000,4.7
Xinyuan,Beijing,39.948714,116.415077,840.0,Food Service Related;Food Service Related,16:00,22:00,Guozijian Street,"116.419000,39.947000",39.947000,116.419000,4.1
Soup Kitchen (Wudaoying Branch),Beijing,39.948338,116.414674,100.0,Chinese Restaurant;Chinese Restaurant,17:30,21:30,Guozijian Street,"116.419000,39.947000",39.947000,116.419000,4.2
Rose Red Roasted Lamb Chops (Beixinqiao San Tiao Branch),Beijing,39.943320,116.419955,123.0,Chinese Restaurant;Local Specialty Restaurant,17:00,22:00,Guozijian Street,"116.419000,39.947000",39.947000,116.419000,4.5
Xinhe Bistro · 20-Year Old Shop (Beixinqiao Branch),Beijing,39.943188,116.416580,37.0,Chinese Restaurant;Chinese Restaurant,10:30,22:00,Guozijian Street,"116.419000,39.947000",39.947000,116.419000,4.6
Ye Bo Zhai Imperial Vegetarian Cuisine,Beijing,39.948362,116.413730,147.0,Chinese Restaurant;中式素菜馆,10:30,21:00,Guozijian Street,"116.419000,39.947000",39.947000,116.419000,4.2
Handmade Noodles Restaurant No. 163 (Yonghegong Branch),Beijing,39.943098,116.416600,54.0,Food Service Related;Food Service Related,10:00,22:00,Guozijian Street,"116.419000,39.947000",39.947000,116.419000,3.9
Jindingxuan · North-South Homestyle Cuisine (Ditan Branch),Beijing,39.951016,116.415913,88.0,Chinese Restaurant;General Restaurant,11:00,21:00,Guozijian Street,"116.419000,39.947000",39.947000,116.419000,4.8
Jinmanshan Qianmen Hot Pot (Qianmen Main Branch),Beijing,39.899557,116.400132,100.0,Chinese Restaurant;Hot Pot,10:00,22:30,Monument to the People's Heroes,"116.397691,39.904632",39.904632,116.397691,4.4
National Centre for the Performing Arts Western Restaurant,Beijing,39.904765,116.389734,221.0,Foreign Restaurant;Western Restaurant,17:30,20:00,Monument to the People's Heroes,"116.397691,39.904632",39.904632,116.397691,4.0
Huguosi Snacks (Roushi Street Branch),Beijing,39.898374,116.398690,32.0,Fast Food Restaurant;Fast Food Restaurant,05:30,21:30,Monument to the People's Heroes,"116.397691,39.904632",39.904632,116.397691,4.3
Golden Bean Restaurant,Beijing,39.899020,116.393858,47.0,Chinese Restaurant;Chinese Restaurant,10:00,22:00,Monument to the People's Heroes,"116.397691,39.904632",39.904632,116.397691,4.4
Beiping Garden (Tiananmen Branch),Beijing,39.898039,116.395566,291.0,商务住宅;住宅区;住宅小区|Foreign Restaurant;Foreign Restaurant,11:00,23:00,Monument to the People's Heroes,"116.397691,39.904632",39.904632,116.397691,4.5
Wanchun Jinfu Afternoon Tea (Qianmen Branch),Beijing,39.897225,116.397475,48.0,Food Service Related;Food Service Related,09:00,22:00,Monument to the People's Heroes,"116.397691,39.904632",39.904632,116.397691,4.6
Icehouse Restaurant in Front of the Forbidden City,Beijing,39.896963,116.398256,100.0,Chinese Restaurant;Chinese Restaurant,11:00,21:00,Monument to the People's Heroes,"116.397691,39.904632",39.904632,116.397691,4.0
Shuhe Family (Nanluoguxiang Branch),Beijing,39.936427,116.404800,168.0,Chinese Restaurant;Hot Pot,11:00,22:00,Nanluoguxiang,"116.402394,39.937182",39.937182,116.402394,4.7
Jingxiu Restaurant (Nanluoguxiang Branch),Beijing,39.935583,116.404720,58.0,Chinese Restaurant;Chinese Restaurant,10:30,22:30,Nanluoguxiang,"116.402394,39.937182",39.937182,116.402394,4.5
North Gate Hot Pot · Copper Pot Hot Pot (Shichahai Branch),Beijing,39.936452,116.398466,88.0,Chinese Restaurant;Hot Pot,11:00,22:00,Nanluoguxiang,"116.402394,39.937182",39.937182,116.402394,4.7
Juer Family (Nanluoguxiang Branch),Beijing,39.940056,116.404067,36.0,Chinese Restaurant;Chinese Restaurant,11:00,21:30,Nanluoguxiang,"116.402394,39.937182",39.937182,116.402394,4.4
Fangzhuanchang No. 69 Zhajiangmian (Nanluoguxiang Branch),Beijing,39.940598,116.403188,46.0,Chinese Restaurant;Chinese Restaurant,09:30,22:00,Nanluoguxiang,"116.402394,39.937182",39.937182,116.402394,4.7
Halal Xinjiang Cuisine Restaurant (Gulou East Street Branch),Beijing,39.940633,116.402915,76.0,Chinese Restaurant;Halal Restaurant,00:00,03:00,Nanluoguxiang,"116.402394,39.937182",39.937182,116.402394,4.1
Little Yunnan Restaurant (Nanluoguxiang Branch),Beijing,39.933624,116.401932,117.0,Chinese Restaurant;Chinese Restaurant,11:00,22:00,Nanluoguxiang,"116.402394,39.937182",39.937182,116.402394,4.6
Xinjiang Cuisine Halal Restaurant,Beijing,39.940763,116.402868,50.0,Chinese Restaurant;Halal Restaurant,10:00,04:00,Nanluoguxiang,"116.402394,39.937182",39.937182,116.402394,3.8
Tea Soup Li Beijing Cuisine Restaurant (Gulou Branch),Beijing,39.940706,116.403993,52.0,Chinese Restaurant;Chinese Restaurant,10:00,21:00,Nanluoguxiang,"116.402394,39.937182",39.937182,116.402394,4.8
Camellia Sister Yunnan Restaurant,Beijing,39.940723,116.399484,35.0,Chinese Restaurant;云贵菜,10:00,23:00,Nanluoguxiang,"116.402394,39.937182",39.937182,116.402394,4.6
Huajia Yiyuan (Qinghua West Road Branch),Beijing,39.999401,116.306592,169.0,Chinese Restaurant;北京菜,17:00,21:30,Old Summer Palace Ruins Park,"116.300960,40.008759",40.008759,116.300960,4.5
Yixin Yuan Restaurant (Beijing University of Posts and Telecommunications Conference Center Apartment Branch),Beijing,39.996687,116.299639,100.0,Chinese Restaurant;Chinese Restaurant,11:00,21:00,Old Summer Palace Ruins Park,"116.300960,40.008759",40.008759,116.300960,4.5
Dechang Garden Restaurant (Liangli Garden Branch),Beijing,39.997009,116.293362,100.0,Chinese Restaurant;Chinese Restaurant,11:00,21:00,Old Summer Palace Ruins Park,"116.300960,40.008759",40.008759,116.300960,3.5
Mexican Taco Restaurant (Longfor Beijing Yihe Xingyuehui Branch),Beijing,39.997965,116.290649,100.0,Foreign Restaurant;Western Restaurant,11:00,21:00,Old Summer Palace Ruins Park,"116.300960,40.008759",40.008759,116.300960,3.8
Central Party School Graduate School Restaurant,Beijing,39.999592,116.287885,100.0,Chinese Restaurant;Chinese Restaurant,11:00,21:00,Old Summer Palace Ruins Park,"116.300960,40.008759",40.008759,116.300960,3.7
Green Tea Restaurant (Beijing Longfor Starry Street Branch),Beijing,39.998068,116.289861,70.0,Chinese Restaurant;Chinese Restaurant,11:00,22:00,Old Summer Palace Ruins Park,"116.300960,40.008759",40.008759,116.300960,4.5
Dechangyuan Beijing Cuisine Restaurant (Summer Palace Branch),Beijing,39.996701,116.291357,100.0,Chinese Restaurant;Chinese Restaurant,11:00,21:00,Old Summer Palace Ruins Park,"116.300960,40.008759",40.008759,116.300960,3.9
Peking University Boya International Hotel - Yanchunyuan Chinese Restaurant,Beijing,39.997804,116.313330,152.0,Food Service Related;Food Service Related,11:00,21:00,Old Summer Palace Ruins Park,"116.300960,40.008759",40.008759,116.300960,4.3
Peking University Changchunyuan Restaurant,Beijing,39.993919,116.303733,100.0,Chinese Restaurant;Chinese Restaurant,09:00,21:00,Old Summer Palace Ruins Park,"116.300960,40.008759",40.008759,116.300960,4.6
Xinyue City Restaurant (Wanlin Building Branch),Beijing,40.024203,116.300609,100.0,Chinese Restaurant;Chinese Restaurant,11:00,21:00,Old Summer Palace Ruins Park,"116.300960,40.008759",40.008759,116.300960,3.9
Caiyan Restaurant,Beijing,39.999047,116.401002,100.0,Chinese Restaurant;Chinese Restaurant,10:00,22:00,National Stadium (Bird's Nest),"116.395784,39.993330",39.993330,116.395784,3.8
VIP Building Banyan Tree Edge Restaurant,Beijing,39.992864,116.406078,113.0,Chinese Restaurant;Chinese Restaurant,17:30,21:30,National Stadium (Bird's Nest),"116.395784,39.993330",39.993330,116.395784,4.6
Huiyuan Restaurant,Beijing,39.994536,116.406367,74.0,Chinese Restaurant;Chinese Restaurant,17:30,21:30,National Stadium (Bird's Nest),"116.395784,39.993330",39.993330,116.395784,4.2
Jing Yi Restaurant (Liulichang Cultural Street Branch),Beijing,39.895208,116.389337,90.0,Chinese Restaurant;湖北菜(鄂菜),17:00,20:30,Yangmeizhu Xiejie,"116.390844,39.895280",39.895280,116.390844,4.5
Jingfu Restaurant (Dashilan West Street Commercial Branch),Beijing,39.893896,116.390485,55.0,Chinese Restaurant;Chinese Restaurant,06:30,22:30,Yangmeizhu Xiejie,"116.390844,39.895280",39.895280,116.390844,4.5
ZENG Restaurant Theater Branch (Qianmen Branch),Beijing,39.897474,116.390897,88.0,Chinese Restaurant;Chinese Restaurant,10:30,21:00,Yangmeizhu Xiejie,"116.390844,39.895280",39.895280,116.390844,4.7
Golden Spoon (Qianmen Branch),Beijing,39.893417,116.388955,70.0,Chinese Restaurant;东北菜,10:00,22:00,Yangmeizhu Xiejie,"116.390844,39.895280",39.895280,116.390844,4.3
Hemu THE HOME · Hutong,Beijing,39.893584,116.388388,100.0,Accommodation Related;Accommodation Related,10:00,21:30,Yangmeizhu Xiejie,"116.390844,39.895280",39.895280,116.390844,4.5
Yi De Le Halal Restaurant,Beijing,39.893453,116.394739,24.0,Chinese Restaurant;Chinese Restaurant,10:30,21:30,Yangmeizhu Xiejie,"116.390844,39.895280",39.895280,116.390844,4.3
Bamboo Grove Town Theme Restaurant,Beijing,39.941927,116.339046,39.0,Food Service Related;Food Service Related,11:00,21:00,Beijing Zoo,"116.336701,39.942105",39.942105,116.336701,4.2
Swan Lake Restaurant,Beijing,39.941829,116.340678,44.0,Chinese Restaurant;Chinese Restaurant,09:00,16:00,Beijing Zoo,"116.336701,39.942105",39.942105,116.336701,4.6
Moscow Restaurant (Beizhan Ximalu Branch),Beijing,39.940184,116.343000,314.0,Foreign Restaurant;俄国菜,17:00,21:00,Beijing Zoo,"116.336701,39.942105",39.942105,116.336701,4.6
Little Mo Restaurant,Beijing,39.939919,116.342998,263.0,Foreign Restaurant;Western Restaurant,17:00,21:00,Beijing Zoo,"116.336701,39.942105",39.942105,116.336701,4.4
Mo Duo Duo Restaurant,Beijing,39.938950,116.342777,100.0,Chinese Restaurant;Chinese Restaurant,11:00,19:00,Beijing Zoo,"116.336701,39.942105",39.942105,116.336701,4.2
Zijin Cloud Top Revolving Restaurant (26th Floor of Xiyuan Hotel),Beijing,39.937305,116.332252,227.0,Foreign Restaurant;Foreign Restaurant,17:30,21:30,Beijing Zoo,"116.336701,39.942105",39.942105,116.336701,4.2
Yixiu Fang Restaurant · Cantonese Cuisine · Roast Duck (Xizhimen Branch),Beijing,39.937059,116.340791,221.0,Chinese Restaurant;Chinese Restaurant,17:30,21:00,Beijing Zoo,"116.336701,39.942105",39.942105,116.336701,4.5
China Meteorological Administration Community South District Staff Restaurant (Meteorological Bureau South District Branch),Beijing,39.945087,116.328218,100.0,Chinese Restaurant;Chinese Restaurant,11:00,21:00,Beijing Zoo,"116.336701,39.942105",39.942105,116.336701,4.3
Moscow Restaurant & Bakery (Beizhan Branch),Beijing,39.939088,116.345522,78.0,糕饼店;糕饼店,09:30,21:00,Beijing Zoo,"116.336701,39.942105",39.942105,116.336701,4.6
Volga Western Restaurant,Beijing,39.941626,116.346788,203.0,Foreign Restaurant;Western Restaurant,17:00,21:00,Beijing Zoo,"116.336701,39.942105",39.942105,116.336701,4.4
KFC (Beijing Station Square Second Branch),Beijing,39.903999,116.426524,37.0,Fast Food Restaurant;肯德基,08:00,20:00,Beijing Station,"116.427354,39.902830",39.902830,116.427354,4.1
Restaurant,Beijing,39.904675,116.430425,100.0,Chinese Restaurant;Chinese Restaurant,11:00,21:00,Beijing Station,"116.427354,39.902830",39.902830,116.427354,3.9
Lavande Hotel Restaurant,Beijing,39.905440,116.425014,100.0,Chinese Restaurant;Chinese Restaurant,11:00,21:00,Beijing Station,"116.427354,39.902830",39.902830,116.427354,3.8
Pinghe Restaurant - Homestyle Cuisine,Beijing,39.904489,116.423507,100.0,Chinese Restaurant;Chinese Restaurant,11:00,21:00,Beijing Station,"116.427354,39.902830",39.902830,116.427354,4.5
Meijia Restaurant Convenience Chain Store,Beijing,39.904531,116.423183,100.0,便民商店/便利店;便民商店/便利店,11:00,21:00,Beijing Station,"116.427354,39.902830",39.902830,116.427354,3.7
Eastern Airlines Select Restaurant (China Eastern Airlines Shift Dormitory Branch),Beijing,39.526675,116.421725,32.0,Chinese Restaurant;Chinese Restaurant,11:00,21:00,Daxing International Airport,"116.429172,39.510561",39.510561,116.429172,3.7
Mojí Mexican Restaurant (Xizhimen CapitaMall Branch),Beijing,39.941570,116.352722,131.0,Foreign Restaurant;Foreign Restaurant,11:00,21:30,Xi'an North Station,"116.353464,39.944699",39.944699,116.353464,4.4
Get Pizza Italian Restaurant (CapitaMall Branch),Beijing,39.941014,116.352570,85.0,Foreign Restaurant;Foreign Restaurant,10:30,21:00,Xi'an North Station,"116.353464,39.944699",39.944699,116.353464,4.3
Lanzhou Hotel Restaurant (Jinhui Jiayuan Branch),Beijing,39.946472,116.358384,100.0,Chinese Restaurant;西北菜,17:00,21:00,Xi'an North Station,"116.353464,39.944699",39.944699,116.353464,4.3
Liberation Hotel Chinese Restaurant,Beijing,34.275565,108.963258,19.0,Chinese Restaurant;Chinese Restaurant,11:00,20:00,Xi'an Station,"108.962723,34.278498",34.278498,108.962723,3.6
Sunshine International Hotel Chinese Restaurant,Beijing,34.274277,108.963210,100.0,Chinese Restaurant;Chinese Restaurant,11:00,21:00,Xi'an Station,"108.962723,34.278498",34.278498,108.962723,4.1
Xi'an Mayinglong Anorectal Hospital Restaurant,Beijing,34.275089,108.967144,100.0,Chinese Restaurant;Chinese Restaurant,11:00,21:00,Xi'an Station,"108.962723,34.278498",34.278498,108.962723,3.6
Yangchen Restaurant,Beijing,34.275825,108.969375,98.0,Chinese Restaurant;Chinese Restaurant,11:00,21:00,Xi'an Station,"108.962723,34.278498",34.278498,108.962723,4.1
Jiuru Li Restaurant (Imperial City Lane Branch),Beijing,34.275398,108.969882,459.0,Chinese Restaurant;Chinese Restaurant,11:00,21:00,Xi'an Station,"108.962723,34.278498",34.278498,108.962723,4.2
Zhonghua Ma Family Restaurant,Beijing,39.851353,116.309616,55.0,Chinese Restaurant;Halal Restaurant,11:00,21:00,Beijing Fengtai Station,"116.301463,39.850889",39.850889,116.301463,4.0
Beijing West International Trade Hotel - Yipinxuan Chinese Restaurant,Beijing,39.855510,116.309066,100.0,Chinese Restaurant;Hunan Cuisine,17:00,21:00,Beijing Fengtai Station,"116.301463,39.850889",39.850889,116.301463,4.2
Kandan Red Restaurant,Beijing,39.843323,116.300269,100.0,Chinese Restaurant;Chinese Restaurant,10:00,21:00,Beijing Fengtai Station,"116.301463,39.850889",39.850889,116.301463,4.4
Ocean Sail Restaurant,Beijing,40.037939,116.312997,100.0,Chinese Restaurant;Chinese Restaurant,11:00,21:00,Qinghe Station,"116.314619,40.041059",40.041059,116.314619,2.1
Nantian Restaurant (Shangdi Nantian Building Branch),Beijing,40.042187,116.308439,100.0,Chinese Restaurant;Chinese Restaurant,11:30,14:00,Qinghe Station,"116.314619,40.041059",40.041059,116.314619,3.7
Deshi Building Restaurant,Beijing,40.045260,116.308040,100.0,Chinese Restaurant;Chinese Restaurant,08:00,20:00,Qinghe Station,"116.314619,40.041059",40.041059,116.314619,3.8
Railway Inn Beijing West Railway Station Branch - Restaurant,Beijing,39.896025,116.322725,100.0,Chinese Restaurant;Chinese Restaurant,11:00,21:00,Beijing West Station,"116.322033,39.894912",39.894912,116.322033,4.0
Old Beijing Flavor Restaurant (Beijing West Railway Station Branch),Beijing,39.893083,116.321938,100.0,Chinese Restaurant;北京菜,08:30,21:30,Beijing West Station,"116.322033,39.894912",39.894912,116.322033,3.0
Beijing Zhongyu Century Yuli Hotel (Yuzhenfang Restaurant),Beijing,39.897782,116.322878,100.0,Chinese Restaurant;山东菜(鲁菜),11:00,02:00,Beijing West Station,"116.322033,39.894912",39.894912,116.322033,4.1
Lake Delight Restaurant,Beijing,39.892858,116.325366,116.0,Chinese Restaurant;Chinese Restaurant,17:00,20:30,Beijing West Station,"116.322033,39.894912",39.894912,116.322033,4.1
Xiangjian Tea House (Jianshe Building Branch),Beijing,39.893729,116.326597,114.0,Tea House;Tea House,10:00,21:00,Beijing West Station,"116.322033,39.894912",39.894912,116.322033,4.6
Huixuan Pavilion Restaurant (Hunan Cuisine),Beijing,40.071405,116.593500,29.0,Chinese Restaurant;Hunan Cuisine,10:30,21:30,Capital International Airport,"116.602545,40.080213",40.080213,116.602545,4.1
Xi'an Xianyang International Airport Terminal 2 Staff Restaurant,Beijing,34.440199,108.760680,100.0,Chinese Restaurant;Chinese Restaurant,10:00,21:00,Xianyang Airport,"108.762275,34.434579",34.434579,108.762275,3.8
Xi'an Roujiamo Restaurant (Xi'an Xianyang International Airport),Beijing,34.442567,108.763256,42.0,Chinese Restaurant;Local Specialty Restaurant,06:00,22:30,Xianyang Airport,"108.762275,34.434579",34.434579,108.762275,3.6
Airport Restaurant (Terminal 1 Branch),Beijing,34.443269,108.764500,56.0,Chinese Restaurant;Chinese Restaurant,09:00,21:00,Xianyang Airport,"108.762275,34.434579",34.434579,108.762275,4.3
Shengbaiwei Family Banquet Restaurant (Huoying Branch),Beijing,40.081335,116.358510,89.0,Chinese Restaurant;Chinese Restaurant,10:30,22:00,Jinjiang Inn (Beijing Huilongguan East Street Subway Station Branch),"116.357209,40.086692",40.086692,116.357209,4.5
Fukemao Themed Restaurant · Cat Cafe · Cat Grooming · Board Games · Switch Games · Pet Boarding,Beijing,40.081176,116.352280,100.0,Specialty Store;儿童用品店|Entertainment Venue;Entertainment Venue|Casual Dining;Casual Dining,10:00,21:30,Jinjiang Inn (Beijing Huilongguan East Street Subway Station Branch),"116.357209,40.086692",40.086692,116.357209,4.7
Walnut Music Tavern (Huilongguan Branch),Beijing,40.080834,116.348248,137.0,Chinese Restaurant;Chinese Restaurant,11:00,02:00,Jinjiang Inn (Beijing Huilongguan East Street Subway Station Branch),"116.357209,40.086692",40.086692,116.357209,4.4
Flower House · Lingnan Yungui Sichuan Bistro (Liangma River Branch),Beijing,39.946761,116.449255,74.0,Chinese Restaurant;Cantonese Cuisine,10:00,22:30,Home Inn - Beijing Yansha Xinyuanli Branch,"116.449834,39.947419",39.947419,116.449834,4.5
Home Inn Hotel Restaurant (Xinyuanli Branch),Beijing,39.948166,116.449028,51.0,Chinese Restaurant;Chinese Restaurant,11:00,21:00,Home Inn - Beijing Yansha Xinyuanli Branch,"116.449834,39.947419",39.947419,116.449834,4.2
Fumanyuan (Xinyuan South Road Branch),Beijing,39.947549,116.451273,100.0,Chinese Restaurant;Chinese Restaurant,11:00,22:00,Home Inn - Beijing Yansha Xinyuanli Branch,"116.449834,39.947419",39.947419,116.449834,4.5
Mo Jie Sichuan & Hunan Cuisine Restaurant,Beijing,39.877240,116.701404,36.0,Chinese Restaurant;Chinese Restaurant,10:00,23:00,Beijing Harry Potter Origami Homestay,"116.697119,39.875934",39.875934,116.697119,3.8
Hong Kong Nine Top Fragrance House · Hong Kong-style Tea Restaurant,Beijing,39.872449,116.698081,100.0,Fast Food Restaurant;Fast Food Restaurant,11:00,21:00,Beijing Harry Potter Origami Homestay,"116.697119,39.875934",39.875934,116.697119,3.9
Fragrant Wine Roast Goose Head (Tuqiao Branch),Beijing,39.871212,116.696165,134.0,Chinese Restaurant;Chinese Restaurant,11:00,24:00,Beijing Harry Potter Origami Homestay,"116.697119,39.875934",39.875934,116.697119,4.3
Beijing Oriental Hotel · Taste 1918 Restaurant,Beijing,39.888057,116.389629,75.0,Chinese Restaurant;Chinese Restaurant,17:30,21:30,Orange Hotel Beijing Qianmen Street,"116.392000,39.890300",39.890300,116.392000,4.5
Gongmenkou Steamed Bun Shop (Founder’s Main Store),Beijing,39.888086,116.394542,6.0,Chinese Restaurant;Local Specialty Restaurant,07:00,20:30,Orange Hotel Beijing Qianmen Street,"116.392000,39.890300",39.890300,116.392000,4.8
Holiday Inn Express Beijing Yizhuang Tongming Lake · Restaurant,Beijing,39.787678,116.577580,100.0,Food Service Related;Food Service Related,11:00,21:00,Atour Hotel Beijing Yizhuang Mobile Silicon Valley,"116.582448,39.785778",39.785778,116.582448,4.0
Blue Seed Japanese-Western Fusion Cuisine · Nitrogen Coffee (Yizhuang Branch),Beijing,39.788251,116.569259,99.0,Cafe;Cafe,10:30,22:00,Atour Hotel Beijing Yizhuang Mobile Silicon Valley,"116.582448,39.785778",39.785778,116.582448,4.6
Fengchuang Carrot Restaurant,Beijing,39.781725,116.568475,100.0,Fast Food Restaurant;Fast Food Restaurant,11:00,21:00,Atour Hotel Beijing Yizhuang Mobile Silicon Valley,"116.582448,39.785778",39.785778,116.582448,4.3
Luo Xiaochu Restaurant (Yiling Building Branch),Beijing,39.893148,116.406727,100.0,Chinese Restaurant;Chinese Restaurant,11:00,21:00,Ji Hotel Beijing Qianmen Courtyard,"116.407000,39.894600",39.894600,116.407000,4.0
VICINI Restaurant,Beijing,39.896008,116.408975,100.0,Foreign Restaurant;Italian Restaurant,11:00,21:00,Ji Hotel Beijing Qianmen Courtyard,"116.407000,39.894600",39.894600,116.407000,3.8
Qingyun Twenty-Three · Lan Banquet,Beijing,39.895212,116.404402,100.0,Food Service Related;Food Service Related,10:00,21:00,Ji Hotel Beijing Qianmen Courtyard,"116.407000,39.894600",39.894600,116.407000,4.4
Chanzui Cat Skewer Bar & BBQ Tavern (Daxing Airport Branch),Beijing,39.525582,116.410627,90.0,Chinese Restaurant;Chinese Restaurant,11:00,21:00,Beijing Daxing Airport Fairfield Hotel,"116.409947,39.525579",39.525579,116.409947,4.3
Radisson Hotel · Lixuan Chinese Restaurant (Daxing Airport Branch),Beijing,39.525847,116.412720,105.0,Chinese Restaurant;Chinese Restaurant,10:00,22:00,Beijing Daxing Airport Fairfield Hotel,"116.409947,39.525579",39.525579,116.409947,4.5
Hilton Garden Inn - Huahuiwei Restaurant,Beijing,39.526497,116.412931,79.0,Chinese Restaurant;Chinese Restaurant,06:30,21:30,Beijing Daxing Airport Fairfield Hotel,"116.409947,39.525579",39.525579,116.409947,4.1
Jin Han Zi Restaurant,Beijing,40.079558,116.227381,100.0,Chinese Restaurant;Local Specialty Restaurant,10:00,22:30,Atour Hotel Beijing Zhongguancun Yongfeng Base,"116.229852,40.081823",40.081823,116.229852,3.9
Belun Restaurant,Beijing,40.078595,116.229780,100.0,Chinese Restaurant;Chinese Restaurant,11:00,21:00,Atour Hotel Beijing Zhongguancun Yongfeng Base,"116.229852,40.081823",40.081823,116.229852,3.9
Academy Restaurant,Beijing,40.088437,116.226564,100.0,Chinese Restaurant;Chinese Restaurant,11:00,21:00,Atour Hotel Beijing Zhongguancun Yongfeng Base,"116.229852,40.081823",40.081823,116.229852,3.8
Green Tea Restaurant (Beijing Puhuangyu Wumei Branch),Beijing,39.865945,116.423608,68.0,Chinese Restaurant;General Restaurant,10:00,22:00,Orange Hotel Beijing Tiantan,"116.422194,39.866966",39.866966,116.422194,4.7
Snow Bureau Ski Theme Restaurant (Yixiang Branch),Beijing,39.865644,116.419916,92.0,Chinese Restaurant;Chinese Restaurant,16:00,01:30,Orange Hotel Beijing Tiantan,"116.422194,39.866966",39.866966,116.422194,3.9
Hutong Skewers (Puhuangyu Branch),Beijing,39.869865,116.420121,79.0,Chinese Restaurant;Chinese Restaurant,17:00,01:00,Orange Hotel Beijing Tiantan,"116.422194,39.866966",39.866966,116.422194,4.7
Neighborhood Restaurant (Swan Bay North Area Branch),Beijing,39.921180,116.521253,100.0,Chinese Restaurant;Chinese Restaurant,11:00,21:00,Hualight · Nature's Appointment Hotel (Chaoyang Joy City Qingnian Road Subway Station Branch),"116.523057,39.920372",39.920372,116.523057,3.7
Nenniu Chaozhou-Style Beef Hot Pot (Qingnian Road Branch),Beijing,39.921881,116.517298,86.0,Chinese Restaurant;Hot Pot,10:30,04:00,Hualight · Nature's Appointment Hotel (Chaoyang Joy City Qingnian Road Subway Station Branch),"116.523057,39.920372",39.920372,116.523057,4.9
Wei's Grain Products · Grilled Gluten Society (Jiayi Youth Hub North Hall Branch),Beijing,39.922077,116.517294,31.0,Food Service Related;Food Service Related,23:30,02:00,Hualight · Nature's Appointment Hotel (Chaoyang Joy City Qingnian Road Subway Station Branch),"116.523057,39.920372",39.920372,116.523057,4.2
Claypot King (Chaoyang Joy City Branch),Beijing,39.924052,116.518734,100.0,Chinese Restaurant;Chinese Restaurant,10:00,21:00,Hualight · Nature's Appointment Hotel (Chaoyang Joy City Qingnian Road Subway Station Branch),"116.523057,39.920372",39.920372,116.523057,4.4
New Brother · Modern Cantonese Cuisine (Chaoyang Joy City Branch),Beijing,39.924134,116.518604,95.0,Chinese Restaurant;Chinese Restaurant,11:00,21:30,Hualight · Nature's Appointment Hotel (Chaoyang Joy City Qingnian Road Subway Station Branch),"116.523057,39.920372",39.920372,116.523057,4.5
Beijing Flavor Essence Restaurant (Changchunli Community Branch),Beijing,39.893788,116.363135,51.0,Chinese Restaurant;北京菜,10:30,21:00,Home Inn - Beijing Guang'anmen Inner Subway Station Branch,"116.357856,39.892786",39.892786,116.357856,4.4
Garden Bistro · Sichuan Cuisine · Spicy Boiled Fish,Beijing,39.897588,116.353742,115.0,Chinese Restaurant;Sichuan Cuisine,10:00,21:00,Home Inn - Beijing Guang'anmen Inner Subway Station Branch,"116.357856,39.892786",39.892786,116.357856,4.4
Steel Institute Restaurant (Baiguang Road No. 6 Courtyard Branch),Beijing,39.887308,116.360195,22.0,Chinese Restaurant;Chinese Restaurant,11:00,13:30,Home Inn - Beijing Guang'anmen Inner Subway Station Branch,"116.357856,39.892786",39.892786,116.357856,4.4
Future Dining Smart Restaurant (Huabao Building Branch),Beijing,39.895807,116.307858,100.0,Chinese Restaurant;Chinese Restaurant,11:00,21:00,YUNIK - Beijing West Railway Station Subway Station Branch,"116.312912,39.895953",39.895953,116.312912,4.0
Backyard Restaurant (Lianhuachi Xili Branch),Beijing,39.891640,116.308585,100.0,Chinese Restaurant;Chinese Restaurant,10:00,22:00,YUNIK - Beijing West Railway Station Subway Station Branch,"116.312912,39.895953",39.895953,116.312912,4.6
People's Commune Iron Rice Bowl (Lianhuachi Branch),Beijing,39.891574,116.307082,62.0,Chinese Restaurant;Chinese Restaurant,09:30,21:30,YUNIK - Beijing West Railway Station Subway Station Branch,"116.312912,39.895953",39.895953,116.312912,4.3
Wufu Xiangmanlou,Beijing,40.101095,116.373587,66.0,Chinese Restaurant;Chinese Restaurant,16:30,22:00,Beijing Water City Yipiao Private Hot Spring Resort Hotel,"116.371229,40.102522",40.102522,116.371229,4.2
Lake Bay Hotel Western Restaurant,Beijing,40.105621,116.370325,92.0,Foreign Restaurant;Western Restaurant,11:00,21:00,Beijing Water City Yipiao Private Hot Spring Resort Hotel,"116.371229,40.102522",40.102522,116.371229,3.9
Daoxiang Restaurant,Beijing,40.104433,116.367345,100.0,Food Service Related;Food Service Related,08:00,22:00,Beijing Water City Yipiao Private Hot Spring Resort Hotel,"116.371229,40.102522",40.102522,116.371229,4.2
Yongshunde Small Ribs Restaurant (Zhuxin Jiayuan Branch),Beijing,39.923809,116.610369,68.0,Food Service Related;Food Service Related,11:00,21:00,Jinjiang Inn (Beijing Chaoyang North Road Caofang Subway Station Hotel),"116.619785,39.925024",39.925024,116.619785,4.0
Guangdong BBQ Fast Food Restaurant (Changying Branch),Beijing,39.929216,116.606564,34.0,Fast Food Restaurant;Fast Food Restaurant,11:00,21:00,Jinjiang Inn (Beijing Chaoyang North Road Caofang Subway Station Hotel),"116.619785,39.925024",39.925024,116.619785,4.3
Xiaotianfei Seafood Restaurant,Beijing,39.915396,116.631520,114.0,Chinese Restaurant;Seafood Restaurant,17:00,22:00,Jinjiang Inn (Beijing Chaoyang North Road Caofang Subway Station Hotel),"116.619785,39.925024",39.925024,116.619785,4.4
E Tower Italian Restaurant (Songzhuang Branch),Beijing,39.947272,116.719994,98.0,Foreign Restaurant;Foreign Restaurant,11:00,22:00,Ji Hotel Beijing Tongzhou Songzhuang Anzhen Hospital,"116.724000,39.946800",39.946800,116.724000,4.6
Garden Taste Art Restaurant,Beijing,39.947648,116.719949,98.0,Chinese Restaurant;Chinese Restaurant,04:30,21:30,Ji Hotel Beijing Tongzhou Songzhuang Anzhen Hospital,"116.724000,39.946800",39.946800,116.724000,4.0
Little Flower Fragrance Art Restaurant,Beijing,39.947811,116.719919,80.0,Chinese Restaurant;Hunan Cuisine|Chinese Restaurant;Sichuan Cuisine,16:30,22:00,Ji Hotel Beijing Tongzhou Songzhuang Anzhen Hospital,"116.724000,39.946800",39.946800,116.724000,4.4
Jurassic Museum Restaurant,Beijing,39.867012,116.501120,99.0,Chinese Restaurant;Chinese Restaurant,10:30,01:00,Atour Hotel Beijing Happy Valley Scenic Area Subway Station,"116.501330,39.867065",39.867065,116.501330,4.4
HFFOUSA TACO Fusa Taco Mexican Restaurant (Happy Valley Branch),Beijing,39.866956,116.500773,100.0,Foreign Restaurant;Foreign Restaurant,10:30,22:00,Atour Hotel Beijing Happy Valley Scenic Area Subway Station,"116.501330,39.867065",39.867065,116.501330,4.6
Ouyinong Coffee,Beijing,39.871815,116.502082,30.0,Cafe;Cafe,10:00,19:00,Atour Hotel Beijing Happy Valley Scenic Area Subway Station,"116.501330,39.867065",39.867065,116.501330,4.2
Qin Ren Ju Restaurant (Daxing Yinghai Branch),Beijing,39.762809,116.450007,57.0,Chinese Restaurant;Chinese Restaurant,10:30,22:30,Beijing Rose Star Moon Select Hotel (Jiugong Yinghai Subway Station Branch),"116.450828,39.762948",39.762948,116.450828,4.5
Beijing Daxing District Integrated Traditional Chinese and Western Medicine Hospital Restaurant,Beijing,39.771421,116.447855,100.0,Chinese Restaurant;Chinese Restaurant,11:00,21:00,Beijing Rose Star Moon Select Hotel (Jiugong Yinghai Subway Station Branch),"116.450828,39.762948",39.762948,116.450828,2.5
Fresh Supermarket Convenience Restaurant (Wenjinyuan West District Branch),Beijing,39.772112,116.443544,100.0,Food Service Related;Food Service Related,11:00,21:00,Beijing Rose Star Moon Select Hotel (Jiugong Yinghai Subway Station Branch),"116.450828,39.762948",39.762948,116.450828,3.9
Qin Ren Ju Restaurant (Yongxu Jiayuan Branch),Beijing,39.754248,116.437979,60.0,Chinese Restaurant;Chinese Restaurant,10:30,22:30,Beijing Rose Star Moon Select Hotel (Jiugong Yinghai Subway Station Branch),"116.450828,39.762948",39.762948,116.450828,4.3
Rongcheng Fishing Harbor Seafood Hotel,Beijing,39.993925,116.428400,169.0,Chinese Restaurant;Seafood Restaurant,16:30,21:00,Ji Hotel Beijing Asian Games Village Bird's Nest,"116.427000,39.993900",39.993900,116.427000,4.4
Old Ciqikou Douzhi Shop,Beijing,39.888646,116.412855,56.0,Chinese Restaurant;Halal Restaurant,06:00,20:00,Orange Hotel Beijing Tiantan North Gate Qiaowan Subway Station,"116.408000,39.890800",39.890800,116.408000,4.4
Sun Palace Mansion Chinese Restaurant,Beijing,39.889836,116.402322,100.0,Chinese Restaurant;Chinese Restaurant,16:30,21:00,Orange Hotel Beijing Tiantan North Gate Qiaowan Subway Station,"116.408000,39.890800",39.890800,116.408000,4.1
Pinge Restaurant · Cantonese Cuisine · Jiangxi Cuisine · Hunan Cuisine (China Seal Branch),Beijing,39.858040,116.354519,134.0,Chinese Restaurant;Chinese Restaurant,16:30,21:30,Atour Hotel Beijing You'anmen Xitieying Subway Station,"116.354637,39.858132",39.858132,116.354637,4.3
Cheese Farm · Italian Restaurant (Xitieying Wanda Plaza Branch),Beijing,39.860603,116.355295,100.0,Food Service Related;Food Service Related,10:00,21:30,Atour Hotel Beijing You'anmen Xitieying Subway Station,"116.354637,39.858132",39.858132,116.354637,4.4
Saizeriya Italian Restaurant (Xitieying Wanda Plaza Branch),Beijing,39.860623,116.356602,44.0,Foreign Restaurant;Italian Restaurant,10:00,22:00,Atour Hotel Beijing You'anmen Xitieying Subway Station,"116.354637,39.858132",39.858132,116.354637,4.5
Beijing Olympic Tower Sky Restaurant,Beijing,40.007949,116.394113,485.0,Chinese Restaurant;Chinese Restaurant,11:00,21:30,Beijing Olympic Park,"116.393096,40.009926",40.009926,116.393096,4.3
Brauhaus Happy Family Restaurant,Beijing,40.012851,116.394914,199.0,Chinese Restaurant;Chinese Restaurant,10:00,20:00,Beijing Olympic Park,"116.393096,40.009926",40.009926,116.393096,4.1
Home Feast Restaurant (Asia Financial Tower Branch),Beijing,40.007486,116.389677,31.0,Food Service Related;Food Service Related,07:30,19:30,Beijing Olympic Park,"116.393096,40.009926",40.009926,116.393096,3.9
China Science and Technology Museum - Visitor Restaurant,Beijing,40.006021,116.398478,43.0,Chinese Restaurant;Chinese Restaurant,11:00,21:00,Beijing Olympic Park,"116.393096,40.009926",40.009926,116.393096,4.1
Goose Island Craft Beer Restaurant Goose Island Taproom (Beichenhui Branch),Beijing,40.004480,116.387388,126.0,Entertainment Venue;Bar,11:00,21:00,Beijing Olympic Park,"116.393096,40.009926",40.009926,116.393096,4.5
Happy Curry Restaurant (Beichenhui Branch),Beijing,40.003699,116.387849,79.0,Chinese Restaurant;Chinese Restaurant,10:00,22:00,Beijing Olympic Park,"116.393096,40.009926",40.009926,116.393096,4.3
Aobei Restaurant,Beijing,40.006525,116.384075,100.0,Chinese Restaurant;Chinese Restaurant,11:00,21:00,Beijing Olympic Park,"116.393096,40.009926",40.009926,116.393096,3.2
Orange Castle Mediterranean Restaurant,Beijing,40.003303,116.387743,146.0,Chinese Restaurant;Chinese Restaurant,10:00,22:00,Beijing Olympic Park,"116.393096,40.009926",40.009926,116.393096,4.4
Cool Cars Trendy American Restaurant (Beitou New World Shopping Center Branch),Beijing,40.001815,116.394743,86.0,Entertainment Venue;Entertainment Venue|Chinese Restaurant;Chinese Restaurant,10:00,22:00,Beijing Olympic Park,"116.393096,40.009926",40.009926,116.393096,4.2
Saizeriya Italian Restaurant (Beitou New Ao Shopping Center Branch),Beijing,40.001730,116.396090,100.0,Chinese Restaurant;Chinese Restaurant,10:00,22:00,Beijing Olympic Park,"116.393096,40.009926",40.009926,116.393096,4.6
Wanchun Jinfu Afternoon Tea,Beijing,39.921094,116.397019,72.0,Food Service Related;Food Service Related,09:30,16:00,Jingshan Park,"116.396551,39.925875",39.925875,116.396551,4.9
Kunning Palace East Courtyard Restaurant,Beijing,39.921089,116.397327,100.0,Chinese Restaurant;Chinese Restaurant,08:00,16:30,Jingshan Park,"116.396551,39.925875",39.925875,116.396551,4.4
Shatan Restaurant,Beijing,39.925352,116.403318,31.0,Chinese Restaurant;Chinese Restaurant,07:00,22:00,Jingshan Park,"116.396551,39.925875",39.925875,116.396551,4.2
Jingyun Gate Forbidden City Restaurant,Beijing,39.918509,116.398455,56.0,Chinese Restaurant;Chinese Restaurant,08:30,15:30,Jingshan Park,"116.396551,39.925875",39.925875,116.396551,3.9
Icehouse Restaurant,Beijing,39.917514,116.395284,80.0,Chinese Restaurant;Chinese Restaurant,10:30,15:00,Jingshan Park,"116.396551,39.925875",39.925875,116.396551,3.9
New Zealand Restaurant Cafe Flatwhite (798 Branch),Beijing,39.984441,116.498919,100.0,Foreign Restaurant;Foreign Restaurant,09:00,21:00,798 Art Zone,"116.503789,39.984456",39.984456,116.503789,4.3
Hong Kong & American Restaurant,Beijing,39.983709,116.498804,108.0,Fast Food Restaurant;Tea Restaurant,10:00,21:00,798 Art Zone,"116.503789,39.984456",39.984456,116.503789,4.3
Puxian Cuisine Restaurant,Beijing,39.988739,116.502927,101.0,Food Service Related;Food Service Related,16:30,22:00,798 Art Zone,"116.503789,39.984456",39.984456,116.503789,4.5
Blu. Lan Italian Restaurant,Beijing,39.986562,116.498549,119.0,Foreign Restaurant;Foreign Restaurant,10:00,21:00,798 Art Zone,"116.503789,39.984456",39.984456,116.503789,4.5
Coconut Fragrance Thai · Thai Cuisine (798 Branch),Beijing,39.986400,116.497871,78.0,Foreign Restaurant;Foreign Restaurant,10:00,21:30,798 Art Zone,"116.503789,39.984456",39.984456,116.503789,4.5
Xiaowan Canteen (798 Art District Branch),Beijing,39.986677,116.497942,88.0,Chinese Restaurant;Hunan Cuisine,10:00,21:30,798 Art Zone,"116.503789,39.984456",39.984456,116.503789,4.7
He Space,Beijing,39.986777,116.497291,100.0,公司企业;公司;公司|Cafe;Cafe,10:00,18:00,798 Art Zone,"116.503789,39.984456",39.984456,116.503789,4.2
Mao Mansion Restaurant,Beijing,39.989188,116.499703,100.0,Chinese Restaurant;Chinese Restaurant,11:00,21:00,798 Art Zone,"116.503789,39.984456",39.984456,116.503789,4.3
Care Shell · Museum of Love Restaurant,Beijing,39.987656,116.496193,190.0,Chinese Restaurant;Chinese Restaurant,10:00,21:00,798 Art Zone,"116.503789,39.984456",39.984456,116.503789,4.1
Wangxiang Banquet · Courtyard Restaurant · 798 Reception Hall (Jiuxianqiao · Wangjing Branch),Beijing,39.980125,116.496768,99.0,Chinese Restaurant;Chinese Restaurant,10:00,21:00,798 Art Zone,"116.503789,39.984456",39.984456,116.503789,4.7
Pebbles Courtyard Mexican Restaurant,Beijing,39.948375,116.410797,130.0,Foreign Restaurant;Foreign Restaurant,12:00,22:00,Wudaoying Hutong,"116.411707,39.947899",39.947899,116.411707,4.5
Ye Bo Zhai Imperial Vegetarian Cuisine,Beijing,39.948362,116.413730,147.0,Chinese Restaurant;中式素菜馆,10:30,21:00,Wudaoying Hutong,"116.411707,39.947899",39.947899,116.411707,4.2
Soup Kitchen (Wudaoying Branch),Beijing,39.948338,116.414674,100.0,Chinese Restaurant;Chinese Restaurant,17:30,21:30,Wudaoying Hutong,"116.411707,39.947899",39.947899,116.411707,4.2
Xinyuan,Beijing,39.948714,116.415077,840.0,Food Service Related;Food Service Related,16:00,22:00,Wudaoying Hutong,"116.411707,39.947899",39.947899,116.411707,4.1
Hepingli Street Elderly Restaurant,Beijing,39.950750,116.410857,23.0,Chinese Restaurant;General Restaurant,16:30,20:30,Wudaoying Hutong,"116.411707,39.947899",39.947899,116.411707,4.3
Manxiang Wonton (Andingmen Branch),Beijing,39.947013,116.408068,33.0,Chinese Restaurant;Local Specialty Restaurant,11:00,21:00,Wudaoying Hutong,"116.411707,39.947899",39.947899,116.411707,4.2
Candu Southeast Asian Restaurant (Wudaoying Branch),Beijing,39.948454,116.415557,126.0,Foreign Restaurant;其它亚洲菜,17:00,21:30,Wudaoying Hutong,"116.411707,39.947899",39.947899,116.411707,4.7
Lanyuezhai Grilled Meat · Halal (Wudaoying Flagship Store),Beijing,39.944945,116.408583,66.0,Chinese Restaurant;Local Specialty Restaurant|Chinese Restaurant;Halal Restaurant,11:00,23:00,Wudaoying Hutong,"116.411707,39.947899",39.947899,116.411707,4.8
Miao Jia Po Bun Shop (Chengxian Street Branch),Beijing,39.944925,116.408601,20.0,Chinese Restaurant;Chinese Restaurant,05:00,20:30,Wudaoying Hutong,"116.411707,39.947899",39.947899,116.411707,4.6
Outside the Gate Restaurant,Beijing,39.943769,116.411497,145.0,Food Service Related;Food Service Related,11:00,01:30,Wudaoying Hutong,"116.411707,39.947899",39.947899,116.411707,4.6
BROWNSTONE Spanish Restaurant (Sanlitun Taikoo Li South District Branch),Beijing,39.934810,116.454541,188.0,Foreign Restaurant;Foreign Restaurant,11:00,24:00,Sanlitun Taikoo Li,"116.454406,39.934862",39.934862,116.454406,4.6
Bacardi Club CASA BACARDI (South Area of Sanlitun Taikoo Li),Beijing,39.934825,116.454725,172.0,Food Service Related;Food Service Related,18:00,05:00,Sanlitun Taikoo Li,"116.454406,39.934862",39.934862,116.454406,4.8
COMMUNE·X Illusionist (Sanlitun Taikoo Li South District Branch),Beijing,39.934918,116.454906,170.0,Entertainment Venue;Bar|Foreign Restaurant;Western Restaurant,11:00,03:00,Sanlitun Taikoo Li,"116.454406,39.934862",39.934862,116.454406,4.8
gaga (Sanlitun Taikoo Li South District Branch),Beijing,39.935060,116.453830,159.0,Foreign Restaurant;Western Restaurant|Casual Dining;Casual Dining,10:00,22:30,Sanlitun Taikoo Li,"116.454406,39.934862",39.934862,116.454406,4.6
Dayu Banquet TAIRYO Teppanyaki,Beijing,39.935220,116.455056,277.0,Foreign Restaurant;Japanese Cuisine,17:00,24:00,Sanlitun Taikoo Li,"116.454406,39.934862",39.934862,116.454406,4.5
bluefrog Blue Frog (Sanlitun Taikoo Li South Area Branch),Beijing,39.935677,116.454238,136.0,Foreign Restaurant;Western Restaurant,10:30,23:00,Sanlitun Taikoo Li,"116.454406,39.934862",39.934862,116.454406,4.7
Zhudi Canteen (Sanlitun First Branch),Beijing,39.932974,116.453603,150.0,Foreign Restaurant;Japanese Cuisine,11:00,22:00,Sanlitun Taikoo Li,"116.454406,39.934862",39.934862,116.454406,4.5
Xiaoxiang Pavilion (Sanlitun SOHO Branch),Beijing,39.933111,116.452867,84.0,Chinese Restaurant;Hunan Cuisine,10:30,21:30,Sanlitun Taikoo Li,"116.454406,39.934862",39.934862,116.454406,4.8
Alkhaleej Mandi Kitchen · Gulf Mandi Restaurant,Beijing,39.932837,116.453202,139.0,Foreign Restaurant;Foreign Restaurant,10:00,24:00,Sanlitun Taikoo Li,"116.454406,39.934862",39.934862,116.454406,4.4
Yueshe Restaurant (T+MALL Branch),Beijing,39.932637,116.454007,114.0,Foreign Restaurant;泰国/越南菜品餐厅,10:00,22:00,Sanlitun Taikoo Li,"116.454406,39.934862",39.934862,116.454406,4.2
Tsinghua University Jia Suo Restaurant,Beijing,40.001088,116.322559,100.0,Chinese Restaurant;Chinese Restaurant,17:00,20:30,Tsinghua University,"116.325899,40.003220",40.003220,116.325899,4.9
Tsinghua University Xichunyuan Restaurant,Beijing,40.002051,116.321323,91.0,Chinese Restaurant;Chinese Restaurant,17:00,20:00,Tsinghua University,"116.325899,40.003220",40.003220,116.325899,4.3
Tsinghua University Heyuan Restaurant,Beijing,40.002773,116.321093,20.0,Chinese Restaurant;Chinese Restaurant,17:00,19:00,Tsinghua University,"116.325899,40.003220",40.003220,116.325899,4.6
Tsinghua University Qingqing Fast Food Restaurant,Beijing,40.006939,116.328559,28.0,Chinese Restaurant;Chinese Restaurant,11:00,21:00,Tsinghua University,"116.325899,40.003220",40.003220,116.325899,4.6
Tsinghua University Guanzhouyuan (Restaurant),Beijing,40.006900,116.322438,48.0,Food Service Related;Food Service Related,17:00,20:30,Tsinghua University,"116.325899,40.003220",40.003220,116.325899,4.4
Tsinghua University Lanyuan Staff Restaurant,Beijing,39.998575,116.325267,33.0,Chinese Restaurant;Chinese Restaurant,11:00,21:00,Tsinghua University,"116.325899,40.003220",40.003220,116.325899,4.6
Yuyuan Faculty Restaurant,Beijing,39.998357,116.319091,17.0,Chinese Restaurant;Chinese Restaurant,17:00,19:00,Tsinghua University,"116.325899,40.003220",40.003220,116.325899,4.5
Tsinghua University Nanyuan Restaurant,Beijing,39.995864,116.327299,12.0,Chinese Restaurant;Chinese Restaurant,17:00,19:30,Tsinghua University,"116.325899,40.003220",40.003220,116.325899,4.5
Tsinghua University Taoliyuan Restaurant,Beijing,40.010939,116.326059,100.0,Chinese Restaurant;Chinese Restaurant,17:00,21:00,Tsinghua University,"116.325899,40.003220",40.003220,116.325899,4.8
Huaqing Yongsheng Restaurant (Innovation Building Branch),Beijing,39.995580,116.330193,100.0,Chinese Restaurant;Chinese Restaurant,11:00,21:00,Tsinghua University,"116.325899,40.003220",40.003220,116.325899,4.2
