city,attraction_name,attraction_id,description,attraction_type,address,latitude,longitude,rating,opening_time,closing_time,closing_dates,min_visit_hours,max_visit_hours,ticket_price
恩施,土司路商业街,B0IA3KB63C,恩施市区主要商业街道之一，聚集了众多当地特色餐厅和商店，是品尝恩施美食的好去处。,休闲体验,,30.301061,109.472098,4.5,全天开放,全天开放,,1.5,3.0,0.0
恩施,土家女儿城,B02CE0P84E,全国最大的土家族文化商业步行街，AAAA级景区，免费开放体验土家风情。,历史文化,,30.269545,109.502984,4.5,00:00,24:00,,2.0,3.5,0.0
恩施,云龙地缝,B0FFF2QFCX,恩施大峡谷内的幽深地缝，全长20公里，平均深度100米，瀑布群壮观。,自然风光,,30.416873,109.190728,4.4,08:00,16:00,,2.0,3.5,200.0
恩施,大水井古建筑群,B02CE000EH,明末清初建造的大型古建筑群，李氏家族庄园和宗祠，展现土家族古代建筑艺术。,历史文化,,30.575064,109.037503,4.4,08:30,18:00,,1.5,3.0,58.0
恩施,连珠塔,B02CE0PP0M,恩施市标志性古塔建筑，位于五峰山顶，可俯瞰恩施市区全景。,历史文化,,30.253647,109.482239,4.6,09:00,17:00,,0.5,2.0,0.0
恩施,《腾龙飞舞》实景剧,,腾龙洞内大型土家族歌舞表演，融合激光秀和民俗文化。,艺术展览,,30.333284,108.991410,4.4,全天开放,全天开放,,1.0,2.5,0.0
恩施,恩施市博物馆,B0FFGDRKHC,展示恩施地区历史文化、地质特色和民族风情的综合性博物馆。,历史文化,,30.262440,109.477729,4.4,全天开放,全天开放,,1.0,2.5,0.0
恩施,腾龙洞,B02CE00USF,世界最大的溶洞之一，国家5A级景区，洞内空间宏大，有地下暗河。,自然风光,,30.333284,108.991410,4.4,08:30,17:30,,2.5,4.0,150.0
恩施,恩施土司城,B02CE005L9,展示土家族文化的大型民俗风景区，AAAA级景区，体验土家族建筑和文化。,历史文化,,30.301061,109.472098,4.4,07:30,18:00,,2.0,3.5,45.0
