restaurant_name,city,latitude,longitude,price_per_person,cuisine,opening_time,closing_time,nearby_attraction_name,nearby_attraction_coords,query_latitude,query_longitude,rating
Mama Restaurant (Chengdong Road Branch),Zhengzhou,34.748675,113.691225,15.0,Chinese Restaurant;Chinese Restaurant,17:30,21:00,Zhengzhou Confucian Temple,"113.688345,34.748659",34.748659,113.688345,4.4
Zhenyu Chuan Banquet Center,Zhengzhou,34.747760,113.691761,100.0,Chinese Restaurant;Chinese Restaurant,17:00,21:00,Zhengzhou Confucian Temple,"113.688345,34.748659",34.748659,113.688345,4.7
Henan University Affiliated Zhengzhou First People's Hospital · Nutrition Restaurant,Zhengzhou,34.750370,113.685219,100.0,Chinese Restaurant;Chinese Restaurant,11:00,21:00,Zhengzhou Confucian Temple,"113.688345,34.748659",34.748659,113.688345,3.7
Min Yu Chinese Restaurant (Jin Duo Yin Duo Jewelry Store),Zhengzhou,34.748684,113.681630,90.0,Chinese Restaurant;Fujian Cuisine,10:00,22:00,Zhengzhou Confucian Temple,"113.688345,34.748659",34.748659,113.688345,4.0
Old Wu's Meow Cafe & Cat-themed Restaurant (New World Department Store Branch),Zhengzhou,34.752925,113.682675,28.0,Food Service Related;Food Service Related,09:30,21:30,Zhengzhou Confucian Temple,"113.688345,34.748659",34.748659,113.688345,4.3
Henan Provincial Traditional Chinese Medicine Research Institute Affiliated Hospital Restaurant,Zhengzhou,34.755083,113.685722,100.0,Chinese Restaurant;Chinese Restaurant,17:00,19:30,Zhengzhou Confucian Temple,"113.688345,34.748659",34.748659,113.688345,3.8
Yutong Retired Staff Restaurant (Yutong Garden Zhengbian Road No. 42 Courtyard Branch),Zhengzhou,34.747100,113.697080,100.0,Chinese Restaurant;Chinese Restaurant,11:00,21:00,Zhengzhou Confucian Temple,"113.688345,34.748659",34.748659,113.688345,3.6
Mama Restaurant,Zhengzhou,34.745025,113.680175,100.0,Chinese Restaurant;Chinese Restaurant,11:00,21:00,Zhengzhou Confucian Temple,"113.688345,34.748659",34.748659,113.688345,3.6
Erguang Restaurant,Zhengzhou,34.757454,113.691651,66.0,Chinese Restaurant;Halal Restaurant,17:30,22:00,Zhengzhou Confucian Temple,"113.688345,34.748659",34.748659,113.688345,4.4
Royal Dining Hall - Medicinal Cuisine Restaurant (Yuxi Building Branch),Zhengzhou,34.747991,113.699877,100.0,Chinese Restaurant;Chinese Restaurant,11:00,21:00,Zhengzhou Confucian Temple,"113.688345,34.748659",34.748659,113.688345,3.4
Caifeng Lou Chinese Restaurant (Zhengzhou Dennis Plaza Intercontinental Hotel),Zhengzhou,34.757771,113.665954,227.0,Food Service Related;Food Service Related,17:30,21:30,David Plaza Shopping Center,"113.666031,34.758202",34.758202,113.666031,4.2
Issho Sukiyaki (Dennis · David City Branch),Zhengzhou,34.757768,113.665886,159.0,Foreign Restaurant;Japanese Cuisine,11:00,22:00,David Plaza Shopping Center,"113.666031,34.758202",34.758202,113.666031,4.6
The Boots Get Holiday (David Plaza Branch),Zhengzhou,34.758578,113.666557,117.0,Foreign Restaurant;Western Restaurant,11:00,22:00,David Plaza Shopping Center,"113.666031,34.758202",34.758202,113.666031,4.8
Wang Steak (Zhengzhou David Plaza Branch),Zhengzhou,34.757501,113.666208,258.0,Foreign Restaurant;牛扒店(扒房),17:00,21:00,David Plaza Shopping Center,"113.666031,34.758202",34.758202,113.666031,4.4
Xiangdingsheng Premium Restaurant (David City Branch),Zhengzhou,34.757365,113.665761,61.0,Chinese Restaurant;Chinese Restaurant,11:00,21:00,David Plaza Shopping Center,"113.666031,34.758202",34.758202,113.666031,4.6
Grandma's Kitchen (Dennis David City Branch),Zhengzhou,34.757262,113.666027,136.0,Chinese Restaurant;Chinese Restaurant,11:00,21:30,David Plaza Shopping Center,"113.666031,34.758202",34.758202,113.666031,4.5
De Fu's Indian Restaurant (David Plaza Branch),Zhengzhou,34.756973,113.665911,83.0,Food Service Related;Food Service Related,10:30,21:30,David Plaza Shopping Center,"113.666031,34.758202",34.758202,113.666031,4.6
Manyu (Dennis David City Branch),Zhengzhou,34.756848,113.666241,90.0,服装鞋帽皮具店;服装鞋帽皮具店,11:00,21:00,David Plaza Shopping Center,"113.666031,34.758202",34.758202,113.666031,4.7
Highway No. 5 Stone-Grilled Steak Restaurant (David City Branch),Zhengzhou,34.756777,113.666316,128.0,Fast Food Restaurant;Fast Food Restaurant,11:00,22:00,David Plaza Shopping Center,"113.666031,34.758202",34.758202,113.666031,4.7
Zhengzhou Zhengbai Restaurant (Zhengzhou Department Store Branch),Zhengzhou,34.756286,113.668080,100.0,Chinese Restaurant;Chinese Restaurant,09:30,21:00,David Plaza Shopping Center,"113.666031,34.758202",34.758202,113.666031,3.9
Qianxi Cloud Restaurant (Qianxi Plaza Branch),Zhengzhou,34.771075,113.727225,165.0,Chinese Restaurant;Chinese Restaurant,09:00,01:00,Ruyi Lake Scenic Area,"113.724204,34.772895",34.772895,113.724204,4.5
Zhengzhou Greenland JW Marriott Hotel - Urban Kitchen Buffet Restaurant,Zhengzhou,34.771054,113.727309,280.0,Foreign Restaurant;Western Restaurant,17:30,21:30,Ruyi Lake Scenic Area,"113.724204,34.772895",34.772895,113.724204,4.3
Zhengzhou Greenland JW Marriott Hotel (Marriott Chinese Restaurant),Zhengzhou,34.770905,113.727350,300.0,Chinese Restaurant;Chinese Restaurant,17:30,22:30,Ruyi Lake Scenic Area,"113.724204,34.772895",34.772895,113.724204,4.5
Zhengzhou Big Corn G PLUS Skyview Restaurant,Zhengzhou,34.770914,113.727493,228.0,Chinese Restaurant;General Restaurant,16:00,05:00,Ruyi Lake Scenic Area,"113.724204,34.772895",34.772895,113.724204,4.2
Zui Baxian Grilled Fish (Qianxi Plaza Branch),Zhengzhou,34.770902,113.727580,62.0,Food Service Related;Food Service Related,10:00,24:00,Ruyi Lake Scenic Area,"113.724204,34.772895",34.772895,113.724204,4.2
Haiyu Gourmet Seafood Restaurant,Zhengzhou,34.769787,113.726419,39.0,Chinese Restaurant;Seafood Restaurant,17:00,23:00,Ruyi Lake Scenic Area,"113.724204,34.772895",34.772895,113.724204,3.8
No. 5 Restaurant (Henan International Chamber of Commerce Building Branch),Zhengzhou,34.770632,113.719294,18.0,Chinese Restaurant;Chinese Restaurant,11:00,21:00,Ruyi Lake Scenic Area,"113.724204,34.772895",34.772895,113.724204,4.2
Yu Jian Tea Restaurant (Xin'ao Building Branch),Zhengzhou,34.767928,113.723581,100.0,Chinese Restaurant;Chinese Restaurant,11:00,21:00,Ruyi Lake Scenic Area,"113.724204,34.772895",34.772895,113.724204,4.1
Huayu Sichuan Restaurant (Dennis Seven Worlds Branch),Zhengzhou,34.777780,113.722674,100.0,Chinese Restaurant;Chinese Restaurant,11:00,21:00,Ruyi Lake Scenic Area,"113.724204,34.772895",34.772895,113.724204,4.7
Dexian Zhijian · Teahouse · Ecological Xinyang Cuisine (CBD Branch),Zhengzhou,34.774628,113.718260,88.0,生活服务;生活服务场所;生活服务场所,11:00,21:00,Ruyi Lake Scenic Area,"113.724204,34.772895",34.772895,113.724204,4.6
Zhang Zhanggui Goose Burger,Zhengzhou,34.870717,113.670712,50.0,Fast Food Restaurant;Fast Food Restaurant,09:30,23:00,Yellow River Museum,"113.677764,34.871840",34.871840,113.677764,4.4
Datang Restaurant Shrimp Dumpling Specialty Store (Yingbin Road Branch),Zhengzhou,34.871556,113.665047,90.0,Chinese Restaurant;Local Specialty Restaurant,17:00,21:30,Yellow River Museum,"113.677764,34.871840",34.871840,113.677764,4.5
Radisson Blu Hotel Zhengzhou - Pin Buffet Restaurant,Zhengzhou,34.859568,113.678526,208.0,Food Service Related;Food Service Related,11:00,22:00,Yellow River Museum,"113.677764,34.871840",34.871840,113.677764,4.1
Zhengzhou Normal University East Campus Jingxinyuan Restaurant,Zhengzhou,34.863435,113.659282,100.0,Chinese Restaurant;Chinese Restaurant,11:00,21:00,Yellow River Museum,"113.677764,34.871840",34.871840,113.677764,4.2
Twin Seasons Dessert Fusion Restaurant (Yaoqiao Community North Campus Branch),Zhengzhou,34.813115,113.795071,27.0,甜品店;甜品店,11:00,22:00,Beilong Lake Wetland Park,"113.789100,34.812300",34.812300,113.789100,4.4
Xuan Ge Music Restaurant & Bar,Zhengzhou,34.809266,113.793947,100.0,Chinese Restaurant;Chinese Restaurant,11:00,21:00,Beilong Lake Wetland Park,"113.789100,34.812300",34.812300,113.789100,3.9
Shijianli Fusion Restaurant,Zhengzhou,34.818459,113.794111,100.0,Food Service Related;Food Service Related,11:00,21:00,Beilong Lake Wetland Park,"113.789100,34.812300",34.812300,113.789100,3.8
Lakeside Restaurant,Zhengzhou,34.803494,113.786967,100.0,Chinese Restaurant;Chinese Restaurant,11:00,21:00,Beilong Lake Wetland Park,"113.789100,34.812300",34.812300,113.789100,3.5
Coarse Grain Kitchen - Lamb Skewers and Fresh Stir-fried Chicken,Zhengzhou,34.809780,113.800337,53.0,Chinese Restaurant;General Restaurant,10:00,23:00,Beilong Lake Wetland Park,"113.789100,34.812300",34.812300,113.789100,4.1
Enjoy Bawei Shangshang Pot 29 Yuan Hot Pot Buffet Restaurant (Shigeng Community Branch) (Temporarily Closed),Zhengzhou,34.808834,113.797840,31.0,Food Service Related;Food Service Related,10:00,23:30,Beilong Lake Wetland Park,"113.789100,34.812300",34.812300,113.789100,4.2
Han Feng Yuan BBQ and Hot Pot Buffet Restaurant (Asia Joy City Branch),Zhengzhou,34.751785,113.667704,80.0,Chinese Restaurant;Chinese Restaurant,11:00,23:30,Erqi Square,"113.666451,34.751860",34.751860,113.666451,4.7
Yuehai Hotel Xuan Palace Western Restaurant (Erqi Square),Zhengzhou,34.749629,113.667658,111.0,Foreign Restaurant;Western Restaurant,10:00,23:00,Erqi Square,"113.666451,34.751860",34.751860,113.666451,3.9
Yuehai Hotel - Yuehai Pavilion Chinese Restaurant,Zhengzhou,34.749142,113.667796,100.0,Chinese Restaurant;Chinese Restaurant,11:00,21:00,Erqi Square,"113.666451,34.751860",34.751860,113.666451,3.9
Tiger Ya Stir-fried Chicken (Henan Zhengzhou Erqi MixC Branch),Zhengzhou,34.754815,113.662798,55.0,Chinese Restaurant;Chinese Restaurant,10:00,22:00,Erqi Square,"113.666451,34.751860",34.751860,113.666451,4.6
Jixu Folk Music Barbecue House (Zhengzhou Guangcai Branch),Zhengzhou,34.755287,113.669676,72.0,Chinese Restaurant;Chinese Restaurant,18:00,02:30,Erqi Square,"113.666451,34.751860",34.751860,113.666451,4.6
Green Tea Restaurant (Zhengzhou MixC Branch),Zhengzhou,34.754667,113.662403,100.0,Chinese Restaurant;Chinese Restaurant,11:00,21:00,Erqi Square,"113.666451,34.751860",34.751860,113.666451,4.6
Datong Hotel Restaurant,Zhengzhou,34.747498,113.663838,31.0,Chinese Restaurant;Chinese Restaurant,17:00,21:00,Erqi Square,"113.666451,34.751860",34.751860,113.666451,3.8
Dingyuan Buffet Restaurant,Zhengzhou,34.786308,113.672932,100.0,Chinese Restaurant;Chinese Restaurant,11:00,21:00,Henan Museum,"113.672097,34.788263",34.788263,113.672097,2.5
Enjoy House Tea Restaurant (Century Star Building Branch),Zhengzhou,34.786292,113.671079,100.0,Fast Food Restaurant;Tea Restaurant,17:00,21:30,Henan Museum,"113.672097,34.788263",34.788263,113.672097,3.8
Century Star Garden Restaurant,Zhengzhou,34.786256,113.671176,100.0,Chinese Restaurant;Chinese Restaurant,11:00,21:00,Henan Museum,"113.672097,34.788263",34.788263,113.672097,4.1
Gourmet Restaurant (Zhengzhou Times International Plaza Building 70 Branch),Zhengzhou,34.786608,113.670287,100.0,Chinese Restaurant;Chinese Restaurant,11:00,21:00,Henan Museum,"113.672097,34.788263",34.788263,113.672097,3.5
Agricultural University Home Faculty Restaurant (Cultural Road No. 52 Courtyard Branch),Zhengzhou,34.785268,113.668041,100.0,Chinese Restaurant;Chinese Restaurant,06:00,22:00,Henan Museum,"113.672097,34.788263",34.788263,113.672097,3.9
Agricultural University Home Faculty Restaurant,Zhengzhou,34.784879,113.666814,100.0,Chinese Restaurant;Chinese Restaurant,08:00,22:00,Henan Museum,"113.672097,34.788263",34.788263,113.672097,4.0
Mao Zhangzhang Oil Braised Skewers (Guomao 360 Branch),Zhengzhou,34.783597,113.675687,100.0,Food Service Related;Food Service Related,11:00,23:00,Henan Museum,"113.672097,34.788263",34.788263,113.672097,4.7
Rainbow Salt RED SALT New-Style Indian-Pakistani Restaurant,Zhengzhou,34.793421,113.677088,69.0,Chinese Restaurant;Chinese Restaurant,11:00,21:00,Henan Museum,"113.672097,34.788263",34.788263,113.672097,4.5
Wentong Ice Room (Guomao 360 Branch),Zhengzhou,34.784943,113.679565,39.0,Cold Beverage Shop;Cold Beverage Shop,10:30,22:00,Henan Museum,"113.672097,34.788263",34.788263,113.672097,4.7
Wanda Vista Hotel Pinzhen Chinese Restaurant,Zhengzhou,34.792621,113.678848,246.0,Food Service Related;Food Service Related,17:30,21:30,Henan Museum,"113.672097,34.788263",34.788263,113.672097,4.4
Xiaozhiwei Restaurant,Zhengzhou,34.740996,113.539988,100.0,Chinese Restaurant;Chinese Restaurant,11:00,21:00,Zhengzhou Museum New Hall,"113.546720,34.739600",34.739600,113.546720,3.6
Zhengzhou Olympic Sports Jianguo Hotel - Seafood Buffet Restaurant,Zhengzhou,34.739770,113.537534,100.0,Chinese Restaurant;Chinese Restaurant,17:00,21:00,Zhengzhou Museum New Hall,"113.546720,34.739600",34.739600,113.546720,4.0
Zhengdi Olympic Sports Jianguo Hotel All-Day Dining Restaurant,Zhengzhou,34.740659,113.537609,100.0,Food Service Related;Food Service Related,17:30,21:00,Zhengzhou Museum New Hall,"113.546720,34.739600",34.739600,113.546720,4.2
Jiupu Restaurant,Zhengzhou,34.739579,113.561973,100.0,Chinese Restaurant;Chinese Restaurant,11:00,21:00,Zhengzhou Museum New Hall,"113.546720,34.739600",34.739600,113.546720,3.6
Peony Restaurant (Yi'er Hotel Management Company),Zhengzhou,34.739995,113.562140,100.0,Chinese Restaurant;Chinese Restaurant,07:30,15:00,Zhengzhou Museum New Hall,"113.546720,34.739600",34.739600,113.546720,4.1
M Art Restaurant Qide Sheng Beef Noodles,Zhengzhou,34.739800,113.563173,100.0,Chinese Restaurant;Chinese Restaurant,11:00,21:00,Zhengzhou Museum New Hall,"113.546720,34.739600",34.739600,113.546720,4.0
Waku No. 50 (Kaixuan Road Branch),Zhengzhou,34.740377,113.563327,100.0,Food Service Related;Food Service Related,09:00,23:00,Zhengzhou Museum New Hall,"113.546720,34.739600",34.739600,113.546720,4.7
Jiang Aqiao Tatta Noodles (Shanghai Branch),Zhengzhou,34.755928,113.670393,100.0,Chinese Restaurant;Chinese Restaurant,10:30,21:30,Zhengzhou Shang Dynasty Ruins,"113.671988,34.755497",34.755497,113.671988,4.5
Henan University of Chinese Medicine First Affiliated Hospital Renmin Road Campus Restaurant,Zhengzhou,34.758033,113.673949,100.0,Chinese Restaurant;Chinese Restaurant,11:00,21:00,Zhengzhou Shang Dynasty Ruins,"113.671988,34.755497",34.755497,113.671988,3.7
Alley Community Canteen · Mama Restaurant,Zhengzhou,34.752730,113.674692,100.0,Chinese Restaurant;Chinese Restaurant,17:00,20:30,Zhengzhou Shang Dynasty Ruins,"113.671988,34.755497",34.755497,113.671988,4.2
Heji (Old Street Snack Street Branch),Zhengzhou,34.758132,113.675030,100.0,Chinese Restaurant;Halal Restaurant,10:30,22:00,Zhengzhou Shang Dynasty Ruins,"113.671988,34.755497",34.755497,113.671988,4.4
Chinese Delicious Fast Food Restaurant,Zhengzhou,34.759118,113.676308,20.0,Fast Food Restaurant;Fast Food Restaurant,07:00,20:00,Zhengzhou Shang Dynasty Ruins,"113.671988,34.755497",34.755497,113.671988,3.7
Xinqiao Airport Staff Restaurant,Zhengzhou,31.971607,116.983558,20.0,Food Service Related;Food Service Related,11:00,21:00,Xinqiao International Airport,"116.978347,31.985386",31.985386,116.978347,4.1
Employee Center Restaurant (NIO Advanced Manufacturing Xinqiao Second Factory),Zhengzhou,31.996783,116.991051,19.0,Chinese Restaurant;Chinese Restaurant,07:00,18:00,Xinqiao International Airport,"116.978347,31.985386",31.985386,116.978347,4.5
Huijiu Fragrance Restaurant,Zhengzhou,31.883734,117.318492,100.0,Chinese Restaurant;Anhui Cuisine,08:00,20:00,Hefei Station,"117.316937,31.885135",31.885135,117.316937,3.8
Mutongji Stinky Mandarin Fish · Anhui Intangible Cultural Heritage Dish (Train Station Xindi Branch),Zhengzhou,31.881246,117.318559,73.0,Chinese Restaurant;Chinese Restaurant,16:00,22:00,Hefei Station,"117.316937,31.885135",31.885135,117.316937,4.0
Hefei Southeast Orthopedic Hospital Staff Restaurant,Zhengzhou,31.881689,117.313260,100.0,Chinese Restaurant;Chinese Restaurant,11:00,21:00,Hefei Station,"117.316937,31.885135",31.885135,117.316937,3.9
Wooden Barrel Stinky Mandarin Fish · Huizhou Cuisine Restaurant (Bai Ma Old Branch),Zhengzhou,31.884821,117.310082,100.0,Chinese Restaurant;Chinese Restaurant,10:00,22:00,Hefei Station,"117.316937,31.885135",31.885135,117.316937,4.7
Huishiji Restaurant (Zhonghuan International Building Branch),Zhengzhou,31.880608,117.311680,100.0,Food Service Related;Food Service Related,09:00,21:00,Hefei Station,"117.316937,31.885135",31.885135,117.316937,3.6
Lounge Restaurant,Zhengzhou,34.754747,113.783314,100.0,Chinese Restaurant;General Restaurant,10:00,22:00,Zhengzhou East Station,"113.779558,34.759081",34.759081,113.779558,3.7
Zhengzhou Hesong Yiside Hotel · Xindi Restaurant (Greenland Colorful City Branch),Zhengzhou,34.761864,113.772727,125.0,Chinese Restaurant;Chinese Restaurant,06:30,24:00,Zhengzhou East Station,"113.779558,34.759081",34.759081,113.779558,4.1
Lanting Xu Tea Restaurant,Zhengzhou,34.753801,113.774832,100.0,Fast Food Restaurant;Fast Food Restaurant,09:00,22:00,Zhengzhou East Station,"113.779558,34.759081",34.759081,113.779558,4.5
Xiao Liangkou Restaurant (Zhiji Road Branch),Zhengzhou,34.751907,113.440908,13.0,Chinese Restaurant;Chinese Restaurant,10:00,15:30,Zhengzhou West Station,"113.425242,34.744948",34.744948,113.425242,3.9
Huijiu Fragrance Restaurant (Hefei South Station Branch),Zhengzhou,31.800640,117.289706,22.0,Chinese Restaurant;Chinese Restaurant,06:00,23:00,Hefei South Station,"117.290331,31.797955",31.797955,117.290331,4.5
Jiukoujia Restaurant (Hefei South Station Branch),Zhengzhou,31.801025,117.290345,100.0,Fast Food Restaurant;Fast Food Restaurant,07:00,21:30,Hefei South Station,"117.290331,31.797955",31.797955,117.290331,3.9
Four Seasons Restaurant (South Station South Square Branch),Zhengzhou,31.794832,117.288801,100.0,Chinese Restaurant;Chinese Restaurant,09:00,21:00,Hefei South Station,"117.290331,31.797955",31.797955,117.290331,4.1
Huiyun Restaurant,Zhengzhou,31.804275,117.294043,100.0,Chinese Restaurant;Chinese Restaurant,11:00,17:00,Hefei South Station,"117.290331,31.797955",31.797955,117.290331,3.8
Hong Kong Gourmet Goose Tea Restaurant (Wanghucheng Branch),Zhengzhou,31.807087,117.295468,37.0,Chinese Restaurant;Chinese Restaurant,09:30,21:30,Hefei South Station,"117.290331,31.797955",31.797955,117.290331,4.1
Axiang Rice Noodles (Zhengzhou Erqi Shanshan Outlets Restaurant),Zhengzhou,34.526573,113.855171,31.0,Chinese Restaurant;Local Specialty Restaurant,06:00,22:00,Xinzheng International Airport,"113.856808,34.528476",34.528476,113.856808,3.7
Zhengzhou Airport Hotel Chinese Restaurant,Zhengzhou,34.528534,113.843450,70.0,Chinese Restaurant;Chinese Restaurant,10:00,21:00,Xinzheng International Airport,"113.856808,34.528476",34.528476,113.856808,4.1
Guangdong Restaurant (Erma Road),Zhengzhou,34.749825,113.660012,100.0,Chinese Restaurant;Cantonese Cuisine,11:00,21:00,Zhengzhou Station,"113.658097,34.745795",34.745795,113.658097,3.7
Nutrition and Health Restaurant,Zhengzhou,34.744171,113.652484,100.0,Chinese Restaurant;Chinese Restaurant,11:00,21:00,Zhengzhou Station,"113.658097,34.745795",34.745795,113.658097,3.5
Zhengzhou High-Tech Crowne Plaza Hotel - Cai Feng Lou Chinese Restaurant,Zhengzhou,34.827810,113.563350,204.0,Food Service Related;Food Service Related,09:00,21:30,Crowne Plaza Zhengzhou High-Tech Zone,"113.563243,34.827628",34.827628,113.563243,4.3
Gaoxin Crowne Plaza Hotel · Kaimu Restaurant,Zhengzhou,34.827425,113.562975,177.0,Food Service Related;Food Service Related,11:00,21:00,Crowne Plaza Zhengzhou High-Tech Zone,"113.563243,34.827628",34.827628,113.563243,4.6
Bailian Pu'er Tea Dining Space,Zhengzhou,34.827966,113.563365,28.0,Chinese Restaurant;Cantonese Cuisine,09:00,21:00,Crowne Plaza Zhengzhou High-Tech Zone,"113.563243,34.827628",34.827628,113.563243,4.3
Migos American Restaurant,Zhengzhou,34.823040,113.563823,100.0,Foreign Restaurant;Foreign Restaurant,17:00,21:00,Crowne Plaza Zhengzhou High-Tech Zone,"113.563243,34.827628",34.827628,113.563243,4.4
Fish Wharf Themed Restaurant (Xuefu Garden Branch),Zhengzhou,34.826464,113.557125,79.0,Chinese Restaurant;Hunan Cuisine,09:30,22:00,Crowne Plaza Zhengzhou High-Tech Zone,"113.563243,34.827628",34.827628,113.563243,4.0
Shisui Hot Pot Restaurant (Weilai Road Branch),Zhengzhou,34.771161,113.707663,100.0,Chinese Restaurant;Hot Pot,09:30,24:00,Ji Hotel Zhengzhou Convention Center Future Road,"113.707000,34.772300",34.772300,113.707000,4.6
Meilun Chinese Restaurant (Weilai Road Branch),Zhengzhou,34.773957,113.708770,43.0,Food Service Related;Food Service Related,11:00,21:00,Ji Hotel Zhengzhou Convention Center Future Road,"113.707000,34.772300",34.772300,113.707000,4.0
Futures Restaurant (Future Building Branch),Zhengzhou,34.769968,113.708708,100.0,Chinese Restaurant;Chinese Restaurant,17:30,21:30,Ji Hotel Zhengzhou Convention Center Future Road,"113.707000,34.772300",34.772300,113.707000,4.3
Future Grand Hotel - Golden Future Restaurant,Zhengzhou,34.769025,113.707177,162.0,Chinese Restaurant;Chinese Restaurant,18:00,21:00,Ji Hotel Zhengzhou Convention Center Future Road,"113.707000,34.772300",34.772300,113.707000,4.2
Yuan Fuyuan Cafeteria (Jincheng Times Square Branch),Zhengzhou,34.776707,113.706486,24.0,Chinese Restaurant;Chinese Restaurant,11:00,21:00,Ji Hotel Zhengzhou Convention Center Future Road,"113.707000,34.772300",34.772300,113.707000,4.1
Red Pear Soup · Pu Banquet Restaurant,Zhengzhou,34.784155,113.658609,10.0,Chinese Restaurant;Chinese Restaurant,17:00,22:00,Hampton by Hilton Zhengzhou Jinshui,"113.657658,34.787778",34.787778,113.657658,4.6
Xinyang Fish Wharf Theme Restaurant (Qiansheng Plaza Branch),Zhengzhou,34.786989,113.650217,100.0,Chinese Restaurant;Chinese Restaurant,11:00,21:00,Hampton by Hilton Zhengzhou Jinshui,"113.657658,34.787778",34.787778,113.657658,4.0
Shishang Fish Wharf Theme Restaurant (Qiansheng Plaza Branch),Zhengzhou,34.786925,113.650175,67.0,Chinese Restaurant;Chinese Restaurant,17:00,21:00,Hampton by Hilton Zhengzhou Jinshui,"113.657658,34.787778",34.787778,113.657658,4.2
Doufafa Music Food City (Weilai Road City Investment Market Branch),Zhengzhou,34.738825,113.703025,100.0,Chinese Restaurant;Chinese Restaurant,11:00,21:00,Jinjiang Inn (Phoenix Tea City Phoenix South Metro Station Branch),"113.704863,34.733212",34.733212,113.704863,4.1
Muzhiyun Restaurant,Zhengzhou,34.741355,113.710237,23.0,Chinese Restaurant;Chinese Restaurant,11:00,21:00,Jinjiang Inn (Phoenix Tea City Phoenix South Metro Station Branch),"113.704863,34.733212",34.733212,113.704863,3.8
Zhengzhou Grand Hotel Restaurant,Zhengzhou,34.749133,113.662240,100.0,Chinese Restaurant;Chinese Restaurant,17:00,20:30,Home Inn - Zhengzhou Railway Station Erqi Square Metro Station Branch,"113.664174,34.748404",34.748404,113.664174,4.1
Lakeside Delight Restaurant,Zhengzhou,34.812680,113.480604,118.0,Food Service Related;Food Service Related,17:00,21:30,Holiday Inn Zhengzhou High-Tech Zone,"113.484180,34.819372",34.819372,113.484180,4.1
KFC Drive-Thru Restaurant (Kexue Avenue PetroChina DT),Zhengzhou,34.807940,113.489790,100.0,Food Service Related;Food Service Related,11:00,21:00,Holiday Inn Zhengzhou High-Tech Zone,"113.484180,34.819372",34.819372,113.484180,3.6
Little Pig Lulu Children's Supplementary Food Restaurant,Zhengzhou,34.816074,113.501214,14.0,Food Service Related;Food Service Related,09:00,20:30,Holiday Inn Zhengzhou High-Tech Zone,"113.484180,34.819372",34.819372,113.484180,4.1
Shike Baihui Chinese Fast Food Restaurant,Zhengzhou,34.802844,113.492636,100.0,Fast Food Restaurant;Fast Food Restaurant,11:00,21:00,Holiday Inn Zhengzhou High-Tech Zone,"113.484180,34.819372",34.819372,113.484180,4.3
Snow Deer All-Day Buffet Restaurant (Yinji Ice and Snow Hotel),Zhengzhou,34.481312,113.553247,131.0,Chinese Restaurant;Chinese Restaurant,17:30,21:30,Xinmi Huangdigong Imperial Hot Spring Resort Hotel,"113.550337,34.481991",34.481991,113.550337,4.5
Snow Dragon Pavilion Chinese Restaurant (Yinji Ice and Snow Hotel),Zhengzhou,34.480809,113.553406,140.0,Chinese Restaurant;Chinese Restaurant,17:30,21:00,Xinmi Huangdigong Imperial Hot Spring Resort Hotel,"113.550337,34.481991",34.481991,113.550337,4.2
Harbor Restaurant,Zhengzhou,34.484514,113.547905,34.0,Food Service Related;Food Service Related,10:00,18:00,Xinmi Huangdigong Imperial Hot Spring Resort Hotel,"113.550337,34.481991",34.481991,113.550337,4.3
Supreme Qiangzai (Zhengguang North Street Branch),Zhengzhou,34.771566,113.754982,80.0,Chinese Restaurant;Cantonese Cuisine,17:00,22:00,Orange Hotel Zhengzhou Provincial Government MixC,"113.755528,34.771074",34.771074,113.755528,4.6
Guangyi Xinyang Maojian Tea Restaurant (Yuhang Branch),Zhengzhou,34.771881,113.755782,100.0,Specialty Store;Exclusive Store,11:00,21:00,Orange Hotel Zhengzhou Provincial Government MixC,"113.755528,34.771074",34.771074,113.755528,3.7
Yulongxuan Tea Restaurant (Yuhang Center Branch),Zhengzhou,34.771871,113.755230,100.0,Chinese Restaurant;Chinese Restaurant,09:00,22:30,Orange Hotel Zhengzhou Provincial Government MixC,"113.755528,34.771074",34.771074,113.755528,3.6
Zhengdong New District Puxuan Restaurant (Puju Building Branch),Zhengzhou,34.752601,113.743347,100.0,Chinese Restaurant;Chinese Restaurant,06:00,22:00,Ji Hotel Zhengzhou Zhengdong New District Huanghe South Road,"113.743000,34.752500",34.752500,113.743000,3.8
Lianlu Seafood (Zhengzhou Branch),Zhengzhou,34.752787,113.745683,138.0,Chinese Restaurant;Local Specialty Restaurant,17:00,21:30,Ji Hotel Zhengzhou Zhengdong New District Huanghe South Road,"113.743000,34.752500",34.752500,113.743000,4.7
Yunshen Yiye Fusion Teahouse (Hongguang Xincheng Branch),Zhengzhou,34.755336,113.743770,100.0,Fast Food Restaurant;Tea Restaurant,09:30,22:00,Ji Hotel Zhengzhou Zhengdong New District Huanghe South Road,"113.743000,34.752500",34.752500,113.743000,4.3
Jingchu Xunxian · Small Eatery,Zhengzhou,34.750375,113.740555,67.0,Chinese Restaurant;湖北菜(鄂菜),10:00,22:00,Ji Hotel Zhengzhou Zhengdong New District Huanghe South Road,"113.743000,34.752500",34.752500,113.743000,4.8
Jun He Tang Tea Restaurant (Three-Dimensional World Branch),Zhengzhou,34.753379,113.746618,100.0,Tea House;Tea House,09:30,21:30,Ji Hotel Zhengzhou Zhengdong New District Huanghe South Road,"113.743000,34.752500",34.752500,113.743000,3.9
Liuyuan · Leisure Tea and Food Appreciation,Zhengzhou,34.802265,113.740183,100.0,Tea House;Tea House,09:00,21:30,Atour Hotel (Zhengzhou Beilonghu Financial Center Financial Island),"113.740044,34.801804",34.801804,113.740044,4.3
Wuwei Academy · Laozi Culture Tea Dining Space,Zhengzhou,34.800876,113.734358,459.0,Chinese Restaurant;Chinese Restaurant,10:00,22:00,Atour Hotel (Zhengzhou Beilonghu Financial Center Financial Island),"113.740044,34.801804",34.801804,113.740044,4.0
Jilu Restaurant (Kailin Building Branch),Zhengzhou,34.802746,113.733842,100.0,Chinese Restaurant;Chinese Restaurant,11:00,21:00,Atour Hotel (Zhengzhou Beilonghu Financial Center Financial Island),"113.740044,34.801804",34.801804,113.740044,4.1
Guanghua Grand Hotel Chinese Restaurant (Ruida Road Branch),Zhengzhou,34.798293,113.567701,100.0,Chinese Restaurant;Chinese Restaurant,11:00,21:00,Zhengzhou Guanghua Grand Hotel,"113.567656,34.798408",34.798408,113.567656,4.0
Shi Yu Old Courtyard Folk Cuisine (Ruida Road Branch),Zhengzhou,34.803964,113.568137,66.0,Chinese Restaurant;Chinese Restaurant,17:30,22:00,Zhengzhou Guanghua Grand Hotel,"113.567656,34.798408",34.798408,113.567656,4.2
8-Inch Italian Restaurant (Zhenghonghui Branch),Zhengzhou,34.808740,113.565991,35.0,Foreign Restaurant;Italian Restaurant,10:00,22:00,Zhengzhou Guanghua Grand Hotel,"113.567656,34.798408",34.798408,113.567656,4.6
Haitang Tea Restaurant,Zhengzhou,34.761353,113.765447,100.0,服装鞋帽皮具店;服装鞋帽皮具店,11:00,21:00,Atour Hotel (Zhengzhou High-Speed Rail East Station),"113.767623,34.760173",34.760173,113.767623,4.2
Xiangweixuan Tea Restaurant (Dongzhou Mingcuiyuan Branch),Zhengzhou,34.761349,113.764871,100.0,Chinese Restaurant;Chinese Restaurant,10:00,24:00,Atour Hotel (Zhengzhou High-Speed Rail East Station),"113.767623,34.760173",34.760173,113.767623,4.2
Xiao Da Dong (Greenland Sky City Branch),Zhengzhou,34.757289,113.767388,110.0,Chinese Restaurant;Chinese Restaurant,11:00,21:30,Atour Hotel (Zhengzhou High-Speed Rail East Station),"113.767623,34.760173",34.760173,113.767623,4.5
Da Fu Yuan Medicinal Cuisine Dumpling Restaurant,Zhengzhou,34.756461,113.770911,100.0,Food Service Related;Food Service Related,11:00,21:00,Home Inn Selected Zhengzhou East Station Branch,"113.773536,34.757727",34.757727,113.773536,3.4
Soonsoo Fried Chicken Cuisine,Zhengzhou,34.754378,113.771221,91.0,Fast Food Restaurant;Fast Food Restaurant,10:00,22:00,Home Inn Selected Zhengzhou East Station Branch,"113.773536,34.757727",34.757727,113.773536,4.7
Zhengzhou Zhengdong InterContinental Hotel - Rong Pavilion Chinese Restaurant,Zhengzhou,34.761525,113.771825,100.0,Chinese Restaurant;Chinese Restaurant,17:30,21:30,Home Inn Selected Zhengzhou East Station Branch,"113.773536,34.757727",34.757727,113.773536,3.8
Rongyu Restaurant,Zhengzhou,34.754245,113.770035,100.0,Chinese Restaurant;Chinese Restaurant,10:00,21:30,Home Inn Selected Zhengzhou East Station Branch,"113.773536,34.757727",34.757727,113.773536,3.6
Zhengzhou Public Security Bureau Traffic Management Bureau Traffic Police Twelfth Division Restaurant,Zhengzhou,34.715080,113.765103,100.0,Chinese Restaurant;Chinese Restaurant,11:00,21:00,Zhengzhou Aima Gold Hotel,"113.765391,34.707160",34.707160,113.765391,3.3
Southern Windmill Geer International Hotel Chinese Restaurant,Zhengzhou,34.719198,113.764169,100.0,Chinese Restaurant;Chinese Restaurant,17:30,09:30,Zhengzhou Aima Gold Hotel,"113.765391,34.707160",34.707160,113.765391,4.1
Shishang Restaurant (Beef Rice),Zhengzhou,34.718823,113.770208,15.0,Chinese Restaurant;General Restaurant,11:00,21:00,Zhengzhou Aima Gold Hotel,"113.765391,34.707160",34.707160,113.765391,4.2
Songfeng Elegant Banquet · Song Culture Restaurant (Shangzuo Center Branch),Zhengzhou,34.763443,113.756145,212.0,Chinese Restaurant;Chinese Restaurant,17:00,21:00,Jinjiang Inn (Zhengzhou High-Speed Rail East Station Zhengdong Mixc Branch),"113.755074,34.762718",34.762718,113.755074,4.6
Sheng Star Court Steakhouse,Zhengzhou,34.763882,113.754664,100.0,Foreign Restaurant;Western Restaurant,17:30,21:00,Jinjiang Inn (Zhengzhou High-Speed Rail East Station Zhengdong Mixc Branch),"113.755074,34.762718",34.762718,113.755074,3.8
Meisheng Sheraton Grand Hotel - Feast Signature Restaurant,Zhengzhou,34.764000,113.754711,260.0,Foreign Restaurant;Western Restaurant,17:30,21:30,Jinjiang Inn (Zhengzhou High-Speed Rail East Station Zhengdong Mixc Branch),"113.755074,34.762718",34.762718,113.755074,4.3
Xun. Creative Restaurant (Shangzuo Center Branch),Zhengzhou,34.764013,113.756805,100.0,Chinese Restaurant;Chinese Restaurant,11:00,21:00,Jinjiang Inn (Zhengzhou High-Speed Rail East Station Zhengdong Mixc Branch),"113.755074,34.762718",34.762718,113.755074,3.5
Zhengzhou Meisheng Sheraton Business Chinese Restaurant,Zhengzhou,34.763686,113.758786,100.0,Hotel;Hotel|Chinese Restaurant;Chinese Restaurant,11:00,21:00,Jinjiang Inn (Zhengzhou High-Speed Rail East Station Zhengdong Mixc Branch),"113.755074,34.762718",34.762718,113.755074,3.7
"Yunfu Banquet Restaurant, Third Floor, Yunguang Building",Zhengzhou,34.753090,113.785108,100.0,Chinese Restaurant;Chinese Restaurant,11:00,21:00,Atour Hotel (Zhengzhou East Station East Square),"113.785957,34.753274",34.753274,113.785957,4.4
Muyuan Hotel (Zhengzhou East Railway Station Branch) · Guteng Tack German Restaurant,Zhengzhou,34.755419,113.789670,100.0,Food Service Related;Food Service Related,11:00,21:00,Atour Hotel (Zhengzhou East Station East Square),"113.785957,34.753274",34.753274,113.785957,3.6
Zhengzhou Jianguo Hotel Restaurant,Zhengzhou,34.763132,113.715344,211.0,Chinese Restaurant;Chinese Restaurant,06:30,24:00,Jianguo Hotel Zhengzhou,"113.715505,34.763266",34.763266,113.715505,4.2
Zhengzhou Jianguo Hotel · Four Seasons/Hongyun Restaurant,Zhengzhou,34.763004,113.715130,100.0,Food Service Related;Food Service Related,11:00,21:00,Jianguo Hotel Zhengzhou,"113.715505,34.763266",34.763266,113.715505,3.7
Zhiqing Village Wellness Restaurant,Zhengzhou,34.764608,113.716764,77.0,Chinese Restaurant;General Restaurant,10:00,22:00,Jianguo Hotel Zhengzhou,"113.715505,34.763266",34.763266,113.715505,4.5
Western Restaurant,Zhengzhou,34.768817,113.933939,100.0,Chinese Restaurant;Chinese Restaurant,11:00,21:00,Zhengzhou Zhongmu Zhipu Hotel (Only Henan Film Town Branch),"113.955310,34.786329",34.786329,113.955310,3.8
Ultraman Theme Restaurant Monster Store,Zhengzhou,34.789259,113.986234,63.0,Chinese Restaurant;Chinese Restaurant,11:00,18:00,Zhengzhou Zhongmu Zhipu Hotel (Only Henan Film Town Branch),"113.955310,34.786329",34.786329,113.955310,3.9
Ultraman Theme Restaurant - Hero Branch,Zhengzhou,34.786826,113.988821,86.0,Chinese Restaurant;Chinese Restaurant,11:00,21:00,Zhengzhou Zhongmu Zhipu Hotel (Only Henan Film Town Branch),"113.955310,34.786329",34.786329,113.955310,4.0
Zhongmu Yang's Braised Chicken Small Restaurant,Zhengzhou,34.756800,113.944461,100.0,Chinese Restaurant;Chinese Restaurant,08:00,23:15,Zhengzhou Zhongmu Zhipu Hotel (Only Henan Film Town Branch),"113.955310,34.786329",34.786329,113.955310,3.7
Brothers Gourmet Small Restaurant,Zhengzhou,34.805008,113.919082,100.0,Chinese Restaurant;Chinese Restaurant,08:00,23:00,Zhengzhou Zhongmu Zhipu Hotel (Only Henan Film Town Branch),"113.955310,34.786329",34.786329,113.955310,3.6
Zhengzhou Garden Expo Park InterContinental voco Hotel - Chinese Restaurant,Zhengzhou,34.457325,113.869575,100.0,Foreign Restaurant;Foreign Restaurant,17:00,21:00,Hilton Garden Inn Zhengzhou Airport,"113.924137,34.489252",34.489252,113.924137,4.4
Yu Jian · Sichuan-Hunan High-End Fusion Restaurant (Garden Expo Happy Garden Branch),Zhengzhou,34.438915,113.874074,44.0,Food Service Related;Food Service Related,17:00,22:00,Hilton Garden Inn Zhengzhou Airport,"113.924137,34.489252",34.489252,113.924137,4.2
Axiang Rice Noodles (Zhengzhou Erqi Shanshan Outlets Restaurant),Zhengzhou,34.526573,113.855171,31.0,Chinese Restaurant;Local Specialty Restaurant,06:00,22:00,Hilton Garden Inn Zhengzhou Airport,"113.924137,34.489252",34.489252,113.924137,3.7
G12 Staff Restaurant,Zhengzhou,34.546613,113.863064,100.0,Chinese Restaurant;Chinese Restaurant,11:00,21:00,Hilton Garden Inn Zhengzhou Airport,"113.924137,34.489252",34.489252,113.924137,4.0
Zhengzhou Airport Hotel Chinese Restaurant,Zhengzhou,34.528534,113.843450,70.0,Chinese Restaurant;Chinese Restaurant,10:00,21:00,Hilton Garden Inn Zhengzhou Airport,"113.924137,34.489252",34.489252,113.924137,4.1
Autumn Banquet Golf Restaurant,Zhengzhou,34.923788,113.514385,100.0,Chinese Restaurant;Chinese Restaurant,09:00,20:30,Zhengzhou Yellow River Cultural Park,"113.512589,34.953667",34.953667,113.512589,4.1
Sinen Golf Great Year Farmhouse Restaurant,Zhengzhou,34.919063,113.515391,100.0,Chinese Restaurant;Chinese Restaurant,17:30,20:30,Zhengzhou Yellow River Cultural Park,"113.512589,34.953667",34.953667,113.512589,4.3
Sinen Golf Lakeside Flower House Restaurant,Zhengzhou,34.914813,113.516550,85.0,Food Service Related;Food Service Related,10:00,22:00,Zhengzhou Yellow River Cultural Park,"113.512589,34.953667",34.953667,113.512589,4.5
Second Owner Restaurant,Zhengzhou,34.912985,113.515865,100.0,Chinese Restaurant;Chinese Restaurant,08:00,20:30,Zhengzhou Yellow River Cultural Park,"113.512589,34.953667",34.953667,113.512589,3.8
Zhengzhou Business College Restaurant,Zhengzhou,34.918067,113.537293,100.0,Chinese Restaurant;Chinese Restaurant,06:00,22:00,Zhengzhou Yellow River Cultural Park,"113.512589,34.953667",34.953667,113.512589,3.9
Guangdong Restaurant (Erma Road),Zhengzhou,34.749825,113.660012,100.0,Chinese Restaurant;Cantonese Cuisine,11:00,21:00,Jinjiang Inn Zhengzhou Railway Station Erqi Square Metro Station Hotel,"113.659562,34.749441",34.749441,113.659562,3.7
Zhengzhou Grand Hotel Restaurant,Zhengzhou,34.749133,113.662240,100.0,Chinese Restaurant;Chinese Restaurant,17:00,20:30,Jinjiang Inn Zhengzhou Railway Station Erqi Square Metro Station Hotel,"113.659562,34.749441",34.749441,113.659562,4.1
Datong Hotel Restaurant,Zhengzhou,34.747498,113.663838,31.0,Chinese Restaurant;Chinese Restaurant,17:00,21:00,Jinjiang Inn Zhengzhou Railway Station Erqi Square Metro Station Hotel,"113.659562,34.749441",34.749441,113.659562,3.8
Green Tea Restaurant (Zhengzhou MixC Branch),Zhengzhou,34.754667,113.662403,100.0,Chinese Restaurant;Chinese Restaurant,10:30,22:00,Jinjiang Inn Zhengzhou Railway Station Erqi Square Metro Station Hotel,"113.659562,34.749441",34.749441,113.659562,4.6
Tiger Ya Stir-fried Chicken (Henan Zhengzhou Erqi MixC Branch),Zhengzhou,34.754815,113.662798,55.0,Chinese Restaurant;Chinese Restaurant,10:00,22:00,Jinjiang Inn Zhengzhou Railway Station Erqi Square Metro Station Hotel,"113.659562,34.749441",34.749441,113.659562,4.6
Luoshan Fisherman's Delight Restaurant,Zhengzhou,34.903556,113.670261,63.0,Chinese Restaurant;Chinese Restaurant,10:00,23:00,Yellow River Huayuankou Tourist Area,"113.676636,34.903629",34.903629,113.676636,4.3
Wangwang Small Restaurant,Zhengzhou,34.901524,113.668069,100.0,Chinese Restaurant;Chinese Restaurant,11:00,21:00,Yellow River Huayuankou Tourist Area,"113.676636,34.903629",34.903629,113.676636,2.4
Daobendao Unmanned Restaurant (Shenglong City Branch),Zhengzhou,34.721237,113.632227,100.0,Chinese Restaurant;Chinese Restaurant,09:30,21:00,Zhengzhou Museum (Songshan Road Branch),"113.632600,34.723400",34.723400,113.632600,3.5
Music Dining Bar,Zhengzhou,34.725040,113.629748,100.0,Chinese Restaurant;Chinese Restaurant,11:00,21:00,Zhengzhou Museum (Songshan Road Branch),"113.632600,34.723400",34.723400,113.632600,3.5
Little Lotus Restaurant,Zhengzhou,34.721666,113.636146,100.0,Chinese Restaurant;Chinese Restaurant,08:00,22:00,Zhengzhou Museum (Songshan Road Branch),"113.632600,34.723400",34.723400,113.632600,3.9
Zanbala Flower Market Second Floor Restaurant,Zhengzhou,34.726575,113.626975,100.0,Chinese Restaurant;Chinese Restaurant,11:00,21:00,Zhengzhou Museum (Songshan Road Branch),"113.632600,34.723400",34.723400,113.632600,3.6
Kunlun Leju Business Hotel Chinese Restaurant (Huaihe Road Branch),Zhengzhou,34.729111,113.631083,155.0,Food Service Related;Food Service Related,11:00,21:00,Zhengzhou Museum (Songshan Road Branch),"113.632600,34.723400",34.723400,113.632600,4.1
Mi Pi Ji Halal Restaurant (Huainan Street),Zhengzhou,34.728594,113.636312,11.0,Chinese Restaurant;Halal Restaurant,10:00,22:00,Zhengzhou Museum (Songshan Road Branch),"113.632600,34.723400",34.723400,113.632600,4.3
Zhengzhou Second People's Hospital Main Campus Nutrition Restaurant (Lianxinli Branch),Zhengzhou,34.721965,113.639981,100.0,Chinese Restaurant;Chinese Restaurant,11:00,21:00,Zhengzhou Museum (Songshan Road Branch),"113.632600,34.723400",34.723400,113.632600,3.9
Zhuangba Music Restaurant,Zhengzhou,34.726061,113.640451,100.0,Entertainment Venue;Bar,11:00,21:00,Zhengzhou Museum (Songshan Road Branch),"113.632600,34.723400",34.723400,113.632600,3.9
Hua Shang Music Restaurant & Bar,Zhengzhou,34.717961,113.626270,29.0,Chinese Restaurant;Chinese Restaurant,16:00,02:00,Zhengzhou Museum (Songshan Road Branch),"113.632600,34.723400",34.723400,113.632600,4.8
Suyi Xiang Vegetarian Buffet Restaurant,Zhengzhou,34.725310,113.641557,24.0,Food Service Related;Food Service Related,17:30,19:30,Zhengzhou Museum (Songshan Road Branch),"113.632600,34.723400",34.723400,113.632600,4.4
Henan University Affiliated Zhengzhou First People's Hospital · Nutrition Restaurant,Zhengzhou,34.750370,113.685219,100.0,Chinese Restaurant;Chinese Restaurant,11:00,21:00,City God Temple,"113.686977,34.752061",34.752061,113.686977,3.7
Henan Provincial Traditional Chinese Medicine Research Institute Affiliated Hospital Restaurant,Zhengzhou,34.755083,113.685722,100.0,Chinese Restaurant;Chinese Restaurant,17:00,19:30,City God Temple,"113.686977,34.752061",34.752061,113.686977,3.8
Old Wu's Meow Cafe & Cat-themed Restaurant (New World Department Store Branch),Zhengzhou,34.752925,113.682675,28.0,Food Service Related;Food Service Related,09:30,21:30,City God Temple,"113.686977,34.752061",34.752061,113.686977,4.3
Mama Restaurant (Chengdong Road Branch),Zhengzhou,34.748675,113.691225,15.0,Chinese Restaurant;Chinese Restaurant,17:30,21:00,City God Temple,"113.686977,34.752061",34.752061,113.686977,4.4
Min Yu Chinese Restaurant (Jin Duo Yin Duo Jewelry Store),Zhengzhou,34.748684,113.681630,90.0,Chinese Restaurant;Fujian Cuisine,10:00,22:00,City God Temple,"113.686977,34.752061",34.752061,113.686977,4.0
Zhenyu Chuan Banquet Center,Zhengzhou,34.747760,113.691761,100.0,Chinese Restaurant;Chinese Restaurant,17:00,21:00,City God Temple,"113.686977,34.752061",34.752061,113.686977,4.7
Erguang Restaurant,Zhengzhou,34.757454,113.691651,66.0,Chinese Restaurant;Halal Restaurant,17:30,22:00,City God Temple,"113.686977,34.752061",34.752061,113.686977,4.4
Song Laosan Su Pork and Lamb Soup Old Shop,Zhengzhou,34.751635,113.677244,100.0,Chinese Restaurant;Halal Restaurant,17:00,21:30,City God Temple,"113.686977,34.752061",34.752061,113.686977,4.4
Jingxin Yuan Restaurant,Zhengzhou,34.757702,113.678788,69.0,Chinese Restaurant;Chinese Restaurant,10:00,22:00,City God Temple,"113.686977,34.752061",34.752061,113.686977,4.0
Fang Zhongshan Spicy Soup (Main Store),Zhengzhou,34.760065,113.682462,15.0,Chinese Restaurant;Halal Restaurant,05:00,13:30,City God Temple,"113.686977,34.752061",34.752061,113.686977,4.5
Yi Wei Shan Fang Vegetarian Restaurant (Official Store of Songshan Shaolin Scenic Area),Zhengzhou,34.513012,112.952106,33.0,Chinese Restaurant;Chinese Restaurant,09:30,21:00,Sanhuangzhai,"112.952063,34.473496",34.473496,112.952063,3.9
Shaolin Service Area Express Restaurant,Zhengzhou,34.427016,112.929723,100.0,Fast Food Restaurant;Fast Food Restaurant,11:00,21:00,Sanhuangzhai,"112.952063,34.473496",34.473496,112.952063,3.7
Chanwu Hotel - Chinese Restaurant,Zhengzhou,34.471305,113.017117,136.0,Chinese Restaurant;Chinese Restaurant,08:30,22:00,Sanhuangzhai,"112.952063,34.473496",34.473496,112.952063,4.4
Songshan Extraordinary Water Banquet Culture Restaurant,Zhengzhou,34.449754,113.018493,91.0,Chinese Restaurant;Chinese Restaurant,17:00,21:00,Sanhuangzhai,"112.952063,34.473496",34.473496,112.952063,4.4
Yunshe Tea Restaurant,Zhengzhou,34.468766,113.028504,113.0,Fast Food Restaurant;Tea Restaurant,10:00,23:00,Sanhuangzhai,"112.952063,34.473496",34.473496,112.952063,4.4
Zhengzhou Sofitel International Hotel · Dome Pavilion Western Restaurant,Zhengzhou,34.761863,113.692708,237.0,Foreign Restaurant;Western Restaurant,11:00,21:30,Zhengzhou Shangdu National Archaeological Site Park,"113.690498,34.753775",34.753775,113.690498,4.2
Hongyuan Restaurant,Zhengzhou,34.761674,113.693653,100.0,Chinese Restaurant;Cantonese Cuisine,17:30,21:30,Zhengzhou Shangdu National Archaeological Site Park,"113.690498,34.753775",34.753775,113.690498,3.9
Sofitel International Hotel (Yueweixian Chinese Restaurant),Zhengzhou,34.761932,113.692486,204.0,Chinese Restaurant;Chinese Restaurant,17:30,22:00,Zhengzhou Shangdu National Archaeological Site Park,"113.690498,34.753775",34.753775,113.690498,4.1
Yutong Retired Staff Restaurant (Yutong Garden Zhengbian Road No. 42 Courtyard Branch),Zhengzhou,34.747100,113.697080,100.0,Chinese Restaurant;Chinese Restaurant,11:00,21:00,Zhengzhou Shangdu National Archaeological Site Park,"113.690498,34.753775",34.753775,113.690498,3.6
Han Feng Yuan BBQ and Hot Pot Buffet Restaurant (Asia Joy City Branch),Zhengzhou,34.751785,113.667704,80.0,Chinese Restaurant;Chinese Restaurant,11:00,23:30,Erqi Memorial Hall,"113.666494,34.752186",34.752186,113.666494,4.7
Yuehai Hotel Xuan Palace Western Restaurant (Erqi Square),Zhengzhou,34.749629,113.667658,111.0,Foreign Restaurant;Western Restaurant,10:00,23:00,Erqi Memorial Hall,"113.666494,34.752186",34.752186,113.666494,3.9
Yuehai Hotel - Yuehai Pavilion Chinese Restaurant,Zhengzhou,34.749142,113.667796,100.0,Chinese Restaurant;Chinese Restaurant,11:00,21:00,Erqi Memorial Hall,"113.666494,34.752186",34.752186,113.666494,3.9
Tiger Ya Stir-fried Chicken (Henan Zhengzhou Erqi MixC Branch),Zhengzhou,34.754815,113.662798,55.0,Chinese Restaurant;Chinese Restaurant,10:00,22:00,Erqi Memorial Hall,"113.666494,34.752186",34.752186,113.666494,4.6
Jixu Folk Music Barbecue House (Zhengzhou Guangcai Branch),Zhengzhou,34.755287,113.669676,72.0,Chinese Restaurant;Chinese Restaurant,18:00,02:30,Erqi Memorial Hall,"113.666494,34.752186",34.752186,113.666494,4.6
Green Tea Restaurant (Zhengzhou MixC Branch),Zhengzhou,34.754667,113.662403,100.0,Chinese Restaurant;Chinese Restaurant,11:00,21:00,Erqi Memorial Hall,"113.666494,34.752186",34.752186,113.666494,4.6
Zhengzhou Zhengbai Restaurant (Zhengzhou Department Store Branch),Zhengzhou,34.756286,113.668080,100.0,Chinese Restaurant;Chinese Restaurant,09:30,21:00,Erqi Memorial Hall,"113.666494,34.752186",34.752186,113.666494,3.9
Highway No. 5 Stone-Grilled Steak Restaurant (David City Branch),Zhengzhou,34.756777,113.666316,128.0,Fast Food Restaurant;Fast Food Restaurant,11:00,22:00,Erqi Memorial Hall,"113.666494,34.752186",34.752186,113.666494,4.7
Manyu (Dennis David City Branch),Zhengzhou,34.756848,113.666241,90.0,服装鞋帽皮具店;服装鞋帽皮具店,11:00,21:00,Erqi Memorial Hall,"113.666494,34.752186",34.752186,113.666494,4.7
Jiang Aqiao Tatta Noodles (Shanghai Branch),Zhengzhou,34.755928,113.670393,100.0,Chinese Restaurant;Chinese Restaurant,10:30,21:30,Erqi Memorial Hall,"113.666494,34.752186",34.752186,113.666494,4.5
Haiyu Gourmet Seafood Restaurant,Zhengzhou,34.769787,113.726419,39.0,Chinese Restaurant;Seafood Restaurant,17:00,23:00,Qianxi Square (Big Corn Tower),"113.726322,34.769955",34.769955,113.726322,3.8
Zhengzhou Greenland JW Marriott Hotel (Marriott Chinese Restaurant),Zhengzhou,34.770905,113.727350,300.0,Chinese Restaurant;Chinese Restaurant,17:30,22:30,Qianxi Square (Big Corn Tower),"113.726322,34.769955",34.769955,113.726322,4.5
Qianxi Cloud Restaurant (Qianxi Plaza Branch),Zhengzhou,34.771075,113.727225,165.0,Chinese Restaurant;Chinese Restaurant,09:00,01:00,Qianxi Square (Big Corn Tower),"113.726322,34.769955",34.769955,113.726322,4.5
Zhengzhou Big Corn G PLUS Skyview Restaurant,Zhengzhou,34.770914,113.727493,228.0,Chinese Restaurant;General Restaurant,16:00,05:00,Qianxi Square (Big Corn Tower),"113.726322,34.769955",34.769955,113.726322,4.2
Zhengzhou Greenland JW Marriott Hotel - Urban Kitchen Buffet Restaurant,Zhengzhou,34.771054,113.727309,280.0,Foreign Restaurant;Western Restaurant,17:30,21:30,Qianxi Square (Big Corn Tower),"113.726322,34.769955",34.769955,113.726322,4.3
Zui Baxian Grilled Fish (Qianxi Plaza Branch),Zhengzhou,34.770902,113.727580,62.0,Food Service Related;Food Service Related,10:00,24:00,Qianxi Square (Big Corn Tower),"113.726322,34.769955",34.769955,113.726322,4.2
Yu Jian Tea Restaurant (Xin'ao Building Branch),Zhengzhou,34.767928,113.723581,100.0,Chinese Restaurant;Chinese Restaurant,11:00,21:00,Qianxi Square (Big Corn Tower),"113.726322,34.769955",34.769955,113.726322,4.1
Xinhuose (Freshly Cooked Restaurant),Zhengzhou,34.767451,113.723530,100.0,Chinese Restaurant;Chinese Restaurant,10:00,21:00,Qianxi Square (Big Corn Tower),"113.726322,34.769955",34.769955,113.726322,3.9
Jinyue Tea Restaurant (Henan Media Building Branch),Zhengzhou,34.767405,113.722783,76.0,Chinese Restaurant;Seafood Restaurant,17:00,02:00,Qianxi Square (Big Corn Tower),"113.726322,34.769955",34.769955,113.726322,4.2
Two Birds One Stone · Yishi Erniao (Wood Color Branch),Zhengzhou,34.767030,113.730428,95.0,Food Service Related;Food Service Related,10:00,21:00,Qianxi Square (Big Corn Tower),"113.726322,34.769955",34.769955,113.726322,4.6
Old Flavor Roasted Whole Lamb,Zhengzhou,34.902822,113.633591,73.0,Chinese Restaurant;Chinese Restaurant,10:00,23:00,Yellow River Scenic Area,"113.630000,34.920000",34.920000,113.630000,4.2
Fusion Restaurant (Yifeng Forest Lake Branch),Zhengzhou,34.897770,113.618020,100.0,Chinese Restaurant;General Restaurant,17:00,21:00,Yellow River Scenic Area,"113.630000,34.920000",34.920000,113.630000,4.3
Cailan Sister Eco Organic Restaurant,Zhengzhou,34.897676,113.617674,100.0,Food Service Related;Food Service Related,11:00,21:00,Yellow River Scenic Area,"113.630000,34.920000",34.920000,113.630000,2.8
Wangwang Small Restaurant,Zhengzhou,34.901524,113.668069,100.0,Chinese Restaurant;Chinese Restaurant,11:00,21:00,Yellow River Scenic Area,"113.630000,34.920000",34.920000,113.630000,2.4
Luoshan Fisherman's Delight Restaurant,Zhengzhou,34.903556,113.670261,63.0,Chinese Restaurant;Chinese Restaurant,10:00,23:00,Yellow River Scenic Area,"113.630000,34.920000",34.920000,113.630000,4.3
