restaurant_name,city,latitude,longitude,price_per_person,cuisine,opening_time,closing_time,nearby_attraction_name,nearby_attraction_coords,query_latitude,query_longitude,rating
Tomacado Floral Kitchen (in77 · Hangzhou First Store),Hangzhou,30.253352,120.162044,178.0,Foreign Restaurant;Western Restaurant,11:00,22:00,Hangzhou Hubin Intime in77 Zone A,"120.162484,30.253160",30.253160,120.162484,4.7
Manyunli Garden Restaurant (Lakeside Yintai in77D District),Hangzhou,30.253583,120.163793,121.0,Foreign Restaurant;Western Restaurant,11:00,21:00,Hangzhou Hubin Intime in77 Zone A,"120.162484,30.253160",30.253160,120.162484,4.6
Xizi Restaurant (Xizi Qingyan),Hangzhou,30.252058,120.163461,97.0,Chinese Restaurant;Chinese Restaurant,16:30,21:00,Hangzhou Hubin Intime in77 Zone A,"120.162484,30.253160",30.253160,120.162484,4.6
Birdsong and Fragrance · West Lake · Lakeview Restaurant (Renhe Branch),Hangzhou,30.252050,120.163604,500.0,Chinese Restaurant;Chinese Restaurant,16:00,21:00,Hangzhou Hubin Intime in77 Zone A,"120.162484,30.253160",30.253160,120.162484,4.6
Xixili Brunch & Lounge (Hangzhou Lakeside 88 Branch),Hangzhou,30.254685,120.162456,100.0,Food Service Related;Food Service Related,11:00,21:00,Hangzhou Hubin Intime in77 Zone A,"120.162484,30.253160",30.253160,120.162484,4.6
Hangzhou Grand Hyatt Hotel - Lakeside 28 Chinese Restaurant,Hangzhou,30.254843,120.161906,302.0,Chinese Restaurant;Chinese Restaurant,17:30,21:30,Hangzhou Hubin Intime in77 Zone A,"120.162484,30.253160",30.253160,120.162484,4.6
The 101st Garden Restaurant (Hangzhou Hubin 88 Branch),Hangzhou,30.254945,120.162473,253.0,Foreign Restaurant;Western Restaurant,16:30,21:00,Hangzhou Hubin Intime in77 Zone A,"120.162484,30.253160",30.253160,120.162484,4.5
1921 Restaurant (West Lake Frontline Lakeview Branch),Hangzhou,30.251796,120.163967,212.0,Chinese Restaurant;Chinese Restaurant,11:00,21:00,Hangzhou Hubin Intime in77 Zone A,"120.162484,30.253160",30.253160,120.162484,4.5
Fat Brothers Crab Pot (Lakeside Yintai in77 C2 District Branch),Hangzhou,30.252520,120.164548,89.0,Chinese Restaurant;Chinese Restaurant,10:30,21:30,Hangzhou Hubin Intime in77 Zone A,"120.162484,30.253160",30.253160,120.162484,4.7
Hangzhou Restaurant (Yan'an Road Branch),Hangzhou,30.251744,120.164014,79.0,Chinese Restaurant;General Restaurant,11:00,20:30,Hangzhou Hubin Intime in77 Zone A,"120.162484,30.253160",30.253160,120.162484,4.6
Zhanbi Tower · West Lake Lakeside Restaurant,Hangzhou,30.247279,120.133313,100.0,Chinese Restaurant;Chinese Restaurant,11:00,22:30,Spring Dawn at Su Causeway,"120.137960,30.243880",30.243880,120.137960,4.6
Xiaolu Creative Restaurant (Quyuan Store),Hangzhou,30.246209,120.132068,158.0,Food Service Related;Food Service Related,10:00,21:00,Spring Dawn at Su Causeway,"120.137960,30.243880",30.243880,120.137960,4.3
Lotus Encounter Garden Restaurant,Hangzhou,30.247373,120.131962,103.0,Chinese Restaurant;Zhejiang Cuisine,11:00,19:30,Spring Dawn at Su Causeway,"120.137960,30.243880",30.243880,120.137960,4.7
Louwailou (Hangzhou West Lake Scenic Area Branch),Hangzhou,30.250209,120.140723,157.0,Chinese Restaurant;General Restaurant,16:30,20:30,Spring Dawn at Su Causeway,"120.137960,30.243880",30.243880,120.137960,4.5
Qinglan (Yang Gongdi Branch),Hangzhou,30.248263,120.131589,368.0,Food Service Related;Food Service Related,17:30,21:30,Spring Dawn at Su Causeway,"120.137960,30.243880",30.243880,120.137960,4.4
Hangzhou Shangri-La · Coffee Garden,Hangzhou,30.252574,120.137577,207.0,Cafe;Cafe,11:00,21:00,Spring Dawn at Su Causeway,"120.137960,30.243880",30.243880,120.137960,4.1
Twelve Hours Lakeview Restaurant,Hangzhou,30.251519,120.131988,100.0,Food Service Related;Food Service Related,10:30,20:00,Spring Dawn at Su Causeway,"120.137960,30.243880",30.243880,120.137960,4.0
West Lake State Guesthouse Zihui Hall,Hangzhou,30.234669,120.133019,503.0,Chinese Restaurant;Chinese Restaurant,17:00,22:00,Spring Dawn at Su Causeway,"120.137960,30.243880",30.243880,120.137960,4.5
Huabei Hotel - Chinese Restaurant,Hangzhou,30.253808,120.133460,112.0,Chinese Restaurant;Chinese Restaurant,17:30,20:30,Spring Dawn at Su Causeway,"120.137960,30.243880",30.243880,120.137960,4.1
Qianyuan Xingheji (Maojiabu Branch),Hangzhou,30.240230,120.126352,398.0,Chinese Restaurant;Cantonese Cuisine,17:00,21:30,Spring Dawn at Su Causeway,"120.137960,30.243880",30.243880,120.137960,4.5
Spring by the Lake Restaurant,Hangzhou,30.257141,120.158020,386.0,Chinese Restaurant;Chinese Restaurant,10:00,21:30,West Lake Music Fountain,"120.154700,30.254900",30.254900,120.154700,4.5
Green Tea Restaurant (Six Park Branch),Hangzhou,30.257779,120.157824,63.0,Chinese Restaurant;Chinese Restaurant,10:30,21:00,West Lake Music Fountain,"120.154700,30.254900",30.254900,120.154700,4.7
Yixiangyuan Restaurant - Halal Ethnic Cuisine,Hangzhou,30.257475,120.159475,100.0,Chinese Restaurant;Halal Restaurant,09:00,01:00,West Lake Music Fountain,"120.154700,30.254900",30.254900,120.154700,4.2
Fele Restaurant (Baifu Road Branch),Hangzhou,30.256048,120.160868,128.0,Chinese Restaurant;Chinese Restaurant,17:00,22:00,West Lake Music Fountain,"120.154700,30.254900",30.254900,120.154700,4.5
Zhao's Private Kitchen · Old Hangzhou Cuisine (West Lake Music Fountain Branch),Hangzhou,30.255517,120.161265,69.0,Chinese Restaurant;Chinese Restaurant,10:00,24:00,West Lake Music Fountain,"120.154700,30.254900",30.254900,120.154700,4.9
Sullivan Western Restaurant (WAKE TOWN Commercial Street Branch),Hangzhou,30.259038,120.159258,158.0,Foreign Restaurant;Western Restaurant,17:30,21:00,West Lake Music Fountain,"120.154700,30.254900",30.254900,120.154700,3.9
Wanghu Tower · Chinese Restaurant,Hangzhou,30.259017,120.159309,144.0,Chinese Restaurant;Chinese Restaurant,17:30,21:00,West Lake Music Fountain,"120.154700,30.254900",30.254900,120.154700,4.2
In the Corner Restaurant,Hangzhou,30.260575,120.153651,28.0,Food Service Related;Food Service Related,11:00,21:00,West Lake Music Fountain,"120.154700,30.254900",30.254900,120.154700,4.5
Hangzhou Casablanca Music Restaurant Bar,Hangzhou,30.260378,120.157253,109.0,Foreign Restaurant;Western Restaurant,10:00,02:00,West Lake Music Fountain,"120.154700,30.254900",30.254900,120.154700,4.5
Hongji Tea Restaurant · No Pre-Made Dishes (Yizhijia City Outlet Store),Hangzhou,30.257225,120.161325,100.0,Fast Food Restaurant;Fast Food Restaurant,11:00,21:00,West Lake Music Fountain,"120.154700,30.254900",30.254900,120.154700,3.4
Tinglu Restaurant,Hangzhou,30.257882,120.060148,293.0,Chinese Restaurant;Chinese Restaurant,17:00,21:00,Xixi National Wetland Park,"120.061159,30.255079",30.255079,120.061159,4.5
Xiaohe · Shuiyue Xixi · Courtyard Restaurant,Hangzhou,30.258014,120.060353,310.0,Chinese Restaurant;Zhejiang Cuisine,10:30,21:00,Xixi National Wetland Park,"120.061159,30.255079",30.255079,120.061159,4.6
Xinrongji (Xixi Wetland Branch),Hangzhou,30.252592,120.054018,767.0,Chinese Restaurant;Chinese Restaurant,17:30,19:45,Xixi National Wetland Park,"120.061159,30.255079",30.255079,120.061159,4.6
Baijiayuan Restaurant,Hangzhou,30.248028,120.061537,100.0,Chinese Restaurant;Chinese Restaurant,16:00,20:30,Xixi National Wetland Park,"120.061159,30.255079",30.255079,120.061159,4.0
Mushou Xixi Hidden Creek Restaurant,Hangzhou,30.255298,120.052736,507.0,Chinese Restaurant;Cantonese Cuisine,17:00,21:30,Xixi National Wetland Park,"120.061159,30.255079",30.255079,120.061159,4.4
Dancing Pavilion Six Cauldrons Garden Restaurant,Hangzhou,30.264967,120.059799,79.0,Food Service Related;Food Service Related,11:00,21:00,Xixi National Wetland Park,"120.061159,30.255079",30.255079,120.061159,4.3
commune (Xixi Impression City Building A Branch),Hangzhou,30.247866,120.052082,88.0,Foreign Restaurant;Western Restaurant|Entertainment Venue;Bar,11:00,03:00,Xixi National Wetland Park,"120.061159,30.255079",30.255079,120.061159,4.6
Pizza Italian Restaurant (Xixi Impression City Branch),Hangzhou,30.247608,120.049377,49.0,Foreign Restaurant;Italian Restaurant,10:00,22:00,Xixi National Wetland Park,"120.061159,30.255079",30.255079,120.061159,4.5
Choi Lam Hong Kong-style Dim Sum (Xixi Impression City Building A Branch),Hangzhou,30.247398,120.048962,95.0,糕饼店;糕饼店,10:00,21:30,Xixi National Wetland Park,"120.061159,30.255079",30.255079,120.061159,4.6
Keming Ice Room · Since 1978 (Xixi Impression City Building A Branch),Hangzhou,30.247268,120.048608,59.0,Fast Food Restaurant;Tea Restaurant,11:00,21:00,Xixi National Wetland Park,"120.061159,30.255079",30.255079,120.061159,3.8
Haipaihui Restaurant,Hangzhou,30.240777,120.170435,98.0,Chinese Restaurant;Chinese Restaurant,10:00,22:00,Southern Song Imperial Street,"120.170779,30.242479",30.242479,120.170779,4.5
Jiujiali · Creative Hangzhou Cuisine (Hefang Street Branch),Hangzhou,30.240648,120.171031,82.0,Chinese Restaurant;General Restaurant,10:00,23:30,Southern Song Imperial Street,"120.170779,30.242479",30.242479,120.170779,4.6
Paper Kite · Fusion Restaurant · Bistro,Hangzhou,30.240719,120.169041,100.0,Chinese Restaurant;Chinese Restaurant,17:00,21:30,Southern Song Imperial Street,"120.170779,30.242479",30.242479,120.170779,4.6
Yuting Zhandie (Gulou Store),Hangzhou,30.239810,120.171980,68.0,Chinese Restaurant;Zhejiang Cuisine,16:30,21:00,Southern Song Imperial Street,"120.170779,30.242479",30.242479,120.170779,4.4
"Jiang Xiaoxie (Xinjiang Cuisine Restaurant, Hefang Street Store)",Hangzhou,30.239330,120.171880,75.0,Chinese Restaurant;Chinese Restaurant,11:30,21:30,Southern Song Imperial Street,"120.170779,30.242479",30.242479,120.170779,4.6
Xiyue · Garden Restaurant,Hangzhou,30.239312,120.169339,174.0,Chinese Restaurant;Chinese Restaurant,17:00,21:00,Southern Song Imperial Street,"120.170779,30.242479",30.242479,120.170779,4.6
"MaLaMaLa Garden Restaurant, Coffee & Afternoon Tea",Hangzhou,30.239071,120.169689,100.0,Food Service Related;Food Service Related,11:00,21:00,Southern Song Imperial Street,"120.170779,30.242479",30.242479,120.170779,4.7
Green Tea Restaurant (West Lake Intime Mall Branch),Hangzhou,30.243500,120.166147,59.0,Chinese Restaurant;Chinese Restaurant|Cold Beverage Shop;Cold Beverage Shop,11:00,21:00,Southern Song Imperial Street,"120.170779,30.242479",30.242479,120.170779,4.6
FiZZ Italian Restaurant (West Lake Intime Store),Hangzhou,30.243770,120.166092,50.0,Foreign Restaurant;Italian Restaurant,10:00,22:00,Southern Song Imperial Street,"120.170779,30.242479",30.242479,120.170779,4.5
New Bailu (West Lake Intime Department Store),Hangzhou,30.242989,120.165847,53.0,Chinese Restaurant;Zhejiang Cuisine|Cold Beverage Shop;Cold Beverage Shop,16:00,21:00,Southern Song Imperial Street,"120.170779,30.242479",30.242479,120.170779,4.7
Courtyard Restaurant (Gongchen Bridge Branch),Hangzhou,30.315401,120.138443,75.0,Chinese Restaurant;Chinese Restaurant,17:00,21:00,"China Knife, Scissors, and Sword Museum","120.137682,30.316137",30.316137,120.137682,4.3
Hao Ke Lai Steak (Hangzhou Tianyang D32 Restaurant),Hangzhou,30.314744,120.137545,77.0,Foreign Restaurant;牛扒店(扒房),10:00,22:00,"China Knife, Scissors, and Sword Museum","120.137682,30.316137",30.316137,120.137682,4.4
BRIDGE · Western Restaurant,Hangzhou,30.317777,120.136895,100.0,Foreign Restaurant;Foreign Restaurant,11:00,21:00,"China Knife, Scissors, and Sword Museum","120.137682,30.316137",30.316137,120.137682,3.6
Yiheng Yisu · Jixiang Restaurant (Gongchen Bridge Branch),Hangzhou,30.317787,120.136903,32.0,Chinese Restaurant;Chinese Restaurant,10:30,20:30,"China Knife, Scissors, and Sword Museum","120.137682,30.316137",30.316137,120.137682,4.8
Baijia Family Restaurant (Wenzhou Road Branch),Hangzhou,30.320706,120.141437,18.0,Chinese Restaurant;Chinese Restaurant,14:00,19:00,"China Knife, Scissors, and Sword Museum","120.137682,30.316137",30.316137,120.137682,4.2
Sanren Noodle Restaurant (Jinchang Wenhua Branch),Hangzhou,30.312099,120.142601,25.0,Chinese Restaurant;Chinese Restaurant,16:30,21:00,"China Knife, Scissors, and Sword Museum","120.137682,30.316137",30.316137,120.137682,4.1
Qianyu Qianwei (Canal Branch),Hangzhou,30.321992,120.137046,131.0,Chinese Restaurant;Chinese Restaurant,17:00,20:30,"China Knife, Scissors, and Sword Museum","120.137682,30.316137",30.316137,120.137682,4.6
Pizza Italian Restaurant (Canal Street Branch),Hangzhou,30.319066,120.144087,56.0,Foreign Restaurant;Italian Restaurant,10:00,22:00,"China Knife, Scissors, and Sword Museum","120.137682,30.316137",30.316137,120.137682,4.6
Shida Renjia Happy Restaurant (Jiru Jiayuan Branch),Hangzhou,30.317507,120.129761,21.0,Food Service Related;Food Service Related,11:00,21:00,"China Knife, Scissors, and Sword Museum","120.137682,30.316137",30.316137,120.137682,4.1
Xin Bailu Restaurant (Grand Canal Shopping Center East District Branch),Hangzhou,30.319020,120.145315,100.0,Chinese Restaurant;Zhejiang Cuisine,16:00,21:00,"China Knife, Scissors, and Sword Museum","120.137682,30.316137",30.316137,120.137682,4.6
Kouzi International Grand Hotel Restaurant,Hangzhou,30.232386,120.149789,100.0,Chinese Restaurant;Chinese Restaurant,11:00,21:00,Three Pools Mirroring the Moon,"120.145369,30.238845",30.238845,120.145369,3.3
Liuying Lakeside,Hangzhou,30.238732,120.154521,217.0,Chinese Restaurant;Chinese Restaurant,17:00,21:00,Three Pools Mirroring the Moon,"120.145369,30.238845",30.238845,120.145369,4.6
West Lake Banquet · Lakeside Restaurant,Hangzhou,30.236157,120.154292,360.0,Chinese Restaurant;Seafood Restaurant,11:00,21:00,Three Pools Mirroring the Moon,"120.145369,30.238845",30.238845,120.145369,4.5
Lotus Fragrance Residence Restaurant,Hangzhou,30.230372,120.148032,63.0,Chinese Restaurant;Chinese Restaurant,17:00,19:30,Three Pools Mirroring the Moon,"120.145369,30.238845",30.238845,120.145369,4.3
Wenying Pavilion (Liulang Wenying Branch),Hangzhou,30.240324,120.155890,146.0,Chinese Restaurant;Chinese Restaurant,09:30,22:00,Three Pools Mirroring the Moon,"120.145369,30.238845",30.238845,120.145369,4.7
Weilu · West Lake 1138 Cultural Tea Restaurant,Hangzhou,30.230253,120.138864,100.0,Chinese Restaurant;Chinese Restaurant,11:00,21:00,Three Pools Mirroring the Moon,"120.145369,30.238845",30.238845,120.145369,3.8
West Lake Impressions Restaurant,Hangzhou,30.234732,120.156845,120.0,Chinese Restaurant;Chinese Restaurant,17:00,21:00,Three Pools Mirroring the Moon,"120.145369,30.238845",30.238845,120.145369,4.6
Park 1999 Garden-Style Restaurant,Hangzhou,30.240410,120.157740,100.0,Chinese Restaurant;Chinese Restaurant,11:00,21:00,Three Pools Mirroring the Moon,"120.145369,30.238845",30.238845,120.145369,4.3
Zhiweiguan Weizhuang (Yang Gongdi Branch),Hangzhou,30.230581,120.137300,141.0,Chinese Restaurant;Chinese Restaurant,16:30,20:00,Three Pools Mirroring the Moon,"120.145369,30.238845",30.238845,120.145369,4.3
New Liuying Restaurant (Nanshan Road Store),Hangzhou,30.239341,120.157948,104.0,Chinese Restaurant;Chinese Restaurant,08:00,21:00,Three Pools Mirroring the Moon,"120.145369,30.238845",30.238845,120.145369,4.0
New Zhouji · Jiangnan Flavors in the Alley (Gulou Branch),Hangzhou,30.237432,120.171040,64.0,Chinese Restaurant;Chinese Restaurant,10:30,23:30,Qinghefang Pedestrian Street,"120.168923,30.240073",30.240073,120.168923,4.6
Pan Fang Chun Dumplings · Michelin Restaurant (Zhongshan South Road Store),Hangzhou,30.237205,120.171034,17.0,Chinese Restaurant;Chinese Restaurant,06:00,20:00,Qinghefang Pedestrian Street,"120.168923,30.240073",30.240073,120.168923,4.6
Molü · Art Space Restaurant,Hangzhou,30.158534,120.075665,83.0,Chinese Restaurant;Zhejiang Cuisine,16:30,21:00,China Academy of Art Xiangshan Campus,"120.076690,30.155446",30.155446,120.076690,4.6
Yongsheng Tea Restaurant,Hangzhou,30.158514,120.075573,32.0,Fast Food Restaurant;Tea Restaurant,08:00,24:00,China Academy of Art Xiangshan Campus,"120.076690,30.155446",30.155446,120.076690,4.6
Manxi Hotel Restaurant,Hangzhou,30.159263,120.075329,100.0,Chinese Restaurant;Chinese Restaurant,11:00,21:00,China Academy of Art Xiangshan Campus,"120.076690,30.155446",30.155446,120.076690,3.7
Congee King Hong Kong-Style Tea Restaurant (Art Academy Branch),Hangzhou,30.159634,120.077400,31.0,Fast Food Restaurant;Fast Food Restaurant,09:00,02:00,China Academy of Art Xiangshan Campus,"120.076690,30.155446",30.155446,120.076690,4.4
Xinjiang Bilali Restaurant,Hangzhou,30.150950,120.078561,75.0,Chinese Restaurant;Halal Restaurant,10:00,24:00,China Academy of Art Xiangshan Campus,"120.076690,30.155446",30.155446,120.076690,4.1
Yuanduoduo Restaurant (Sekeke Small Diner),Hangzhou,30.152280,120.072100,100.0,Chinese Restaurant;Chinese Restaurant,11:00,21:00,China Academy of Art Xiangshan Campus,"120.076690,30.155446",30.155446,120.076690,3.7
Jungang Hotel Restaurant,Hangzhou,30.161054,120.078568,100.0,Chinese Restaurant;Chinese Restaurant,11:00,24:00,China Academy of Art Xiangshan Campus,"120.076690,30.155446",30.155446,120.076690,4.2
Little Chili Restaurant (West Street Food City Branch),Hangzhou,30.159157,120.070865,80.0,Food Service Related;Food Service Related,17:00,21:00,China Academy of Art Xiangshan Campus,"120.076690,30.155446",30.155446,120.076690,4.3
Sajiao Sichuan Nian Restaurant (Zhuanjiang Street Branch),Hangzhou,30.159292,120.070799,96.0,Chinese Restaurant;Sichuan Cuisine,17:00,21:30,China Academy of Art Xiangshan Campus,"120.076690,30.155446",30.155446,120.076690,4.7
Lava Western Restaurant (Golden Street Meidi Branch),Hangzhou,30.148904,120.079300,108.0,Foreign Restaurant;Foreign Restaurant,10:00,21:00,China Academy of Art Xiangshan Campus,"120.076690,30.155446",30.155446,120.076690,4.0
Yu He Bistro & Canteen Restaurant,Hangzhou,30.307864,120.135234,121.0,Food Service Related;Food Service Related,11:00,21:00,Xiaohe Historical and Cultural District,"120.135337,30.308302",30.308302,120.135337,4.7
Garden Restaurant with Cats,Hangzhou,30.307912,120.136153,100.0,Chinese Restaurant;Chinese Restaurant,11:00,21:00,Xiaohe Historical and Cultural District,"120.135337,30.308302",30.308302,120.135337,4.6
Heyixuan Garden Restaurant,Hangzhou,30.308787,120.134207,88.0,Chinese Restaurant;Chinese Restaurant,09:00,21:00,Xiaohe Historical and Cultural District,"120.135337,30.308302",30.308302,120.135337,4.5
The 101st Garden Restaurant (Xiaohe Straight Street Branch),Hangzhou,30.308955,120.133764,120.0,Food Service Related;Food Service Related,16:30,21:00,Xiaohe Historical and Cultural District,"120.135337,30.308302",30.308302,120.135337,4.6
Tengfei Bistro · Artisan Handcrafted · Tea and Wine Restaurant,Hangzhou,30.308920,120.133695,76.0,Chinese Restaurant;Chinese Restaurant,16:30,21:30,Xiaohe Historical and Cultural District,"120.135337,30.308302",30.308302,120.135337,4.4
New Tengfei Huayu Restaurant (Xiaohe Straight Street Branch),Hangzhou,30.308929,120.133698,51.0,Chinese Restaurant;Chinese Restaurant,11:00,20:30,Xiaohe Historical and Cultural District,"120.135337,30.308302",30.308302,120.135337,4.4
Gudao Yang Flavor-Seeking Restaurant,Hangzhou,30.307053,120.137177,79.0,Chinese Restaurant;Chinese Restaurant,17:00,24:00,Xiaohe Historical and Cultural District,"120.135337,30.308302",30.308302,120.135337,4.3
Yunshuiyao · Yunnan Flavors,Hangzhou,30.306812,120.137098,103.0,Food Service Related;Food Service Related,09:00,21:00,Xiaohe Historical and Cultural District,"120.135337,30.308302",30.308302,120.135337,4.4
Nongtangli (Xiaohe Branch),Hangzhou,30.309394,120.133173,75.0,Chinese Restaurant;Chinese Restaurant,16:30,21:00,Xiaohe Historical and Cultural District,"120.135337,30.308302",30.308302,120.135337,4.4
Geju Restaurant & Lounge,Hangzhou,30.306462,120.136888,100.0,Chinese Restaurant;Chinese Restaurant,11:00,21:00,Xiaohe Historical and Cultural District,"120.135337,30.308302",30.308302,120.135337,3.3
Dazhaiyuan (Xixi Road),Hangzhou,30.257620,120.092557,86.0,Chinese Restaurant;Chinese Restaurant,16:30,20:30,Hangzhou West Station,"120.091014,30.260867",30.260867,120.091014,4.5
Fudi Restaurant,Hangzhou,30.260346,120.095285,100.0,Chinese Restaurant;Chinese Restaurant,11:00,21:00,Hangzhou West Station,"120.091014,30.260867",30.260867,120.091014,3.9
Fuyuan New Village Senior Restaurant,Hangzhou,30.264739,120.094010,100.0,Chinese Restaurant;Chinese Restaurant,11:00,21:00,Hangzhou West Station,"120.091014,30.260867",30.260867,120.091014,3.5
Xiangxiang Garden Restaurant,Hangzhou,36.734155,117.148173,100.0,Chinese Restaurant;Chinese Restaurant,11:00,22:00,Jinan East Station,"117.159918,36.747892",36.747892,117.159918,3.9
Under the Wutong Tree Restaurant,Hangzhou,36.731926,117.150068,52.0,Chinese Restaurant;Chinese Restaurant,10:00,04:00,Jinan East Station,"117.159918,36.747892",36.747892,117.159918,4.6
Macau Chen Guangji (Xiaoshan International Airport T4 Departure Mezzanine Branch),Hangzhou,30.234878,120.431013,100.0,Chinese Restaurant;Chinese Restaurant,11:00,21:00,Xiaoshan International Airport,"120.432413,30.234708",30.234708,120.432413,3.4
Original No. 1 Restaurant,Hangzhou,30.228891,120.426744,100.0,Chinese Restaurant;Chinese Restaurant,11:00,21:00,Xiaoshan International Airport,"120.432413,30.234708",30.234708,120.432413,4.0
Quye Restaurant,Hangzhou,30.238984,120.446523,100.0,Chinese Restaurant;Chinese Restaurant,11:00,21:00,Xiaoshan International Airport,"120.432413,30.234708",30.234708,120.432413,4.0
Hangzhou Xiaoshan International Airport - Restaurant No. 3,Hangzhou,30.239055,120.446681,30.0,Chinese Restaurant;Chinese Restaurant,11:00,21:00,Xiaoshan International Airport,"120.432413,30.234708",30.234708,120.432413,4.0
Air China Staff Restaurant (Air China Base Branch),Hangzhou,30.238608,120.449026,17.0,Chinese Restaurant;Chinese Restaurant,11:00,21:00,Xiaoshan International Airport,"120.432413,30.234708",30.234708,120.432413,4.1
Guangweixuan Hong Kong-Style Tea Restaurant (Hangzhou East Station),Hangzhou,30.290107,120.209962,100.0,Fast Food Restaurant;Fast Food Restaurant,11:00,21:00,Hangzhou East Station,"120.212605,30.290846",30.290846,120.212605,2.5
Airuiyun Restaurant (Dongxi Debi Yiyuan Branch),Hangzhou,30.291007,120.217230,76.0,Chinese Restaurant;Chinese Restaurant|Cafe;Cafe,10:00,23:00,Hangzhou East Station,"120.212605,30.290846",30.290846,120.212605,4.0
Shenji Hong Kong-Style Tea Restaurant (Tiancheng Yinzhu Building 3 Branch),Hangzhou,30.289940,120.207477,30.0,Fast Food Restaurant;Tea Restaurant,10:00,19:00,Hangzhou East Station,"120.212605,30.290846",30.290846,120.212605,4.2
Green Tea Restaurant (Hangzhou East Station MixC Branch),Hangzhou,30.293504,120.217725,74.0,Chinese Restaurant;Chinese Restaurant,10:30,21:30,Hangzhou East Station,"120.212605,30.290846",30.290846,120.212605,4.7
Minhua Ice Room (Hangzhou East Station MixC Branch),Hangzhou,30.294025,120.217615,57.0,Food Service Related;Food Service Related,10:00,21:00,Hangzhou East Station,"120.212605,30.290846",30.290846,120.212605,4.4
Railway Mansion City Plaza Grand Hotel Chinese Restaurant,Hangzhou,30.243947,120.182733,100.0,Chinese Restaurant;Chinese Restaurant,11:00,21:00,Hangzhou Station,"120.182860,30.243482",30.243482,120.182860,3.8
Hangzhou Red Star Culture Hotel - Jade Dragonfly Restaurant,Hangzhou,30.243913,120.179120,114.0,Chinese Restaurant;Chinese Restaurant,11:00,21:00,Hangzhou Station,"120.182860,30.243482",30.243482,120.182860,3.9
Jade Dragonfly Restaurant,Hangzhou,30.243917,120.178859,78.0,Chinese Restaurant;Chinese Restaurant,17:00,20:00,Hangzhou Station,"120.182860,30.243482",30.243482,120.182860,4.5
Baozhongbao Food Palace,Hangzhou,30.247432,120.180539,100.0,Chinese Restaurant;General Restaurant,16:30,21:00,Hangzhou Station,"120.182860,30.243482",30.243482,120.182860,4.5
Hangzhou Postal Staff Restaurant (Hangzhou Postal Hub Building Store),Hangzhou,30.248660,120.184147,100.0,Chinese Restaurant;Chinese Restaurant,11:00,21:00,Hangzhou Station,"120.182860,30.243482",30.243482,120.182860,3.6
Shungeng Restaurant,Hangzhou,36.835934,117.211493,100.0,Chinese Restaurant;Chinese Restaurant,11:00,21:00,Yaoqiang International Airport,"117.211395,36.850971",36.850971,117.211395,3.6
Railway Grand Hotel Chinese Restaurant,Hangzhou,36.670464,116.991246,60.0,Chinese Restaurant;Chinese Restaurant,17:00,20:00,Jinan Station,"116.990536,36.671528",36.671528,116.990536,4.0
Old Changsha Lobster & Seafood Research Institute (Shimao Tiancheng South District Branch),Hangzhou,36.673875,116.989625,100.0,Chinese Restaurant;Chinese Restaurant,09:00,22:00,Jinan Station,"116.990536,36.671528",36.671528,116.990536,3.8
Shuhang Restaurant Sichuan & Shandong Cuisine (Train Station Branch),Hangzhou,36.668383,116.991011,100.0,Chinese Restaurant;Chinese Restaurant,10:00,22:00,Jinan Station,"116.990536,36.671528",36.671528,116.990536,3.7
Zhao Meili Thai-Style Tea Restaurant,Hangzhou,36.674974,116.987681,100.0,Fast Food Restaurant;Fast Food Restaurant,11:00,21:00,Jinan Station,"116.990536,36.671528",36.671528,116.990536,3.7
Litian Hotel Chinese Restaurant,Hangzhou,36.667248,116.994704,89.0,Chinese Restaurant;Chinese Restaurant,07:00,21:30,Jinan Station,"116.990536,36.671528",36.671528,116.990536,4.1
Popular Cuisine Restaurant,Hangzhou,36.670811,116.888104,100.0,Chinese Restaurant;Chinese Restaurant,11:00,21:00,Jinan West Station,"116.891331,36.668846",36.668846,116.891331,2.7
Wangwang Restaurant,Hangzhou,36.670930,116.887761,100.0,Chinese Restaurant;Chinese Restaurant,11:00,21:00,Jinan West Station,"116.891331,36.668846",36.668846,116.891331,2.8
Orange Restaurant,Hangzhou,36.670465,116.886933,100.0,Chinese Restaurant;Chinese Restaurant,07:00,20:00,Jinan West Station,"116.891331,36.668846",36.668846,116.891331,3.7
Jinan Greenland Melia Hotel Restaurant,Hangzhou,36.670599,116.895862,100.0,Chinese Restaurant;Chinese Restaurant,11:00,21:00,Jinan West Station,"116.891331,36.668846",36.668846,116.891331,4.1
Jinan West Station Intercity Hotel · City Enjoy All-Day Dining Restaurant,Hangzhou,36.669900,116.897720,100.0,Food Service Related;Food Service Related,17:00,20:30,Jinan West Station,"116.891331,36.668846",36.668846,116.891331,4.1
Dongrunhui Restaurant,Hangzhou,30.252475,120.222775,100.0,Chinese Restaurant;Chinese Restaurant,16:30,20:30,Hangzhou Oriental Residence · Huanglong Hotel,"120.220090,30.250852",30.250852,120.220090,4.1
Sushi Ichi Japanese Cuisine (Hangzhou MixC Mall Store),Hangzhou,30.251193,120.216088,1155.0,Foreign Restaurant;Japanese Cuisine,17:30,22:00,Hangzhou Oriental Residence · Huanglong Hotel,"120.220090,30.250852",30.250852,120.220090,4.2
O'eat Gastronomy (Hangzhou MixC Branch),Hangzhou,30.251041,120.215881,136.0,Foreign Restaurant;Foreign Restaurant,11:00,21:30,Hangzhou Oriental Residence · Huanglong Hotel,"120.220090,30.250852",30.250852,120.220090,4.7
Baijiahui Canteen (Clara Tianxi Branch),Hangzhou,30.296332,120.214228,100.0,Chinese Restaurant;Chinese Restaurant,16:30,20:30,Home Inn - Hangzhou East Railway Station Arrival Hall Branch,"120.215940,30.291855",30.291855,120.215940,4.3
Li Bai Library Restaurant (Pengbu Branch),Hangzhou,30.294007,120.221586,90.0,Chinese Restaurant;Chinese Restaurant,17:00,21:00,Home Inn - Hangzhou East Railway Station Arrival Hall Branch,"120.215940,30.291855",30.291855,120.215940,4.4
Flower Gathering Flavors Restaurant,Hangzhou,30.469781,119.769475,143.0,Food Service Related;Food Service Related,11:00,21:00,Hilton Garden Inn Hangzhou Luniao,"119.769431,30.469522",30.469522,119.769431,4.1
Xiaozhu River Fresh Restaurant (Xinhu Golden Pond Branch),Hangzhou,30.470169,119.768906,95.0,Chinese Restaurant;Chinese Restaurant,16:30,20:30,Hilton Garden Inn Hangzhou Luniao,"119.769431,30.469522",30.469522,119.769431,4.2
Zhongda Langyuan Restaurant,Hangzhou,30.470213,119.764273,76.0,Chinese Restaurant;Chinese Restaurant,11:00,21:00,Hilton Garden Inn Hangzhou Luniao,"119.769431,30.469522",30.469522,119.769431,3.9
Tuhaha Music Restaurant & Bar (Taifu Plaza Branch),Hangzhou,30.165000,120.285112,103.0,Chinese Restaurant;Chinese Restaurant,18:30,02:30,Ji Hotel Hangzhou South Railway Station,"120.292000,30.173400",30.173400,120.292000,4.3
Radisson Blu Hotel Xiaoshan · Jufeng Chinese Restaurant,Hangzhou,30.163626,120.284667,105.0,Chinese Restaurant;Chinese Restaurant,16:30,20:30,Ji Hotel Hangzhou South Railway Station,"120.292000,30.173400",30.173400,120.292000,4.4
Qingzhu Music Restaurant & Bar,Hangzhou,30.164001,120.283843,98.0,Chinese Restaurant;Chinese Restaurant,16:30,02:30,Ji Hotel Hangzhou South Railway Station,"120.292000,30.173400",30.173400,120.292000,4.1
Aru Restaurant (Yucai Xiyuan East District Store),Hangzhou,30.166872,120.279363,100.0,Chinese Restaurant;Chinese Restaurant,10:00,22:00,Ji Hotel Hangzhou South Railway Station,"120.292000,30.173400",30.173400,120.292000,4.0
Star Ripple Restaurant,Hangzhou,30.165822,120.279667,100.0,Chinese Restaurant;Chinese Restaurant,16:00,20:30,Ji Hotel Hangzhou South Railway Station,"120.292000,30.173400",30.173400,120.292000,3.9
Hangzhou Liangzhu InterContinental Hotel · Yuan · Restaurant,Hangzhou,30.363108,120.058440,267.0,Food Service Related;Food Service Related,06:30,22:00,InterContinental Hangzhou Liangzhu,"120.058265,30.362351",30.362351,120.058265,4.1
Green Tea Restaurant (Liangzhu AEON Branch),Hangzhou,30.361073,120.058364,60.0,Chinese Restaurant;Chinese Restaurant,11:00,22:00,InterContinental Hangzhou Liangzhu,"120.058265,30.362351",30.362351,120.058265,4.5
Saizeriya Italian Restaurant (Liangzhu New Town AEON Mall Branch),Hangzhou,30.361060,120.059362,100.0,Food Service Related;Food Service Related,10:00,22:00,InterContinental Hangzhou Liangzhu,"120.058265,30.362351",30.362351,120.058265,4.5
Yuxiangyuan Restaurant (Songcheng Branch),Hangzhou,30.167158,120.102809,55.0,Chinese Restaurant;Chinese Restaurant,16:00,24:00,Orange Hotel (Hangzhou Songcheng Branch),"120.103127,30.167198",30.167198,120.103127,4.6
Taste Qiantang Chinese Restaurant (Zhijiang Intime Department Store),Hangzhou,30.167977,120.101895,184.0,Chinese Restaurant;Chinese Restaurant,10:30,21:30,Orange Hotel (Hangzhou Songcheng Branch),"120.103127,30.167198",30.167198,120.103127,4.3
Gangji Tea Restaurant · No Pre-Made Dishes (Zhijiang Intime Department Store),Hangzhou,30.167875,120.101775,100.0,Fast Food Restaurant;Fast Food Restaurant,11:00,21:00,Orange Hotel (Hangzhou Songcheng Branch),"120.103127,30.167198",30.167198,120.103127,3.0
Gonglian Food Court,Hangzhou,30.255188,120.164276,41.0,Chinese Restaurant;Chinese Restaurant,10:00,22:00,Orange Hotel Hangzhou West Lake,"120.165000,30.256100",30.256100,120.165000,4.2
Dapai Da Traditional Cuisine (Lakeside Branch),Hangzhou,30.255784,120.163643,62.0,Chinese Restaurant;Chinese Restaurant,17:00,20:30,Orange Hotel Hangzhou West Lake,"120.165000,30.256100",30.256100,120.165000,4.6
Longchuan Honpo (Gonglian CC Branch),Hangzhou,30.254777,120.165028,97.0,Food Service Related;Food Service Related,11:00,01:30,Orange Hotel Hangzhou West Lake,"120.165000,30.256100",30.256100,120.165000,4.8
Old Lady's Clay Oven Barbecue (Hangzhou First Store),Hangzhou,30.257446,120.164191,140.0,Foreign Restaurant;韩国料理,11:00,22:00,Orange Hotel Hangzhou West Lake,"120.165000,30.256100",30.256100,120.165000,4.7
Jiangzhe Hui (Hubin Intime Store),Hangzhou,30.254879,120.163811,141.0,Chinese Restaurant;Chinese Restaurant,10:00,22:00,Orange Hotel Hangzhou West Lake,"120.165000,30.256100",30.256100,120.165000,4.5
Longjiang Lao Wei Pork Knuckle · Roasted Meat Restaurant,Hangzhou,30.187820,120.236510,100.0,Chinese Restaurant;Chinese Restaurant,11:00,21:00,Orange Hotel Hangzhou Xiaoshan Binkang Road Metro Station,"120.237000,30.187200",30.187200,120.237000,4.2
Hangzhou Boao New Century Grand Hotel · Chef's All-Day Western Restaurant,Hangzhou,30.183308,120.242379,100.0,Hotel;五星级宾馆|Foreign Restaurant;Foreign Restaurant,09:00,01:00,Orange Hotel Hangzhou Xiaoshan Binkang Road Metro Station,"120.237000,30.187200",30.187200,120.237000,4.7
Zhang Zhengfa Tea Restaurant,Hangzhou,30.182908,120.244566,26.0,Fast Food Restaurant;Fast Food Restaurant,10:00,20:00,Orange Hotel Hangzhou Xiaoshan Binkang Road Metro Station,"120.237000,30.187200",30.187200,120.237000,4.2
779 Self-Service Restaurant (Jincheng Road Branch),Hangzhou,30.183175,120.244795,100.0,Chinese Restaurant;General Restaurant,11:00,21:00,Orange Hotel Hangzhou Xiaoshan Binkang Road Metro Station,"120.237000,30.187200",30.187200,120.237000,4.0
Shangya Fine Dining Restaurant (Jindi Desheng Center Store),Hangzhou,30.181266,120.250331,100.0,Chinese Restaurant;Chinese Restaurant,10:00,19:00,Orange Hotel Hangzhou Xiaoshan Binkang Road Metro Station,"120.237000,30.187200",30.187200,120.237000,3.6
Daomile Restaurant (Second Branch),Hangzhou,30.334277,120.199426,100.0,Food Service Related;Food Service Related,08:00,20:00,Jinjiang Inn (Hangzhou Huafeng Road Metro Station Branch),"120.197730,30.336458",30.336458,120.197730,4.0
Jin Laifu Restaurant,Hangzhou,30.333975,120.199975,100.0,Chinese Restaurant;Chinese Restaurant,11:00,21:00,Jinjiang Inn (Hangzhou Huafeng Road Metro Station Branch),"120.197730,30.336458",30.336458,120.197730,4.1
No. 618 Fishing Boat Taizhou Seafood Restaurant (Haichen · Waterfront Crystal Plaza Branch),Hangzhou,30.334438,120.202280,72.0,Chinese Restaurant;Seafood Restaurant,16:00,21:30,Jinjiang Inn (Hangzhou Huafeng Road Metro Station Branch),"120.197730,30.336458",30.336458,120.197730,4.1
Chen Junji Tea Restaurant (Gongshu Branch),Hangzhou,30.340812,120.203005,100.0,Food Service Related;Food Service Related,11:00,21:00,Jinjiang Inn (Hangzhou Huafeng Road Metro Station Branch),"120.197730,30.336458",30.336458,120.197730,3.5
Quzhou Farmhouse Cuisine Self-service Restaurant,Hangzhou,30.342631,120.192161,100.0,Chinese Restaurant;Chinese Restaurant,09:30,21:30,Jinjiang Inn (Hangzhou Huafeng Road Metro Station Branch),"120.197730,30.336458",30.336458,120.197730,3.7
Lakeside Residence Restaurant,Hangzhou,30.231832,119.764750,100.0,Food Service Related;Food Service Related,10:00,22:00,Radisson Resort Hangzhou Lin'an Qingshan Lake,"119.769275,30.234250",30.234250,119.769275,4.2
Royal Garden Restaurant,Hangzhou,30.237180,119.774576,100.0,Chinese Restaurant;Chinese Restaurant,11:00,21:00,Radisson Resort Hangzhou Lin'an Qingshan Lake,"119.769275,30.234250",30.234250,119.769275,3.7
Hangzhou Zuihuju Farmhouse Restaurant,Hangzhou,30.235849,119.762951,110.0,Chinese Restaurant;Chinese Restaurant,16:00,21:00,Radisson Resort Hangzhou Lin'an Qingshan Lake,"119.769275,30.234250",30.234250,119.769275,3.9
A Ping Restaurant,Hangzhou,30.236399,119.761933,100.0,Chinese Restaurant;Chinese Restaurant,09:00,21:00,Radisson Resort Hangzhou Lin'an Qingshan Lake,"119.769275,30.234250",30.234250,119.769275,3.8
Zhongdu Qingshan Lakeside Grand Hotel Buffet Restaurant,Hangzhou,30.228501,119.764985,195.0,Chinese Restaurant;Chinese Restaurant,10:00,22:00,Radisson Resort Hangzhou Lin'an Qingshan Lake,"119.769275,30.234250",30.234250,119.769275,4.1
Tangmen Barbecue (Fanjia Apartment Branch),Hangzhou,30.290834,120.199501,100.0,Chinese Restaurant;Local Specialty Restaurant,11:00,21:00,Hampton by Hilton Hangzhou East Railway Station,"120.198351,30.290085",30.290085,120.198351,3.8
Northeast BBQ Blue Friend Restaurant,Hangzhou,30.286830,120.202972,100.0,Chinese Restaurant;Chinese Restaurant,11:00,21:00,Hampton by Hilton Hangzhou East Railway Station,"120.198351,30.290085",30.290085,120.198351,3.7
No. 903 Hospital External Personnel Restaurant,Hangzhou,30.286020,120.193745,100.0,Chinese Restaurant;Chinese Restaurant,05:30,19:00,Hampton by Hilton Hangzhou East Railway Station,"120.198351,30.290085",30.290085,120.198351,3.8
Gulute Barbecue Buffet Restaurant (Lin'an People's Square Branch),Hangzhou,30.227128,119.707367,54.0,Chinese Restaurant;Chinese Restaurant,10:30,21:00,Ji Hotel Hangzhou Lin'an People's Square,"119.710000,30.224400",30.224400,119.710000,4.3
Drive-Thru Restaurant,Hangzhou,30.222484,119.704992,100.0,Fast Food Restaurant;Fast Food Restaurant,11:00,21:00,Ji Hotel Hangzhou Lin'an People's Square,"119.710000,30.224400",30.224400,119.710000,3.5
Mosang Huakai Restaurant (Shijing Street Store),Hangzhou,30.223249,119.716008,111.0,Chinese Restaurant;Zhejiang Cuisine,16:00,20:30,Ji Hotel Hangzhou Lin'an People's Square,"119.710000,30.224400",30.224400,119.710000,3.8
Li Yao Restaurant,Hangzhou,30.230553,119.709896,100.0,Chinese Restaurant;Chinese Restaurant,11:00,21:00,Ji Hotel Hangzhou Lin'an People's Square,"119.710000,30.224400",30.224400,119.710000,3.9
Beautiful Bay Restaurant,Hangzhou,30.217728,119.712612,100.0,Chinese Restaurant;Chinese Restaurant,11:00,21:00,Ji Hotel Hangzhou Lin'an People's Square,"119.710000,30.224400",30.224400,119.710000,3.8
McDonald's Lvyin Street Restaurant,Hangzhou,30.474024,120.196953,35.0,Fast Food Restaurant;麦当劳,07:00,23:00,Hangzhou Star Sea Grand New Century Hotel,"120.196022,30.473480",30.473480,120.196022,4.5
919 Creative Restaurant,Hangzhou,30.472472,120.194166,98.0,Chinese Restaurant;Chinese Restaurant,10:00,22:00,Hangzhou Star Sea Grand New Century Hotel,"120.196022,30.473480",30.473480,120.196022,4.3
Xingcai Fine Dining Restaurant,Hangzhou,30.472333,120.192395,100.0,Foreign Restaurant;Japanese Cuisine,16:30,23:00,Hangzhou Star Sea Grand New Century Hotel,"120.196022,30.473480",30.473480,120.196022,4.0
Cute Rabbit Homestyle Self-Service Restaurant,Hangzhou,30.133758,120.084425,100.0,Chinese Restaurant;Chinese Restaurant,11:00,21:00,Anmu Hotel (Hangzhou Yunqi Town Convention and Exhibition Center Branch),"120.087373,30.134343",30.134343,120.087373,3.5
Yun Xiaoguan Coffee Theme Restaurant,Hangzhou,30.133470,120.084330,100.0,Chinese Restaurant;Chinese Restaurant,11:00,21:00,Anmu Hotel (Hangzhou Yunqi Town Convention and Exhibition Center Branch),"120.087373,30.134343",30.134343,120.087373,3.9
Shu Laohei Quzhou Farmhouse Cuisine Self-service Restaurant,Hangzhou,30.133196,120.084276,100.0,Chinese Restaurant;Chinese Restaurant,11:00,21:00,Anmu Hotel (Hangzhou Yunqi Town Convention and Exhibition Center Branch),"120.087373,30.134343",30.134343,120.087373,3.8
Wyndham Hotel - Buffet Restaurant,Hangzhou,30.260285,119.951716,100.0,Chinese Restaurant;Chinese Restaurant,11:00,21:00,Fairfield by Marriott Hangzhou Yuhang,"119.951895,30.260256",30.260256,119.951895,3.7
National Day Restaurant (Zizhu Renjia Store),Hangzhou,30.263594,119.951196,100.0,Chinese Restaurant;Chinese Restaurant,11:00,21:00,Fairfield by Marriott Hangzhou Yuhang,"119.951895,30.260256",30.260256,119.951895,4.0
Juyouxuan Restaurant (Zizhu Renjia Store),Hangzhou,30.263602,119.950276,68.0,Chinese Restaurant;Chinese Restaurant,08:00,02:30,Fairfield by Marriott Hangzhou Yuhang,"119.951895,30.260256",30.260256,119.951895,4.1
Seafood Restaurant (Fengxin Road Branch),Hangzhou,30.260308,119.944722,100.0,Chinese Restaurant;Seafood Restaurant,11:00,21:00,Fairfield by Marriott Hangzhou Yuhang,"119.951895,30.260256",30.260256,119.951895,4.3
Huipeng River Fresh,Hangzhou,30.253109,119.951232,100.0,Chinese Restaurant;Seafood Restaurant,09:00,20:30,Fairfield by Marriott Hangzhou Yuhang,"119.951895,30.260256",30.260256,119.951895,4.5
Chengyuan New Xiyang Restaurant (Wenyi West Road Branch),Hangzhou,30.287817,120.080820,103.0,Chinese Restaurant;Chinese Restaurant,17:00,21:00,Orange Hotel Hangzhou Cultural and Sports Center Xixi Wetland,"120.079410,30.281383",30.281383,120.079410,4.5
Ningkang Restaurant (Xixi Wisdom Building Branch),Hangzhou,30.280132,120.087830,100.0,Chinese Restaurant;Chinese Restaurant,11:00,21:00,Orange Hotel Hangzhou Cultural and Sports Center Xixi Wetland,"120.079410,30.281383",30.281383,120.079410,4.0
Xixi Posthouse Tea Restaurant,Hangzhou,30.280408,120.069749,100.0,Chinese Restaurant;Chinese Restaurant,11:00,21:00,Orange Hotel Hangzhou Cultural and Sports Center Xixi Wetland,"120.079410,30.281383",30.281383,120.079410,3.8
Three Colors Lotus Indian Restaurant (Zijinghua North Road Branch),Hangzhou,30.308954,120.092521,65.0,Foreign Restaurant;Foreign Restaurant,16:30,22:00,Orange Hotel Hangzhou Zhejiang University Zijin Port,"120.090736,30.311759",30.311759,120.090736,4.5
Hong Kong Island Tea House Hong Kong-style Tea Restaurant (Zhejiang Hong Kong International Branch),Hangzhou,30.308513,120.092344,100.0,Fast Food Restaurant;Tea Restaurant,11:00,21:00,Orange Hotel Hangzhou Zhejiang University Zijin Port,"120.090736,30.311759",30.311759,120.090736,3.6
Quwei Self-Service Restaurant (Zhegang International Store),Hangzhou,30.308629,120.092693,100.0,Chinese Restaurant;Chinese Restaurant,11:00,21:00,Orange Hotel Hangzhou Zhejiang University Zijin Port,"120.090736,30.311759",30.311759,120.090736,3.6
Tianjuyuan Self-service Restaurant,Hangzhou,30.308768,120.093242,100.0,Chinese Restaurant;Chinese Restaurant,11:00,21:00,Orange Hotel Hangzhou Zhejiang University Zijin Port,"120.090736,30.311759",30.311759,120.090736,3.9
Quan Kee Hong Kong-style Tea Restaurant,Hangzhou,30.308675,120.093125,100.0,Fast Food Restaurant;Fast Food Restaurant,11:00,21:00,Orange Hotel Hangzhou Zhejiang University Zijin Port,"120.090736,30.311759",30.311759,120.090736,3.6
Hangzhou Xixi Zijin Port Hilton Garden Hotel · Huahuiwei All-Day Dining Restaurant (Longhe Business Center Store),Hangzhou,30.326818,120.098915,100.0,Food Service Related;Food Service Related,11:00,21:00,Hilton Garden Inn Hangzhou Xixi Zijingang,"120.098728,30.326706",30.326706,120.098728,4.2
Haoshengke Restaurant (Dongye Beiruan Smart Innovation Tower Store),Hangzhou,30.327666,120.097585,21.0,Chinese Restaurant;Chinese Restaurant,11:00,21:00,Hilton Garden Inn Hangzhou Xixi Zijingang,"120.098728,30.326706",30.326706,120.098728,3.9
Spicy Addiction Specialty Jiangxi Cuisine Restaurant,Hangzhou,30.328827,120.097531,106.0,Chinese Restaurant;Chinese Restaurant,11:00,21:30,Hilton Garden Inn Hangzhou Xixi Zijingang,"120.098728,30.326706",30.326706,120.098728,4.2
Qinjia Self-Service Restaurant (Shenhua V Times Store),Hangzhou,30.323299,120.100110,18.0,Chinese Restaurant;Chinese Restaurant,11:00,20:00,Hilton Garden Inn Hangzhou Xixi Zijingang,"120.098728,30.326706",30.326706,120.098728,4.4
Kongjiadai Store and Riverside Restaurant,Hangzhou,30.330576,120.097787,100.0,Chinese Restaurant;Chinese Restaurant,11:00,21:00,Hilton Garden Inn Hangzhou Xixi Zijingang,"120.098728,30.326706",30.326706,120.098728,3.8
City Blue Hall · Xiangzhang Garden,Hangzhou,30.276928,120.188435,484.0,Chinese Restaurant;Chinese Restaurant,09:30,22:30,Home Inn NEO - Hangzhou Wulin Square Chaohui Road Canal Branch,"120.184128,30.277893",30.277893,120.184128,4.6
Quzhou Cuisine Self-Service Restaurant (Meibo City Branch),Hangzhou,30.276300,120.190958,100.0,Chinese Restaurant;Chinese Restaurant,11:00,21:00,Home Inn NEO - Hangzhou Wulin Square Chaohui Road Canal Branch,"120.184128,30.277893",30.277893,120.184128,4.2
Hui · Drinks and Snacks (Blue Sky City Garden Branch),Hangzhou,30.284710,120.189495,100.0,Chinese Restaurant;Chinese Restaurant,10:00,22:00,Home Inn NEO - Hangzhou Wulin Square Chaohui Road Canal Branch,"120.184128,30.277893",30.277893,120.184128,4.5
Mong Kok Tea Restaurant (Zijin Dream Plaza Branch),Hangzhou,30.328490,120.066671,16.0,Fast Food Restaurant;Fast Food Restaurant,06:00,21:00,Hangzhou West Lake Yiting Garden Hotel,"120.066380,30.328002",30.328002,120.066380,3.9
Xinyi Restaurant,Hangzhou,30.329625,120.070055,100.0,Chinese Restaurant;Chinese Restaurant,11:00,21:00,Hangzhou West Lake Yiting Garden Hotel,"120.066380,30.328002",30.328002,120.066380,3.6
Haihong Self-Service Restaurant,Hangzhou,30.324328,120.063094,100.0,Food Service Related;Food Service Related,08:00,22:00,Hangzhou West Lake Yiting Garden Hotel,"120.066380,30.328002",30.328002,120.066380,4.1
Hangzhou West Lake Dianying Hotel · 1937 Restaurant,Hangzhou,30.263206,120.155350,447.0,Food Service Related;Food Service Related,11:00,21:00,Broken Bridge and Remnant Snow,"120.151299,30.258106",30.258106,120.151299,4.2
Sullivan Western Restaurant (WAKE TOWN Commercial Street Branch),Hangzhou,30.259038,120.159258,158.0,Foreign Restaurant;Western Restaurant,17:30,21:00,Broken Bridge and Remnant Snow,"120.151299,30.258106",30.258106,120.151299,3.9
Wanghu Tower · Chinese Restaurant,Hangzhou,30.259017,120.159309,144.0,Chinese Restaurant;Chinese Restaurant,17:30,21:00,Broken Bridge and Remnant Snow,"120.151299,30.258106",30.258106,120.151299,4.2
Paper Kite · Fusion Restaurant · Bistro,Hangzhou,30.240719,120.169041,100.0,Chinese Restaurant;Chinese Restaurant,17:00,21:30,Southern Song Imperial Street Zhongshan Road Pedestrian Street,"120.169526,30.240249",30.240249,120.169526,4.6
Haipaihui Restaurant,Hangzhou,30.240777,120.170435,98.0,Chinese Restaurant;Chinese Restaurant,10:00,22:00,Southern Song Imperial Street Zhongshan Road Pedestrian Street,"120.169526,30.240249",30.240249,120.169526,4.5
Xiyue · Garden Restaurant,Hangzhou,30.239312,120.169339,174.0,Chinese Restaurant;Chinese Restaurant,17:00,21:00,Southern Song Imperial Street Zhongshan Road Pedestrian Street,"120.169526,30.240249",30.240249,120.169526,4.6
"MaLaMaLa Garden Restaurant, Coffee & Afternoon Tea",Hangzhou,30.239071,120.169689,100.0,Food Service Related;Food Service Related,11:00,21:00,Southern Song Imperial Street Zhongshan Road Pedestrian Street,"120.169526,30.240249",30.240249,120.169526,4.7
Jiujiali · Creative Hangzhou Cuisine (Hefang Street Branch),Hangzhou,30.240648,120.171031,82.0,Chinese Restaurant;General Restaurant,10:00,23:30,Southern Song Imperial Street Zhongshan Road Pedestrian Street,"120.169526,30.240249",30.240249,120.169526,4.6
Yuting Zhandie (Gulou Store),Hangzhou,30.239810,120.171980,68.0,Chinese Restaurant;Zhejiang Cuisine,16:30,21:00,Southern Song Imperial Street Zhongshan Road Pedestrian Street,"120.169526,30.240249",30.240249,120.169526,4.4
"Jiang Xiaoxie (Xinjiang Cuisine Restaurant, Hefang Street Store)",Hangzhou,30.239330,120.171880,75.0,Chinese Restaurant;Chinese Restaurant,11:30,21:30,Southern Song Imperial Street Zhongshan Road Pedestrian Street,"120.169526,30.240249",30.240249,120.169526,4.6
New Zhouji · Jiangnan Flavors in the Alley (Gulou Branch),Hangzhou,30.237432,120.171040,64.0,Chinese Restaurant;Chinese Restaurant,10:30,23:30,Southern Song Imperial Street Zhongshan Road Pedestrian Street,"120.169526,30.240249",30.240249,120.169526,4.6
Pan Fang Chun Dumplings · Michelin Restaurant (Zhongshan South Road Store),Hangzhou,30.237205,120.171034,17.0,Chinese Restaurant;Chinese Restaurant,06:00,20:00,Southern Song Imperial Street Zhongshan Road Pedestrian Street,"120.169526,30.240249",30.240249,120.169526,4.6
New Bailu (West Lake Intime Department Store),Hangzhou,30.242989,120.165847,53.0,Chinese Restaurant;Zhejiang Cuisine|Cold Beverage Shop;Cold Beverage Shop,16:00,21:00,Southern Song Imperial Street Zhongshan Road Pedestrian Street,"120.169526,30.240249",30.240249,120.169526,4.7
Xinyaoji Affordable Tea Restaurant,Hangzhou,30.276975,120.163125,100.0,Fast Food Restaurant;Fast Food Restaurant,11:00,21:00,Zhejiang Museum of Natural History,"120.164581,30.276814",30.276814,120.164581,2.3
Zhang Zhengfa Tea Restaurant (West Lake Cultural Plaza Store),Hangzhou,30.276600,120.163054,24.0,Fast Food Restaurant;Fast Food Restaurant,10:00,22:00,Zhejiang Museum of Natural History,"120.164581,30.276814",30.276814,120.164581,4.2
Huijuan Noodle House Restaurant (Zhongbei Bridge Branch),Hangzhou,30.276871,120.166147,36.0,Chinese Restaurant;Chinese Restaurant,16:00,21:00,Zhejiang Museum of Natural History,"120.164581,30.276814",30.276814,120.164581,4.2
Green Tea Restaurant (Hangzhou West Lake Cultural Plaza Branch),Hangzhou,30.277606,120.163290,71.0,Chinese Restaurant;Chinese Restaurant,10:00,20:00,Zhejiang Museum of Natural History,"120.164581,30.276814",30.276814,120.164581,4.5
Dalaodian Hong Kong-Style Tea Restaurant (Hangzhou Store),Hangzhou,30.276375,120.162975,100.0,Fast Food Restaurant;Fast Food Restaurant,11:00,21:00,Zhejiang Museum of Natural History,"120.164581,30.276814",30.276814,120.164581,3.8
New Bailu Restaurant (Wenhua Square Intime Department Store Branch),Hangzhou,30.277581,120.163050,49.0,Chinese Restaurant;Zhejiang Cuisine,16:30,21:00,Zhejiang Museum of Natural History,"120.164581,30.276814",30.276814,120.164581,4.7
Pizza Italian Restaurant (West Lake Cultural Plaza Branch),Hangzhou,30.277919,120.163326,69.0,Foreign Restaurant;Italian Restaurant,10:00,22:00,Zhejiang Museum of Natural History,"120.164581,30.276814",30.276814,120.164581,4.3
Shangxia Ruo Restaurant,Hangzhou,30.277879,120.161926,676.0,Chinese Restaurant;Chinese Restaurant,17:00,21:00,Zhejiang Museum of Natural History,"120.164581,30.276814",30.276814,120.164581,4.6
Hejiaxuan Shunde Cuisine (Chaohui Store),Hangzhou,30.276753,120.168117,100.0,Chinese Restaurant;Chinese Restaurant,16:30,21:30,Zhejiang Museum of Natural History,"120.164581,30.276814",30.276814,120.164581,4.5
POLUX Deli,Hangzhou,30.274607,120.161048,186.0,公司企业;公司;公司,11:00,21:00,Zhejiang Museum of Natural History,"120.164581,30.276814",30.276814,120.164581,4.7
Hao Ke Lai Steak (Hangzhou Tianyang D32 Restaurant),Hangzhou,30.314744,120.137545,77.0,Foreign Restaurant;牛扒店(扒房),10:00,22:00,Hangzhou Arts and Crafts Museum,"120.136930,30.315645",30.315645,120.136930,4.4
Courtyard Restaurant (Gongchen Bridge Branch),Hangzhou,30.315401,120.138443,75.0,Chinese Restaurant;Chinese Restaurant,17:00,21:00,Hangzhou Arts and Crafts Museum,"120.136930,30.315645",30.315645,120.136930,4.3
BRIDGE · Western Restaurant,Hangzhou,30.317777,120.136895,100.0,Foreign Restaurant;Foreign Restaurant,11:00,21:00,Hangzhou Arts and Crafts Museum,"120.136930,30.315645",30.315645,120.136930,3.6
Yiheng Yisu · Jixiang Restaurant (Gongchen Bridge Branch),Hangzhou,30.317787,120.136903,32.0,Chinese Restaurant;Chinese Restaurant,10:30,20:30,Hangzhou Arts and Crafts Museum,"120.136930,30.315645",30.315645,120.136930,4.8
Sanren Noodle Restaurant (Jinchang Wenhua Branch),Hangzhou,30.312099,120.142601,25.0,Chinese Restaurant;Chinese Restaurant,16:30,21:00,Hangzhou Arts and Crafts Museum,"120.136930,30.315645",30.315645,120.136930,4.1
Qianyu Qianwei (Canal Branch),Hangzhou,30.321992,120.137046,131.0,Chinese Restaurant;Chinese Restaurant,17:00,20:30,Hangzhou Arts and Crafts Museum,"120.136930,30.315645",30.315645,120.136930,4.6
Baijia Family Restaurant (Wenzhou Road Branch),Hangzhou,30.320706,120.141437,18.0,Chinese Restaurant;Chinese Restaurant,14:00,19:00,Hangzhou Arts and Crafts Museum,"120.136930,30.315645",30.315645,120.136930,4.2
Shida Renjia Happy Restaurant (Jiru Jiayuan Branch),Hangzhou,30.317507,120.129761,21.0,Food Service Related;Food Service Related,11:00,21:00,Hangzhou Arts and Crafts Museum,"120.136930,30.315645",30.315645,120.136930,4.1
Nongtangli (Xiaohe Branch),Hangzhou,30.309394,120.133173,75.0,Chinese Restaurant;Chinese Restaurant,16:30,21:00,Hangzhou Arts and Crafts Museum,"120.136930,30.315645",30.315645,120.136930,4.4
Pizza Italian Restaurant (Canal Street Branch),Hangzhou,30.319066,120.144087,56.0,Foreign Restaurant;Italian Restaurant,10:00,22:00,Hangzhou Arts and Crafts Museum,"120.136930,30.315645",30.315645,120.136930,4.6
Fayun Aman Western Restaurant,Hangzhou,30.237412,120.097724,100.0,Foreign Restaurant;Western Restaurant,11:00,21:00,Feilai Peak,"120.101101,30.239119",30.239119,120.101101,4.5
Haihui Pavilion New Jiangnan Vegetarian Noodle Restaurant,Hangzhou,30.239004,120.105828,37.0,Food Service Related;Food Service Related,07:00,20:00,Feilai Peak,"120.101101,30.239119",30.239119,120.101101,4.8
Manshu Tianzhu Village Restaurant,Hangzhou,30.235660,120.104613,150.0,Chinese Restaurant;Chinese Restaurant,16:30,20:30,Feilai Peak,"120.101101,30.239119",30.239119,120.101101,4.4
Sansheng Xiaowu · Mountain Wild Food Collection (Hangzhou West Lake Lingyin Branch),Hangzhou,30.235894,120.105016,78.0,Chinese Restaurant;Chinese Restaurant,10:30,21:00,Feilai Peak,"120.101101,30.239119",30.239119,120.101101,4.7
Ruyi Restaurant,Hangzhou,30.238028,120.106488,105.0,Chinese Restaurant;Chinese Restaurant,10:30,20:30,Feilai Peak,"120.101101,30.239119",30.239119,120.101101,4.7
Lotus Fragrance Residence Restaurant,Hangzhou,30.230372,120.148032,63.0,Chinese Restaurant;Chinese Restaurant,17:00,19:30,Leifeng Pagoda Scenic Area,"120.148849,30.230934",30.230934,120.148849,4.3
Kouzi International Grand Hotel Restaurant,Hangzhou,30.232386,120.149789,100.0,Chinese Restaurant;Chinese Restaurant,11:00,21:00,Leifeng Pagoda Scenic Area,"120.148849,30.230934",30.230934,120.148849,3.3
Zizhen Garden Tea Banquet,Hangzhou,30.225658,120.152509,100.0,Tea House;Tea House,10:00,22:00,Leifeng Pagoda Scenic Area,"120.148849,30.230934",30.230934,120.148849,4.2
West Lake Banquet · Lakeside Restaurant,Hangzhou,30.236157,120.154292,360.0,Chinese Restaurant;Seafood Restaurant,11:00,21:00,Leifeng Pagoda Scenic Area,"120.148849,30.230934",30.230934,120.148849,4.5
Xiaolu Mansion · Republic Private Banquet,Hangzhou,30.225240,120.143968,206.0,Chinese Restaurant;Zhejiang Cuisine,11:00,21:00,Leifeng Pagoda Scenic Area,"120.148849,30.230934",30.230934,120.148849,4.3
Xiaolu Creative Restaurant (Prince Bay Branch),Hangzhou,30.225213,120.143880,100.0,Food Service Related;Food Service Related,11:00,21:00,Leifeng Pagoda Scenic Area,"120.148849,30.230934",30.230934,120.148849,3.6
Liuying Lakeside,Hangzhou,30.238732,120.154521,217.0,Chinese Restaurant;Chinese Restaurant,17:00,21:00,Leifeng Pagoda Scenic Area,"120.148849,30.230934",30.230934,120.148849,4.6
Haihui Pavilion New Jiangnan Vegetarian Noodle Restaurant,Hangzhou,30.239004,120.105828,37.0,Food Service Related;Food Service Related,07:00,20:00,Lingyin Temple,"120.101406,30.240826",30.240826,120.101406,4.8
Fayun Aman Western Restaurant,Hangzhou,30.237412,120.097724,100.0,Foreign Restaurant;Western Restaurant,11:00,21:00,Lingyin Temple,"120.101406,30.240826",30.240826,120.101406,4.3
Dayin Qingxin Vegetarian Buffet Restaurant (Yinshi Branch),Hangzhou,30.240622,120.106983,30.0,Chinese Restaurant;中式素菜馆,17:00,19:00,Lingyin Temple,"120.101406,30.240826",30.240826,120.101406,4.4
Ruyi Restaurant,Hangzhou,30.238028,120.106488,105.0,Chinese Restaurant;Chinese Restaurant,10:30,20:30,Lingyin Temple,"120.101406,30.240826",30.240826,120.101406,4.7
Beigao Peak Cableway Restaurant,Hangzhou,30.243268,120.106763,21.0,Chinese Restaurant;Chinese Restaurant,10:00,21:00,Lingyin Temple,"120.101406,30.240826",30.240826,120.101406,4.1
Luyingji Forest-Style Restaurant (Lingyin Scenic Area Branch),Hangzhou,30.238288,120.106949,100.0,Food Service Related;Food Service Related,11:00,21:00,Lingyin Temple,"120.101406,30.240826",30.240826,120.101406,4.0
Sansheng Xiaowu · Mountain Wild Food Collection (Hangzhou West Lake Lingyin Branch),Hangzhou,30.235894,120.105016,78.0,Chinese Restaurant;Chinese Restaurant,10:30,21:00,Lingyin Temple,"120.101406,30.240826",30.240826,120.101406,4.7
Qiantang · Courtyard Restaurant (Lingyin Branch),Hangzhou,30.243659,120.107314,106.0,Chinese Restaurant;Chinese Restaurant,10:00,22:00,Lingyin Temple,"120.101406,30.240826",30.240826,120.101406,4.7
Manshu Tianzhu Village Restaurant,Hangzhou,30.235660,120.104613,150.0,Chinese Restaurant;Chinese Restaurant,16:30,20:30,Lingyin Temple,"120.101406,30.240826",30.240826,120.101406,4.4
Qiao Shi Courtyard Restaurant,Hangzhou,30.235839,120.105186,132.0,Chinese Restaurant;Zhejiang Cuisine,09:00,22:00,Lingyin Temple,"120.101406,30.240826",30.240826,120.101406,4.3
Louwailou (Hangzhou West Lake Scenic Area Branch),Hangzhou,30.250209,120.140723,157.0,Chinese Restaurant;General Restaurant,16:30,20:30,Solitary Hill Park,"120.142481,30.251654",30.251654,120.142481,4.5
Hangzhou Shangri-La · Coffee Garden,Hangzhou,30.252574,120.137577,207.0,Cafe;Cafe,11:00,21:00,Solitary Hill Park,"120.142481,30.251654",30.251654,120.142481,4.1
Hangzhou Xinxin Hotel · 1913 Restaurant,Hangzhou,30.255994,120.144148,371.0,Food Service Related;Food Service Related,09:30,21:30,Solitary Hill Park,"120.142481,30.251654",30.251654,120.142481,4.3
Zhejiang West Lake Villa · Buffet Restaurant,Hangzhou,30.256935,120.142147,100.0,Chinese Restaurant;Chinese Restaurant,11:00,21:00,Solitary Hill Park,"120.142481,30.251654",30.251654,120.142481,4.1
Le Villa Restaurant,Hangzhou,30.257025,120.144486,100.0,Chinese Restaurant;Chinese Restaurant,10:30,21:30,Solitary Hill Park,"120.142481,30.251654",30.251654,120.142481,4.0
Huabei Hotel - Chinese Restaurant,Hangzhou,30.253808,120.133460,112.0,Chinese Restaurant;Chinese Restaurant,17:30,20:30,Solitary Hill Park,"120.142481,30.251654",30.251654,120.142481,4.1
Zhanbi Tower · West Lake Lakeside Restaurant,Hangzhou,30.247279,120.133313,100.0,Chinese Restaurant;Chinese Restaurant,11:00,22:30,Solitary Hill Park,"120.142481,30.251654",30.251654,120.142481,4.6
Twelve Hours Lakeview Restaurant,Hangzhou,30.251519,120.131988,100.0,Food Service Related;Food Service Related,10:30,20:00,Solitary Hill Park,"120.142481,30.251654",30.251654,120.142481,4.0
Qianjiang Restaurant,Hangzhou,30.259527,120.148472,100.0,Chinese Restaurant;General Restaurant,10:00,20:00,Solitary Hill Park,"120.142481,30.251654",30.251654,120.142481,4.2
Qinglan (Yang Gongdi Branch),Hangzhou,30.248263,120.131589,368.0,Food Service Related;Food Service Related,17:30,21:30,Solitary Hill Park,"120.142481,30.251654",30.251654,120.142481,4.4
