restaurant_name,city,latitude,longitude,price_per_person,cuisine,opening_time,closing_time,nearby_attraction_name,nearby_attraction_coords,query_latitude,query_longitude,rating,tags
Zhang's Goose Castle,Zhengzhou,34.870717,113.670712,50.0,Fast Food Restaurant;Fast Food Restaurant,09:30,23:00,Yellow River Museum,"113.677764,34.871840",34.871840,113.677764,4.4,Outdoor Seating;Waiting Area
Datang Restaurant Shrimp Dumpling Specialty Store (Yingbin Road Branch),Zhengzhou,34.871556,113.665047,90.0,Chinese Restaurant;Local Specialty Restaurant,17:00,21:30,Yellow River Museum,"113.677764,34.871840",34.871840,113.677764,4.5,Birthday Package
Radisson Blu Hotel Zhengzhou - Pin Buffet Restaurant,Zhengzhou,34.859568,113.678526,208.0,Food Service Related;Food Service Related,11:00,22:00,Yellow River Museum,"113.677764,34.871840",34.871840,113.677764,4.1,Must-Eat Top 10;Outdoor Seating
Zhengzhou Normal University East Campus Jingxinyuan Restaurant,Zhengzhou,34.863435,113.659282,100.0,Chinese Restaurant;Chinese Restaurant,11:00,21:00,Yellow River Museum,"113.677764,34.871840",34.871840,113.677764,4.2,Waiting Area;Birthday Package
Xinyang Fusion Restaurant,Zhengzhou,34.889033,113.574616,32.0,Chinese Restaurant;Chinese Restaurant,11:00,22:00,Huiji Bridge Ruins Park,"113.585469,34.892354",34.892354,113.585469,3.8,Online Queue
Convenience Restaurant,Zhengzhou,34.886025,113.569690,100.0,Chinese Restaurant;Chinese Restaurant,11:00,21:00,Huiji Bridge Ruins Park,"113.585469,34.892354",34.892354,113.585469,2.2,Waiting Area
KFC Drive-Thru Restaurant (Jiangshan Road DT Branch),Zhengzhou,34.880231,113.572945,100.0,Food Service Related;Food Service Related,11:00,21:00,Huiji Bridge Ruins Park,"113.585469,34.892354",34.892354,113.585469,3.7,Must-Eat Top 10;Outdoor Seating
Henan University Affiliated Zhengzhou First People's Hospital · Nutrition Restaurant,Zhengzhou,34.750370,113.685219,100.0,Chinese Restaurant;Chinese Restaurant,11:00,21:00,Chenghuang Temple,"113.686977,34.752061",34.752061,113.686977,3.7,Outdoor Seating
Henan Provincial Traditional Chinese Medicine Research Institute Affiliated Hospital Restaurant,Zhengzhou,34.755083,113.685722,100.0,Chinese Restaurant;Chinese Restaurant,17:00,19:30,Chenghuang Temple,"113.686977,34.752061",34.752061,113.686977,3.8,Waiting Area;Birthday Package
Old Wu's Meow Cafe & Restaurant (New World Department Store Branch),Zhengzhou,34.752925,113.682675,28.0,Food Service Related;Food Service Related,09:30,21:30,Chenghuang Temple,"113.686977,34.752061",34.752061,113.686977,4.3,Must-Eat Top 10
Mama Restaurant (Chengdong Road Branch),Zhengzhou,34.748675,113.691225,15.0,Chinese Restaurant;Chinese Restaurant,17:30,21:00,Chenghuang Temple,"113.686977,34.752061",34.752061,113.686977,4.4,Must-Eat Top 10;Online Queue
Minyu Chinese Restaurant (Jinduoyinduo Jewelry Store),Zhengzhou,34.748684,113.681630,90.0,Chinese Restaurant;Fujian Cuisine,10:00,22:00,Chenghuang Temple,"113.686977,34.752061",34.752061,113.686977,4.0,Outdoor Seating;Birthday Package
Zhen Yuchuan Banquet Center,Zhengzhou,34.747760,113.691761,100.0,Chinese Restaurant;Chinese Restaurant,17:00,21:00,Chenghuang Temple,"113.686977,34.752061",34.752061,113.686977,4.7,Must-Eat Top 10
Erguang Restaurant,Zhengzhou,34.757454,113.691651,66.0,Chinese Restaurant;Halal Restaurant,17:30,22:00,Chenghuang Temple,"113.686977,34.752061",34.752061,113.686977,4.4,Private Room;Waiting Area
Song Laosan Su Meat and Lamb Soup Old Shop,Zhengzhou,34.751635,113.677244,100.0,Chinese Restaurant;Halal Restaurant,17:00,21:30,Chenghuang Temple,"113.686977,34.752061",34.752061,113.686977,4.4,Waiting Area
Jingxin Yuan Restaurant,Zhengzhou,34.757702,113.678788,69.0,Chinese Restaurant;Chinese Restaurant,10:00,22:00,Chenghuang Temple,"113.686977,34.752061",34.752061,113.686977,4.0,Must-Eat Top 10;Private Room
Fangzhongshan Spicy Soup (Flagship Store),Zhengzhou,34.760065,113.682462,15.0,Chinese Restaurant;Halal Restaurant,05:00,13:30,Chenghuang Temple,"113.686977,34.752061",34.752061,113.686977,4.5,Waiting Area
Third Hospital Nutrition Restaurant,Zhengzhou,34.767625,113.751240,100.0,Chinese Restaurant;Chinese Restaurant,11:00,21:00,Zhengdong New District CBD,"113.753400,34.769100",34.769100,113.753400,3.8,Must-Eat Top 10
Supreme Qiangzai (Zhengguang North Street Branch),Zhengzhou,34.771566,113.754982,80.0,Chinese Restaurant;Cantonese Cuisine,17:00,22:00,Zhengdong New District CBD,"113.753400,34.769100",34.769100,113.753400,4.6,Waiting Area
Yulongxuan Tea Restaurant (Yuhang Center Branch),Zhengzhou,34.771871,113.755230,100.0,Chinese Restaurant;Chinese Restaurant,09:00,22:30,Zhengdong New District CBD,"113.753400,34.769100",34.769100,113.753400,3.6,Must-Eat Top 10
Hairong Hotel Western Restaurant,Zhengzhou,34.768486,113.749551,60.0,Foreign Restaurant;Western Restaurant,06:30,22:00,Zhengdong New District CBD,"113.753400,34.769100",34.769100,113.753400,3.8,Outdoor Seating
Guangyi Xinyang Maojian Tea Restaurant (Yuhang Branch),Zhengzhou,34.771881,113.755782,100.0,Specialty Store;Exclusive Store,11:00,21:00,Zhengdong New District CBD,"113.753400,34.769100",34.769100,113.753400,3.7,Must-Eat Top 10;Outdoor Seating
Xinshi Lin Holiday Inn - Elemental Restaurant,Zhengzhou,34.771175,113.757935,73.0,Chinese Restaurant;Chinese Restaurant,11:00,21:00,Zhengdong New District CBD,"113.753400,34.769100",34.769100,113.753400,4.2,Private Room
Sheraton Grand Zhengzhou Hotel - Feast Signature Restaurant,Zhengzhou,34.764000,113.754711,260.0,Foreign Restaurant;Western Restaurant,17:30,21:30,Zhengdong New District CBD,"113.753400,34.769100",34.769100,113.753400,4.3,Birthday Package
Sheng · Star Court Steak Restaurant,Zhengzhou,34.763882,113.754664,100.0,Foreign Restaurant;Western Restaurant,17:30,21:00,Zhengdong New District CBD,"113.753400,34.769100",34.769100,113.753400,3.8,Waiting Area
Tianmingfang Five-Flavored Medicinal Cuisine Restaurant,Zhengzhou,34.772309,113.759111,279.0,Chinese Restaurant;Chinese Restaurant,17:30,21:00,Zhengdong New District CBD,"113.753400,34.769100",34.769100,113.753400,4.3,Outdoor Seating;Online Queue
Song Style Elegant Banquet · Song Culture Restaurant (Shangzuo Center Branch),Zhengzhou,34.763443,113.756145,212.0,Chinese Restaurant;Chinese Restaurant,17:00,21:00,Zhengdong New District CBD,"113.753400,34.769100",34.769100,113.753400,4.6,Must-Eat Top 10
Cai Feng Lou Chinese Restaurant (Zhengzhou Dennis Plaza InterContinental Hotel),Zhengzhou,34.757771,113.665954,227.0,Food Service Related;Food Service Related,17:30,21:30,David City Shopping Center,"113.666031,34.758202",34.758202,113.666031,4.2,Must-Eat Top 10
Yixu Sukiyaki (Dennis David Plaza Branch),Zhengzhou,34.757768,113.665886,159.0,Foreign Restaurant;Japanese Cuisine,11:00,22:00,David City Shopping Center,"113.666031,34.758202",34.758202,113.666031,4.6,Must-Eat Top 10;Birthday Package
The Boots Mud Boots Get Holiday (David City Branch),Zhengzhou,34.758578,113.666557,117.0,Foreign Restaurant;Western Restaurant,11:00,22:00,David City Shopping Center,"113.666031,34.758202",34.758202,113.666031,4.8,Birthday Package;Online Queue
Wang Steak (Zhengzhou David Plaza Branch),Zhengzhou,34.757501,113.666208,258.0,Foreign Restaurant;牛扒店(扒房),17:00,21:00,David City Shopping Center,"113.666031,34.758202",34.758202,113.666031,4.4,Waiting Area;Online Queue
Xiang Ding Sheng Premium Restaurant (David City Branch),Zhengzhou,34.757365,113.665761,61.0,Chinese Restaurant;Chinese Restaurant,11:00,21:00,David City Shopping Center,"113.666031,34.758202",34.758202,113.666031,4.6,Must-Eat Top 10;Birthday Package
Grandma's Kitchen (Dennis David City Branch),Zhengzhou,34.757262,113.666027,136.0,Chinese Restaurant;Chinese Restaurant,11:00,21:30,David City Shopping Center,"113.666031,34.758202",34.758202,113.666031,4.5,Outdoor Seating;Birthday Package
De Fu Indian Restaurant (David Plaza Branch),Zhengzhou,34.756973,113.665911,83.0,Food Service Related;Food Service Related,10:30,21:30,David City Shopping Center,"113.666031,34.758202",34.758202,113.666031,4.6,Waiting Area;Online Queue
Manyu (Dennis David Plaza Branch),Zhengzhou,34.756848,113.666241,90.0,服装鞋帽皮具店;服装鞋帽皮具店,11:00,21:00,David City Shopping Center,"113.666031,34.758202",34.758202,113.666031,4.7,Outdoor Seating
Route 5 Restaurant Stone-Grilled Steak (David City Branch),Zhengzhou,34.756777,113.666316,128.0,Fast Food Restaurant;Fast Food Restaurant,11:00,22:00,David City Shopping Center,"113.666031,34.758202",34.758202,113.666031,4.7,Private Room
Zhengzhou Zhengbai Restaurant (Zhengzhou Department Store Branch),Zhengzhou,34.756286,113.668080,100.0,Chinese Restaurant;Chinese Restaurant,09:30,21:00,David City Shopping Center,"113.666031,34.758202",34.758202,113.666031,3.9,Outdoor Seating;Online Queue
Zhengzhou Sofitel International Hotel · Dome Western Restaurant,Zhengzhou,34.761863,113.692708,237.0,Foreign Restaurant;Western Restaurant,11:00,21:30,Zhengzhou Shangdu National Archaeological Site Park,"113.690498,34.753775",34.753775,113.690498,4.2,Birthday Package;Online Queue
Hongyuan Restaurant,Zhengzhou,34.761674,113.693653,100.0,Chinese Restaurant;Cantonese Cuisine,17:30,21:30,Zhengzhou Shangdu National Archaeological Site Park,"113.690498,34.753775",34.753775,113.690498,3.9,Must-Eat Top 10;Private Room
Sofitel International Hotel (Yueweixian Chinese Restaurant),Zhengzhou,34.761932,113.692486,204.0,Chinese Restaurant;Chinese Restaurant,17:30,22:00,Zhengzhou Shangdu National Archaeological Site Park,"113.690498,34.753775",34.753775,113.690498,4.1,Online Queue
Yutong Retired Staff Restaurant (Yutong Garden Zhengbian Road No. 42 Courtyard Branch),Zhengzhou,34.747100,113.697080,100.0,Chinese Restaurant;Chinese Restaurant,11:00,21:00,Zhengzhou Shangdu National Archaeological Site Park,"113.690498,34.753775",34.753775,113.690498,3.6,Outdoor Seating;Online Queue
Ginkgo Tree Seafood Restaurant (Jinshui Road Branch),Zhengzhou,34.763326,113.684358,100.0,Chinese Restaurant;Seafood Restaurant,17:00,22:00,Zijing Mountain Park,"113.687708,34.761890",34.761890,113.687708,4.6,Birthday Package
Government Restaurant Fast Food Section,Zhengzhou,34.764882,113.689757,100.0,Fast Food Restaurant;Fast Food Restaurant,11:00,21:00,Zijing Mountain Park,"113.687708,34.761890",34.761890,113.687708,3.8,Birthday Package
Tanghou Keyixing Tea Banquet,Zhengzhou,34.764738,113.684978,93.0,Tea House;Tea House|购物相关场所;购物相关场所,09:30,23:00,Zijing Mountain Park,"113.687708,34.761890",34.761890,113.687708,4.3,Outdoor Seating
Zhengzhou Zhongzhou Holiday Inn Express Hotel Restaurant,Zhengzhou,34.762887,113.692533,100.0,Cafe;Cafe,11:00,21:00,Zijing Mountain Park,"113.687708,34.761890",34.761890,113.687708,4.1,Outdoor Seating
Xingcan Restaurant,Zhengzhou,34.764980,113.691112,100.0,Chinese Restaurant;Chinese Restaurant,11:00,21:00,Zijing Mountain Park,"113.687708,34.761890",34.761890,113.687708,2.6,Must-Eat Top 10;Outdoor Seating
Zijing Mountain Hotel - Restaurant,Zhengzhou,34.764942,113.691889,100.0,Chinese Restaurant;Chinese Restaurant,07:00,20:00,Zijing Mountain Park,"113.687708,34.761890",34.761890,113.687708,4.0,Online Queue
Mama's Restaurant,Zhengzhou,34.745025,113.680175,100.0,Chinese Restaurant;Chinese Restaurant,11:00,21:00,Zhengzhou Confucian Temple,"113.688345,34.748659",34.748659,113.688345,3.6,Birthday Package
Royal Dining Hall · Medicinal Cuisine Restaurant (Yuxi Building Branch),Zhengzhou,34.747991,113.699877,100.0,Chinese Restaurant;Chinese Restaurant,11:00,21:00,Zhengzhou Confucian Temple,"113.688345,34.748659",34.748659,113.688345,3.4,Must-Eat Top 10;Outdoor Seating
Haiyu Gourmet Seafood Restaurant,Zhengzhou,34.769787,113.726419,39.0,Chinese Restaurant;Seafood Restaurant,17:00,23:00,Qianxi Square (Big Corn),"113.726322,34.769955",34.769955,113.726322,3.8,Private Room;Birthday Package
Zhengzhou Greenland JW Marriott Hotel (Marriott Chinese Restaurant),Zhengzhou,34.770905,113.727350,300.0,Chinese Restaurant;Chinese Restaurant,17:30,22:30,Qianxi Square (Big Corn),"113.726322,34.769955",34.769955,113.726322,4.5,Must-Eat Top 10;Online Queue
Qianxi Cloud Restaurant (Qianxi Plaza Branch),Zhengzhou,34.771075,113.727225,165.0,Chinese Restaurant;Chinese Restaurant,09:00,01:00,Qianxi Square (Big Corn),"113.726322,34.769955",34.769955,113.726322,4.5,Outdoor Seating;Online Queue
Zhengzhou Big Corn G PLUS Sky View Restaurant,Zhengzhou,34.770914,113.727493,228.0,Chinese Restaurant;General Restaurant,16:00,05:00,Qianxi Square (Big Corn),"113.726322,34.769955",34.769955,113.726322,4.2,Outdoor Seating
Zhengzhou Greenland JW Marriott Hotel · Urban Bistro Buffet Restaurant,Zhengzhou,34.771054,113.727309,280.0,Foreign Restaurant;Western Restaurant,17:30,21:30,Qianxi Square (Big Corn),"113.726322,34.769955",34.769955,113.726322,4.3,Private Room;Online Queue
Zui Ba Xian Grilled Fish (Qianxi Plaza Branch),Zhengzhou,34.770902,113.727580,62.0,Food Service Related;Food Service Related,10:00,24:00,Qianxi Square (Big Corn),"113.726322,34.769955",34.769955,113.726322,4.2,Outdoor Seating;Online Queue
Yu Jian Tea Restaurant (New Australia Building Branch),Zhengzhou,34.767928,113.723581,100.0,Chinese Restaurant;Chinese Restaurant,11:00,21:00,Qianxi Square (Big Corn),"113.726322,34.769955",34.769955,113.726322,4.1,Outdoor Seating;Online Queue
Xinhuose (Freshly Cooked Restaurant),Zhengzhou,34.767451,113.723530,100.0,Chinese Restaurant;Chinese Restaurant,10:00,21:00,Qianxi Square (Big Corn),"113.726322,34.769955",34.769955,113.726322,3.9,Outdoor Seating;Private Room
Jinyue Tea Restaurant (Henan Media Building Branch),Zhengzhou,34.767405,113.722783,76.0,Chinese Restaurant;Seafood Restaurant,17:00,02:00,Qianxi Square (Big Corn),"113.726322,34.769955",34.769955,113.726322,4.2,Birthday Package;Online Queue
Two Birds One Stone · Yishi Erniao (Muse Branch),Zhengzhou,34.767030,113.730428,95.0,Food Service Related;Food Service Related,10:00,21:00,Qianxi Square (Big Corn),"113.726322,34.769955",34.769955,113.726322,4.6,Must-Eat Top 10;Online Queue
Lounge Restaurant,Zhengzhou,34.754747,113.783314,100.0,Chinese Restaurant;General Restaurant,10:00,22:00,Zhengzhou East Station,"113.779558,34.759081",34.759081,113.779558,3.7,Outdoor Seating;Birthday Package
Zhengzhou Heson Yiste Hotel · Xindi Restaurant (Greenland Colorful City Branch),Zhengzhou,34.761864,113.772727,125.0,Chinese Restaurant;Chinese Restaurant,06:30,24:00,Zhengzhou East Station,"113.779558,34.759081",34.759081,113.779558,4.1,Outdoor Seating
Lanting Xu Tea Restaurant,Zhengzhou,34.753801,113.774832,100.0,Fast Food Restaurant;Fast Food Restaurant,09:00,22:00,Zhengzhou East Station,"113.779558,34.759081",34.759081,113.779558,4.5,Must-Eat Top 10;Online Queue
Ah Xiang Rice Noodles (Zhengzhou Erqi Shanshan Outlet Restaurant),Zhengzhou,34.526573,113.855171,31.0,Chinese Restaurant;Local Specialty Restaurant,06:00,22:00,Xinzheng International Airport,"113.856808,34.528476",34.528476,113.856808,3.7,Outdoor Seating
Zhengzhou Airport Grand Hotel Chinese Restaurant,Zhengzhou,34.528534,113.843450,70.0,Chinese Restaurant;Chinese Restaurant,10:00,21:00,Xinzheng International Airport,"113.856808,34.528476",34.528476,113.856808,4.1,Must-Eat Top 10;Private Room
Guangdong Restaurant (Erma Road),Zhengzhou,34.749825,113.660012,100.0,Chinese Restaurant;Cantonese Cuisine,11:00,21:00,Zhengzhou Station,"113.658097,34.745795",34.745795,113.658097,3.7,Online Queue
Nutrition and Health Restaurant,Zhengzhou,34.744171,113.652484,100.0,Chinese Restaurant;Chinese Restaurant,11:00,21:00,Zhengzhou Station,"113.658097,34.745795",34.745795,113.658097,3.5,Waiting Area;Online Queue
Ru Thai Restaurant,Zhengzhou,39.156418,117.160338,32.0,Chinese Restaurant;Chinese Restaurant,08:00,20:00,Tianjin West Station,"117.162943,39.158704",39.158704,117.162943,4.1,Waiting Area
Lideshun Xiao Lao Fanzhuang (Fuxing Road Branch),Zhengzhou,39.151281,117.160536,100.0,Chinese Restaurant;Halal Restaurant,16:30,21:00,Tianjin West Station,"117.162943,39.158704",39.158704,117.162943,4.1,Outdoor Seating
Hongchunlai Restaurant (Yintai Apartment Branch),Zhengzhou,39.161463,117.152478,11.0,Chinese Restaurant;Chinese Restaurant,05:30,21:30,Tianjin West Station,"117.162943,39.158704",39.158704,117.162943,3.8,Outdoor Seating;Online Queue
Tongfahao Fanzhuang,Zhengzhou,39.149775,117.161625,77.0,Chinese Restaurant;Chinese Restaurant,16:30,21:00,Tianjin West Station,"117.162943,39.158704",39.158704,117.162943,4.6,Birthday Package
Luckin Coffee (Pengxin Aqua City Branch),Zhengzhou,39.150654,117.168945,18.0,Cafe;Cafe,10:00,22:00,Tianjin West Station,"117.162943,39.158704",39.158704,117.162943,4.7,Private Room;Waiting Area
Extraterrestrial Collection Restaurant (Tianjin Station),Zhengzhou,39.132228,117.207993,100.0,Food Service Related;Food Service Related,11:00,21:00,Tianjin Station,"117.210089,39.135951",39.135951,117.210089,4.3,Online Queue
Youth Restaurant (Jinwan Branch),Zhengzhou,39.132001,117.207130,100.0,Chinese Restaurant;Chinese Restaurant,10:00,23:00,Tianjin Station,"117.210089,39.135951",39.135951,117.210089,4.7,Private Room;Birthday Package
Halal Dongyishun Restaurant,Zhengzhou,39.136953,117.216094,58.0,Chinese Restaurant;Halal Restaurant,16:30,21:30,Tianjin Station,"117.210089,39.135951",39.135951,117.210089,4.5,Waiting Area
Hampton by Hilton Tianjin Station - Hampton Restaurant,Zhengzhou,39.132857,117.204190,50.0,Chinese Restaurant;Chinese Restaurant,07:00,10:00,Tianjin Station,"117.210089,39.135951",39.135951,117.210089,4.4,Birthday Package
Junken Hotel · Xinjiang Specialty Restaurant,Zhengzhou,39.140001,117.214997,74.0,Chinese Restaurant;Chinese Restaurant,17:00,21:30,Tianjin Station,"117.210089,39.135951",39.135951,117.210089,4.4,Waiting Area;Online Queue
Snow Deer All-Day Buffet Restaurant (Yinji Ice and Snow Hotel),Zhengzhou,34.481312,113.553247,131.0,Chinese Restaurant;Chinese Restaurant,17:30,21:30,Xinmi Huangdi Palace Royal Hot Spring Resort Hotel,"113.550337,34.481991",34.481991,113.550337,4.5,Birthday Package
Xuelongxuan Chinese Restaurant (Yinji Ice and Snow Hotel),Zhengzhou,34.480809,113.553406,140.0,Chinese Restaurant;Chinese Restaurant,17:30,21:00,Xinmi Huangdi Palace Royal Hot Spring Resort Hotel,"113.550337,34.481991",34.481991,113.550337,4.2,Must-Eat Top 10
Harbor Restaurant,Zhengzhou,34.484514,113.547905,34.0,Food Service Related;Food Service Related,10:00,18:00,Xinmi Huangdi Palace Royal Hot Spring Resort Hotel,"113.550337,34.481991",34.481991,113.550337,4.3,Waiting Area
Bengbeng Music Restaurant,Zhengzhou,34.369146,113.919410,100.0,Chinese Restaurant;Chinese Restaurant,09:00,21:00,Yunman Hotel (Zhengzhou Airport Zone BYD Factory Branch),"113.919851,34.368782",34.368782,113.919851,3.6,Birthday Package
New Yijia (Zhengzhou Aviation Port Area) Themed Dining Restaurant (Individual Business),Zhengzhou,34.365406,113.918814,100.0,Chinese Restaurant;Chinese Restaurant,08:00,22:00,Yunman Hotel (Zhengzhou Airport Zone BYD Factory Branch),"113.919851,34.368782",34.368782,113.919851,3.8,Outdoor Seating;Private Room
Chef's Mansion Restaurant - Gourmet Recommendation Store,Zhengzhou,34.774810,113.897450,38.0,Chinese Restaurant;Chinese Restaurant,17:30,21:30,Kaili Hotel (Fantawild Branch),"113.898716,34.776107",34.776107,113.898716,4.3,Waiting Area
Hetang Yueshe Restaurant,Zhengzhou,34.783838,113.897397,100.0,Chinese Restaurant;Chinese Restaurant,06:00,22:00,Kaili Hotel (Fantawild Branch),"113.898716,34.776107",34.776107,113.898716,3.5,Private Room
Sandwich Health Restaurant,Zhengzhou,34.786132,113.895445,100.0,Chinese Restaurant;Chinese Restaurant,08:00,21:00,Kaili Hotel (Fantawild Branch),"113.898716,34.776107",34.776107,113.898716,3.5,Online Queue
Firebird BBQ American Restaurant,Zhengzhou,34.798238,113.300273,70.0,Foreign Restaurant;Foreign Restaurant,11:00,23:00,Zhengzhou Shangjie Aloft Hotel,"113.310118,34.801647",34.801647,113.310118,3.9,Must-Eat Top 10;Online Queue
Axiao Seafood Restaurant,Zhengzhou,34.812692,113.311948,100.0,Chinese Restaurant;Seafood Restaurant,17:30,22:30,Zhengzhou Shangjie Aloft Hotel,"113.310118,34.801647",34.801647,113.310118,4.3,Must-Eat Top 10;Birthday Package
Mixiangke Western Restaurant,Zhengzhou,34.802785,113.295809,100.0,Foreign Restaurant;Western Restaurant,08:00,22:00,Zhengzhou Shangjie Aloft Hotel,"113.310118,34.801647",34.801647,113.310118,3.9,Birthday Package;Online Queue
Guangweixuan Tea Restaurant,Zhengzhou,34.755575,113.709175,100.0,Fast Food Restaurant;Fast Food Restaurant,11:00,21:00,Home Inn - Zhengzhou Future Road Zhongyuan International Expo Center Branch,"113.707762,34.751806",34.751806,113.707762,2.7,Outdoor Seating;Birthday Package
Defacai Chaoshan Claypot Porridge Restaurant (Manhattan Branch),Zhengzhou,34.755881,113.709081,37.0,Chinese Restaurant;Chinese Restaurant,07:00,23:45,Home Inn - Zhengzhou Future Road Zhongyuan International Expo Center Branch,"113.707762,34.751806",34.751806,113.707762,4.4,Outdoor Seating
Wanshengyuan Buffet Restaurant,Zhengzhou,34.751179,113.702047,100.0,Chinese Restaurant;Chinese Restaurant,11:00,21:00,Home Inn - Zhengzhou Future Road Zhongyuan International Expo Center Branch,"113.707762,34.751806",34.751806,113.707762,2.4,Must-Eat Top 10
Pinyi Era Fusion Restaurant (Lvdu Plaza Branch),Zhengzhou,34.747855,113.703342,100.0,Chinese Restaurant;Chinese Restaurant,11:00,21:00,Home Inn - Zhengzhou Future Road Zhongyuan International Expo Center Branch,"113.707762,34.751806",34.751806,113.707762,4.0,Private Room
Shang Restaurant (Fengtai Road Branch),Zhengzhou,34.750079,113.714568,69.0,Chinese Restaurant;Chinese Restaurant,11:30,22:00,Home Inn - Zhengzhou Future Road Zhongyuan International Expo Center Branch,"113.707762,34.751806",34.751806,113.707762,4.4,Outdoor Seating;Online Queue
You Jin Sheng Jewelry Tea Restaurant (Weiye Xianghu Garden Branch),Zhengzhou,34.769988,113.864010,100.0,Fast Food Restaurant;Fast Food Restaurant,11:00,21:00,Home Inn Business - Zhengzhou Xianghu University Town Fantawild Lvbo Park Branch,"113.863671,34.772125",34.772125,113.863671,3.7,Birthday Package
Xinwaku Tea Restaurant (Weiye Xianghu Garden Branch),Zhengzhou,34.769990,113.864126,100.0,Fast Food Restaurant;Tea Restaurant,11:00,21:00,Home Inn Business - Zhengzhou Xianghu University Town Fantawild Lvbo Park Branch,"113.863671,34.772125",34.772125,113.863671,3.5,Must-Eat Top 10;Outdoor Seating
Starry Sky Restaurant,Zhengzhou,34.776286,113.866757,100.0,Chinese Restaurant;Chinese Restaurant,11:00,21:00,Home Inn Business - Zhengzhou Xianghu University Town Fantawild Lvbo Park Branch,"113.863671,34.772125",34.772125,113.863671,3.9,Must-Eat Top 10
Shi Sui Hot Pot Restaurant (Future Road Branch),Zhengzhou,34.771161,113.707663,100.0,Chinese Restaurant;Hot Pot,09:30,24:00,Ji Hotel Zhengzhou Convention and Exhibition Center Future Road,"113.707000,34.772300",34.772300,113.707000,4.6,Waiting Area
Meilun Chinese Restaurant (Future Road Branch),Zhengzhou,34.773957,113.708770,43.0,Food Service Related;Food Service Related,11:00,21:00,Ji Hotel Zhengzhou Convention and Exhibition Center Future Road,"113.707000,34.772300",34.772300,113.707000,4.0,Must-Eat Top 10
Futures Restaurant (Future Building Branch),Zhengzhou,34.769968,113.708708,100.0,Chinese Restaurant;Chinese Restaurant,17:30,21:30,Ji Hotel Zhengzhou Convention and Exhibition Center Future Road,"113.707000,34.772300",34.772300,113.707000,4.3,Outdoor Seating;Online Queue
Future Grand Hotel · Golden Future Restaurant,Zhengzhou,34.769025,113.707177,162.0,Chinese Restaurant;Chinese Restaurant,18:00,21:00,Ji Hotel Zhengzhou Convention and Exhibition Center Future Road,"113.707000,34.772300",34.772300,113.707000,4.2,Online Queue
Yuanfuyuan Canteen (Jincheng Times Plaza Branch),Zhengzhou,34.776707,113.706486,24.0,Chinese Restaurant;Chinese Restaurant,11:00,21:00,Ji Hotel Zhengzhou Convention and Exhibition Center Future Road,"113.707000,34.772300",34.772300,113.707000,4.1,Birthday Package
Yanyu Le Fresh Grilled Fish Shop,Zhengzhou,34.761705,113.612585,100.0,Chinese Restaurant;Chinese Restaurant,11:00,21:00,Dukang Grand Hotel (Zhongyuan Wanda May Day Park Metro Station Branch),"113.612902,34.758384",34.758384,113.612902,4.0,Birthday Package
Haoke Steak (Zhengzhou Jinyi Huadu Restaurant),Zhengzhou,34.762755,113.611070,76.0,Foreign Restaurant;Western Restaurant,10:00,22:00,Dukang Grand Hotel (Zhongyuan Wanda May Day Park Metro Station Branch),"113.612902,34.758384",34.758384,113.612902,4.5,Must-Eat Top 10;Outdoor Seating
Lao Gang Wei Hong Kong-Style Restaurant (Jinyi International Huadu · Meiyu Branch),Zhengzhou,34.763075,113.608554,43.0,Chinese Restaurant;Cantonese Cuisine,10:30,22:00,Dukang Grand Hotel (Zhongyuan Wanda May Day Park Metro Station Branch),"113.612902,34.758384",34.758384,113.612902,4.4,Birthday Package
Factory Four Internet-famous Grilled Buns,Zhengzhou,34.755958,113.621102,11.0,Chinese Restaurant;Halal Restaurant,10:00,22:00,Dukang Grand Hotel (Zhongyuan Wanda May Day Park Metro Station Branch),"113.612902,34.758384",34.758384,113.612902,4.6,Waiting Area;Online Queue
North Point Xiuwai Hong Kong-Style Tea Restaurant (Jinyi City Zone C Branch),Zhengzhou,34.763426,113.606488,62.0,Fast Food Restaurant;Tea Restaurant,10:00,22:00,Dukang Grand Hotel (Zhongyuan Wanda May Day Park Metro Station Branch),"113.612902,34.758384",34.758384,113.612902,4.3,Online Queue
713 Institute Staff Restaurant,Zhengzhou,34.720756,113.654589,100.0,Food Service Related;Food Service Related,11:00,21:00,Jinjiang Inn (Zhengzhou Erqi Wanda Jingguang South Road Metro Station Branch),"113.653960,34.720634",34.720634,113.653960,4.2,Outdoor Seating;Private Room
Xu Jia Spicy Chicken and Beef Noodle Restaurant (Clothing Center Residential Compound Branch),Zhengzhou,34.723499,113.657702,100.0,Chinese Restaurant;Chinese Restaurant,06:30,22:00,Jinjiang Inn (Zhengzhou Erqi Wanda Jingguang South Road Metro Station Branch),"113.653960,34.720634",34.720634,113.653960,4.5,Waiting Area
Zhou's Specialty Lamb Offal Soup (Jingguang Expressway Branch),Zhengzhou,34.725565,113.656808,15.0,Chinese Restaurant;Chinese Restaurant,05:30,22:00,Jinjiang Inn (Zhengzhou Erqi Wanda Jingguang South Road Metro Station Branch),"113.653960,34.720634",34.720634,113.653960,4.5,Birthday Package
Zhengzhou Concept Restaurant,Zhengzhou,34.763862,113.693297,100.0,Chinese Restaurant;Chinese Restaurant,11:00,21:00,Ji Hotel Zhengzhou Jinshui Road,"113.693000,34.763800",34.763800,113.693000,3.7,Private Room
Tongshantang Experience Restaurant,Zhengzhou,34.764509,113.745962,100.0,Chinese Restaurant;Chinese Restaurant,08:00,21:00,Chenxi Hotel (Zhengzhou Convention and Exhibition Center Branch),"113.745222,34.764990",34.764990,113.745222,3.8,Birthday Package
Qingyuan Tea Restaurant,Zhengzhou,34.765092,113.744012,100.0,Fast Food Restaurant;Tea Restaurant,11:00,21:00,Chenxi Hotel (Zhengzhou Convention and Exhibition Center Branch),"113.745222,34.764990",34.764990,113.745222,3.7,Outdoor Seating
Chujing Restaurant (Provincial Government Branch),Zhengzhou,34.767275,113.746025,138.0,Chinese Restaurant;Chinese Restaurant,17:00,21:30,Chenxi Hotel (Zhengzhou Convention and Exhibition Center Branch),"113.745222,34.764990",34.764990,113.745222,4.7,Outdoor Seating;Waiting Area
Huimin Restaurant (Guanhutun Life Plaza Branch),Zhengzhou,34.782608,113.677926,100.0,Chinese Restaurant;Chinese Restaurant,11:00,21:00,Zhengzhou Provincial Museum Huayuan Road Atour Hotel,"113.677554,34.784188",34.784188,113.677554,2.0,Outdoor Seating
Manyu Bistro (Guomao Branch),Zhengzhou,34.784425,113.679525,80.0,Chinese Restaurant;Chinese Restaurant,10:00,22:00,Zhengzhou Provincial Museum Huayuan Road Atour Hotel,"113.677554,34.784188",34.784188,113.677554,4.5,Must-Eat Top 10
Mao Zhang Zhang Oil-Braised Skewers (Guomao 360 Branch),Zhengzhou,34.783597,113.675687,100.0,Food Service Related;Food Service Related,11:00,23:00,Zhengzhou Provincial Museum Huayuan Road Atour Hotel,"113.677554,34.784188",34.784188,113.677554,4.7,Online Queue
Jitu Yayen,Zhengzhou,34.701940,113.851107,50.0,Fast Food Restaurant;Tea Restaurant,17:00,21:00,Yilong Ruiyun Hotel (Zhengzhou South Third Ring Investment Control Smart Logistics Industrial Park Branch),"113.851048,34.702123",34.702123,113.851048,4.5,Outdoor Seating;Private Room
Good Days Restaurant,Zhengzhou,34.712158,113.844010,100.0,Chinese Restaurant;Chinese Restaurant,11:00,21:00,Yilong Ruiyun Hotel (Zhengzhou South Third Ring Investment Control Smart Logistics Industrial Park Branch),"113.851048,34.702123",34.702123,113.851048,3.5,Private Room;Birthday Package
Heyuan Restaurant,Zhengzhou,34.693283,113.860558,100.0,Chinese Restaurant;Chinese Restaurant,11:00,21:00,Yilong Ruiyun Hotel (Zhengzhou South Third Ring Investment Control Smart Logistics Industrial Park Branch),"113.851048,34.702123",34.702123,113.851048,3.9,Birthday Package;Online Queue
Yiyuan Restaurant,Zhengzhou,34.694581,113.866988,100.0,Chinese Restaurant;Chinese Restaurant,11:00,21:00,Yilong Ruiyun Hotel (Zhengzhou South Third Ring Investment Control Smart Logistics Industrial Park Branch),"113.851048,34.702123",34.702123,113.851048,3.9,Outdoor Seating;Online Queue
Jiayuan Restaurant,Zhengzhou,34.690245,113.867122,100.0,Chinese Restaurant;Chinese Restaurant,11:00,21:00,Yilong Ruiyun Hotel (Zhengzhou South Third Ring Investment Control Smart Logistics Industrial Park Branch),"113.851048,34.702123",34.702123,113.851048,3.9,Outdoor Seating;Online Queue
Lakeview Restaurant,Zhengzhou,34.812680,113.480604,118.0,Food Service Related;Food Service Related,17:00,21:30,Zhengzhou High-Tech Holiday Inn,"113.484180,34.819372",34.819372,113.484180,4.1,Outdoor Seating;Birthday Package
KFC Drive-Thru Restaurant (Kexue Avenue PetroChina DT),Zhengzhou,34.807940,113.489790,100.0,Food Service Related;Food Service Related,11:00,21:00,Zhengzhou High-Tech Holiday Inn,"113.484180,34.819372",34.819372,113.484180,3.6,Private Room
Little Pig · Lulu Children's Supplementary Food Restaurant,Zhengzhou,34.816074,113.501214,14.0,Food Service Related;Food Service Related,09:00,20:30,Zhengzhou High-Tech Holiday Inn,"113.484180,34.819372",34.819372,113.484180,4.1,Private Room;Waiting Area
Shike Baihui Chinese Fast Food Restaurant,Zhengzhou,34.802844,113.492636,100.0,Fast Food Restaurant;Fast Food Restaurant,11:00,21:00,Zhengzhou High-Tech Holiday Inn,"113.484180,34.819372",34.819372,113.484180,4.3,Birthday Package;Online Queue
Yuanwei Restaurant,Zhengzhou,34.789442,113.801597,100.0,Chinese Restaurant;Chinese Restaurant,11:00,21:00,Ji Hotel Zhengzhou Longzi Lake University Area,"113.800906,34.790156",34.790156,113.800906,3.8,Must-Eat Top 10;Waiting Area
Longzi Lake Qianna Yuanxi Hotel - Donghe Chinese Restaurant,Zhengzhou,34.789033,113.801807,114.0,Chinese Restaurant;Chinese Restaurant,17:30,21:00,Ji Hotel Zhengzhou Longzi Lake University Area,"113.800906,34.790156",34.790156,113.800906,4.6,Waiting Area;Online Queue
Xingshan Omakase Japanese Cuisine,Zhengzhou,34.788855,113.801999,301.0,Foreign Restaurant;Japanese Cuisine,17:30,22:00,Ji Hotel Zhengzhou Longzi Lake University Area,"113.800906,34.790156",34.790156,113.800906,4.4,Waiting Area
Henan University of Animal Husbandry and Economy Beilin Road Campus Second Student Cafeteria,Zhengzhou,34.805001,113.686201,100.0,Chinese Restaurant;Chinese Restaurant,06:00,22:00,Zhengzhou Hanfeng Business Hotel,"113.682103,34.802514",34.802514,113.682103,3.9,Must-Eat Top 10;Outdoor Seating
Qian Mei'er Yu Guizhou Sour Soup Bean Hot Pot,Zhengzhou,34.800082,113.675372,60.0,Chinese Restaurant;Hot Pot,17:00,23:00,Zhengzhou Hanfeng Business Hotel,"113.682103,34.802514",34.802514,113.682103,4.4,Must-Eat Top 10
Zhengzhou Public Security Bureau Traffic Management Bureau Traffic Police Twelfth Detachment Restaurant,Zhengzhou,34.715080,113.765103,100.0,Chinese Restaurant;Chinese Restaurant,11:00,21:00,Hanting Zhengzhou East Station Bada Street Hotel,"113.767825,34.712978",34.712978,113.767825,3.3,Outdoor Seating;Waiting Area
Shishang Restaurant (Beef Rice),Zhengzhou,34.718823,113.770208,15.0,Chinese Restaurant;General Restaurant,11:00,21:00,Hanting Zhengzhou East Station Bada Street Hotel,"113.767825,34.712978",34.712978,113.767825,4.2,Must-Eat Top 10;Birthday Package
South Windmill Geer International Hotel Chinese Restaurant,Zhengzhou,34.719198,113.764169,100.0,Chinese Restaurant;Chinese Restaurant,17:30,09:30,Hanting Zhengzhou East Station Bada Street Hotel,"113.767825,34.712978",34.712978,113.767825,4.1,Private Room
Chef's Mansion Restaurant - Gourmet Recommendation Store,Zhengzhou,34.774810,113.897450,38.0,Chinese Restaurant;Chinese Restaurant,17:30,21:30,Ji Hotel (Zhengzhou Zhongmou Lvbo Avenue Fantawild Tourism Resort Branch),"113.890748,34.760072",34.760072,113.890748,4.3,Must-Eat Top 10;Birthday Package
Qiandu Music Restaurant,Zhengzhou,34.741199,113.878040,100.0,Chinese Restaurant;Chinese Restaurant,13:00,03:00,Ji Hotel (Zhengzhou Zhongmou Lvbo Avenue Fantawild Tourism Resort Branch),"113.890748,34.760072",34.760072,113.890748,4.5,Outdoor Seating;Private Room
Xinwaku Tea Restaurant (Weiye Xianghu Garden Branch),Zhengzhou,34.769990,113.864126,100.0,Fast Food Restaurant;Tea Restaurant,11:00,21:00,Ji Hotel (Zhengzhou Zhongmou Lvbo Avenue Fantawild Tourism Resort Branch),"113.890748,34.760072",34.760072,113.890748,3.5,Private Room;Birthday Package
You Jin Sheng Jewelry Tea Restaurant (Weiye Xianghu Garden Branch),Zhengzhou,34.769988,113.864010,100.0,Fast Food Restaurant;Fast Food Restaurant,11:00,21:00,Ji Hotel (Zhengzhou Zhongmou Lvbo Avenue Fantawild Tourism Resort Branch),"113.890748,34.760072",34.760072,113.890748,3.7,Waiting Area;Online Queue
Han Feng Yuan BBQ and Hot Pot Buffet Restaurant (Baisha Branch),Zhengzhou,34.736560,113.897986,59.0,购物相关场所;购物相关场所,11:00,21:00,Ji Hotel (Zhengzhou Zhongmou Lvbo Avenue Fantawild Tourism Resort Branch),"113.890748,34.760072",34.760072,113.890748,4.3,Private Room;Birthday Package
Guangyi Xinyang Maojian Tea Restaurant (Yuhang Branch),Zhengzhou,34.771881,113.755782,100.0,Specialty Store;Exclusive Store,11:00,21:00,Orange Hotel Zhengzhou Provincial Government MixC Mall,"113.755528,34.771074",34.771074,113.755528,3.7,Outdoor Seating
Yulongxuan Tea Restaurant (Yuhang Center Branch),Zhengzhou,34.771871,113.755230,100.0,Chinese Restaurant;Chinese Restaurant,09:00,22:30,Orange Hotel Zhengzhou Provincial Government MixC Mall,"113.755528,34.771074",34.771074,113.755528,3.6,Private Room;Waiting Area
Xinshi Lin Holiday Inn - Elemental Restaurant,Zhengzhou,34.771175,113.757935,73.0,Chinese Restaurant;Chinese Restaurant,11:00,21:00,Orange Hotel Zhengzhou Provincial Government MixC Mall,"113.755528,34.771074",34.771074,113.755528,4.2,Must-Eat Top 10
Tianmingfang Five-Flavored Medicinal Cuisine Restaurant,Zhengzhou,34.772309,113.759111,279.0,Chinese Restaurant;Chinese Restaurant,17:30,21:00,Orange Hotel Zhengzhou Provincial Government MixC Mall,"113.755528,34.771074",34.771074,113.755528,4.3,Outdoor Seating
Dingsheng Fashion Restaurant (Oriental · Dingsheng Center Branch),Zhengzhou,34.773840,113.759296,15.0,Chinese Restaurant;Chinese Restaurant,07:30,21:00,Orange Hotel Zhengzhou Provincial Government MixC Mall,"113.755528,34.771074",34.771074,113.755528,3.9,Birthday Package
Western Restaurant,Zhengzhou,34.768817,113.933939,100.0,Chinese Restaurant;Chinese Restaurant,11:00,21:00,Zhengzhou Zhongmou Zhipu Hotel (Only Henan Movie Town Branch),"113.955310,34.786329",34.786329,113.955310,3.8,Private Room;Waiting Area
Ultraman Theme Restaurant Monster Store,Zhengzhou,34.789259,113.986234,63.0,Chinese Restaurant;Chinese Restaurant,11:00,18:00,Zhengzhou Zhongmou Zhipu Hotel (Only Henan Movie Town Branch),"113.955310,34.786329",34.786329,113.955310,3.9,Online Queue
Ultraman Theme Restaurant - Hero Branch,Zhengzhou,34.786826,113.988821,86.0,Chinese Restaurant;Chinese Restaurant,11:00,21:00,Zhengzhou Zhongmou Zhipu Hotel (Only Henan Movie Town Branch),"113.955310,34.786329",34.786329,113.955310,4.0,Waiting Area;Online Queue
Zhongmu Yang's Braised Chicken Small Restaurant,Zhengzhou,34.756800,113.944461,100.0,Chinese Restaurant;Chinese Restaurant,08:00,23:15,Zhengzhou Zhongmou Zhipu Hotel (Only Henan Movie Town Branch),"113.955310,34.786329",34.786329,113.955310,3.7,Outdoor Seating;Online Queue
Brothers Gourmet Small Restaurant,Zhengzhou,34.805008,113.919082,100.0,Chinese Restaurant;Chinese Restaurant,08:00,23:00,Zhengzhou Zhongmou Zhipu Hotel (Only Henan Movie Town Branch),"113.955310,34.786329",34.786329,113.955310,3.6,Online Queue
Yanqiu Golf Restaurant,Zhengzhou,34.923788,113.514385,100.0,Chinese Restaurant;Chinese Restaurant,09:00,20:30,Zhengzhou Yellow River Cultural Park,"113.512589,34.953667",34.953667,113.512589,4.1,Private Room
Sinen Golf Green Farmhouse Restaurant,Zhengzhou,34.919063,113.515391,100.0,Chinese Restaurant;Chinese Restaurant,17:30,20:30,Zhengzhou Yellow River Cultural Park,"113.512589,34.953667",34.953667,113.512589,4.3,Waiting Area
Sinian Golf Lakeside Flower House Restaurant,Zhengzhou,34.914813,113.516550,85.0,Food Service Related;Food Service Related,10:00,22:00,Zhengzhou Yellow River Cultural Park,"113.512589,34.953667",34.953667,113.512589,4.5,Outdoor Seating
Second Owner's Restaurant,Zhengzhou,34.912985,113.515865,100.0,Chinese Restaurant;Chinese Restaurant,08:00,20:30,Zhengzhou Yellow River Cultural Park,"113.512589,34.953667",34.953667,113.512589,3.8,Must-Eat Top 10;Waiting Area
Zhengzhou Business College Restaurant,Zhengzhou,34.918067,113.537293,100.0,Chinese Restaurant;Chinese Restaurant,06:00,22:00,Zhengzhou Yellow River Cultural Park,"113.512589,34.953667",34.953667,113.512589,3.9,Outdoor Seating
Dao Ben Dao Unmanned Restaurant (Shenglong City Branch),Zhengzhou,34.721237,113.632227,100.0,Chinese Restaurant;Chinese Restaurant,09:30,21:00,Zhengzhou Museum (Songshan Road Branch),"113.632600,34.723400",34.723400,113.632600,3.5,Must-Eat Top 10
Music Restaurant & Bar,Zhengzhou,34.725040,113.629748,100.0,Chinese Restaurant;Chinese Restaurant,11:00,21:00,Zhengzhou Museum (Songshan Road Branch),"113.632600,34.723400",34.723400,113.632600,3.5,Private Room
Little Lotus Restaurant,Zhengzhou,34.721666,113.636146,100.0,Chinese Restaurant;Chinese Restaurant,08:00,22:00,Zhengzhou Museum (Songshan Road Branch),"113.632600,34.723400",34.723400,113.632600,3.9,Outdoor Seating
Zanbala Flower Market Second Floor Restaurant,Zhengzhou,34.726575,113.626975,100.0,Chinese Restaurant;Chinese Restaurant,11:00,21:00,Zhengzhou Museum (Songshan Road Branch),"113.632600,34.723400",34.723400,113.632600,3.6,Waiting Area
Kunlun Leju Business Hotel Chinese Restaurant (Huaihe Road Branch),Zhengzhou,34.729111,113.631083,155.0,Food Service Related;Food Service Related,11:00,21:00,Zhengzhou Museum (Songshan Road Branch),"113.632600,34.723400",34.723400,113.632600,4.1,Waiting Area
Mipiji Halal Restaurant (Huainan Street),Zhengzhou,34.728594,113.636312,11.0,Chinese Restaurant;Halal Restaurant,10:00,22:00,Zhengzhou Museum (Songshan Road Branch),"113.632600,34.723400",34.723400,113.632600,4.3,Private Room;Birthday Package
Zhengzhou Second People's Hospital Main Campus Nutrition Restaurant (Lianxinli Branch),Zhengzhou,34.721965,113.639981,100.0,Chinese Restaurant;Chinese Restaurant,11:00,21:00,Zhengzhou Museum (Songshan Road Branch),"113.632600,34.723400",34.723400,113.632600,3.9,Private Room;Birthday Package
Zhuang Bar Music Restaurant,Zhengzhou,34.726061,113.640451,100.0,Entertainment Venue;Bar,11:00,21:00,Zhengzhou Museum (Songshan Road Branch),"113.632600,34.723400",34.723400,113.632600,3.9,Waiting Area
Painting Music Bar & Restaurant,Zhengzhou,34.717961,113.626270,29.0,Chinese Restaurant;Chinese Restaurant,16:00,02:00,Zhengzhou Museum (Songshan Road Branch),"113.632600,34.723400",34.723400,113.632600,4.8,Online Queue
Suyi Xiang Vegetarian Buffet Restaurant,Zhengzhou,34.725310,113.641557,24.0,Food Service Related;Food Service Related,17:30,19:30,Zhengzhou Museum (Songshan Road Branch),"113.632600,34.723400",34.723400,113.632600,4.4,Private Room
Han Feng Yuan BBQ and Hotpot Buffet Restaurant (Asia Joy City Branch),Zhengzhou,34.751785,113.667704,80.0,Chinese Restaurant;Chinese Restaurant,11:00,23:30,Erqi Square,"113.666451,34.751860",34.751860,113.666451,4.7,Outdoor Seating
Yuehai Hotel Xuan Palace Western Restaurant (Erqi Square),Zhengzhou,34.749629,113.667658,111.0,Foreign Restaurant;Western Restaurant,10:00,23:00,Erqi Square,"113.666451,34.751860",34.751860,113.666451,3.9,Must-Eat Top 10
Yuehai Hotel - Yuehai Xuan Chinese Restaurant,Zhengzhou,34.749142,113.667796,100.0,Chinese Restaurant;Chinese Restaurant,11:00,21:00,Erqi Square,"113.666451,34.751860",34.751860,113.666451,3.9,Waiting Area;Online Queue
Huya Fried Chicken (Henan Zhengzhou Erqi MixC Branch),Zhengzhou,34.754815,113.662798,55.0,Chinese Restaurant;Chinese Restaurant,10:00,22:00,Erqi Square,"113.666451,34.751860",34.751860,113.666451,4.6,Outdoor Seating
Jixu Folk Ballad BBQ House (Zhengzhou Guangcai Branch),Zhengzhou,34.755287,113.669676,72.0,Chinese Restaurant;Chinese Restaurant,18:00,02:30,Erqi Square,"113.666451,34.751860",34.751860,113.666451,4.6,Must-Eat Top 10;Outdoor Seating
Green Tea Restaurant (Zhengzhou MixC Branch),Zhengzhou,34.754667,113.662403,100.0,Chinese Restaurant;Chinese Restaurant,11:00,21:00,Erqi Square,"113.666451,34.751860",34.751860,113.666451,4.6,Private Room
Datong Hotel Restaurant,Zhengzhou,34.747498,113.663838,31.0,Chinese Restaurant;Chinese Restaurant,17:00,21:00,Erqi Square,"113.666451,34.751860",34.751860,113.666451,3.8,Waiting Area;Birthday Package
Dingyuan Buffet Restaurant,Zhengzhou,34.786308,113.672932,100.0,Chinese Restaurant;Chinese Restaurant,11:00,21:00,Henan Museum,"113.672097,34.788263",34.788263,113.672097,2.5,Must-Eat Top 10;Private Room
Enjoy House Tea Restaurant (Century Star Building Branch),Zhengzhou,34.786292,113.671079,100.0,Fast Food Restaurant;Tea Restaurant,17:00,21:30,Henan Museum,"113.672097,34.788263",34.788263,113.672097,3.8,Must-Eat Top 10;Online Queue
Century Star Garden Restaurant,Zhengzhou,34.786256,113.671176,100.0,Chinese Restaurant;Chinese Restaurant,11:00,21:00,Henan Museum,"113.672097,34.788263",34.788263,113.672097,4.1,Outdoor Seating
Gourmet Restaurant (Zhengzhou Times International Plaza Building 70 Branch),Zhengzhou,34.786608,113.670287,100.0,Chinese Restaurant;Chinese Restaurant,11:00,21:00,Henan Museum,"113.672097,34.788263",34.788263,113.672097,3.5,Must-Eat Top 10;Private Room
Agricultural University Home Faculty Restaurant (52 Wenhua Road Branch),Zhengzhou,34.785268,113.668041,100.0,Chinese Restaurant;Chinese Restaurant,06:00,22:00,Henan Museum,"113.672097,34.788263",34.788263,113.672097,3.9,Birthday Package
Agricultural University Home Faculty and Staff Restaurant,Zhengzhou,34.784879,113.666814,100.0,Chinese Restaurant;Chinese Restaurant,08:00,22:00,Henan Museum,"113.672097,34.788263",34.788263,113.672097,4.0,Must-Eat Top 10;Outdoor Seating
Mao Zhang Zhang Oil-Braised Skewers (Guomao 360 Branch),Zhengzhou,34.783597,113.675687,100.0,Food Service Related;Food Service Related,11:00,23:00,Henan Museum,"113.672097,34.788263",34.788263,113.672097,4.7,Online Queue
Red Salt New-Style Indian-Pakistani Restaurant,Zhengzhou,34.793421,113.677088,69.0,Chinese Restaurant;Chinese Restaurant,11:00,21:00,Henan Museum,"113.672097,34.788263",34.788263,113.672097,4.5,Must-Eat Top 10
Wentong Ice Room (Guomao 360 Branch),Zhengzhou,34.784943,113.679565,39.0,Cold Beverage Shop;Cold Beverage Shop,10:30,22:00,Henan Museum,"113.672097,34.788263",34.788263,113.672097,4.7,Outdoor Seating;Birthday Package
Wanda Vista Hotel Pinzhen Chinese Restaurant,Zhengzhou,34.792621,113.678848,246.0,Food Service Related;Food Service Related,17:30,21:30,Henan Museum,"113.672097,34.788263",34.788263,113.672097,4.4,Birthday Package
Luoshan Fisherman's Delight Restaurant,Zhengzhou,34.903556,113.670261,63.0,Chinese Restaurant;Chinese Restaurant,10:00,23:00,Yellow River Huayuankou Tourist Area,"113.676636,34.903629",34.903629,113.676636,4.3,Must-Eat Top 10;Birthday Package
Wangwang Small Restaurant,Zhengzhou,34.901524,113.668069,100.0,Chinese Restaurant;Chinese Restaurant,11:00,21:00,Yellow River Huayuankou Tourist Area,"113.676636,34.903629",34.903629,113.676636,2.4,Online Queue
Qianxi Cloud Restaurant (Qianxi Plaza Branch),Zhengzhou,34.771075,113.727225,165.0,Chinese Restaurant;Chinese Restaurant,09:00,01:00,Ruyi Lake Scenic Area,"113.724204,34.772895",34.772895,113.724204,4.5,Outdoor Seating;Private Room
Zhengzhou Greenland JW Marriott Hotel · Urban Bistro Buffet Restaurant,Zhengzhou,34.771054,113.727309,280.0,Foreign Restaurant;Western Restaurant,17:30,21:30,Ruyi Lake Scenic Area,"113.724204,34.772895",34.772895,113.724204,4.3,Private Room
Zhengzhou Greenland JW Marriott Hotel (Marriott Chinese Restaurant),Zhengzhou,34.770905,113.727350,300.0,Chinese Restaurant;Chinese Restaurant,17:30,22:30,Ruyi Lake Scenic Area,"113.724204,34.772895",34.772895,113.724204,4.5,Private Room
Zhengzhou Big Corn G PLUS Sky View Restaurant,Zhengzhou,34.770914,113.727493,228.0,Chinese Restaurant;General Restaurant,16:00,05:00,Ruyi Lake Scenic Area,"113.724204,34.772895",34.772895,113.724204,4.2,Private Room
Zui Ba Xian Grilled Fish (Qianxi Plaza Branch),Zhengzhou,34.770902,113.727580,62.0,Food Service Related;Food Service Related,10:00,24:00,Ruyi Lake Scenic Area,"113.724204,34.772895",34.772895,113.724204,4.2,Waiting Area
Haiyu Gourmet Seafood Restaurant,Zhengzhou,34.769787,113.726419,39.0,Chinese Restaurant;Seafood Restaurant,17:00,23:00,Ruyi Lake Scenic Area,"113.724204,34.772895",34.772895,113.724204,3.8,Must-Eat Top 10
No. 5 Restaurant (Henan International Chamber of Commerce Building Branch),Zhengzhou,34.770632,113.719294,18.0,Chinese Restaurant;Chinese Restaurant,11:00,21:00,Ruyi Lake Scenic Area,"113.724204,34.772895",34.772895,113.724204,4.2,Waiting Area
Yu Jian Tea Restaurant (New Australia Building Branch),Zhengzhou,34.767928,113.723581,100.0,Chinese Restaurant;Chinese Restaurant,11:00,21:00,Ruyi Lake Scenic Area,"113.724204,34.772895",34.772895,113.724204,4.1,Online Queue
Huayu Sichuan Restaurant (Dennis Seven Days Mall Branch),Zhengzhou,34.777780,113.722674,100.0,Chinese Restaurant;Chinese Restaurant,11:00,21:00,Ruyi Lake Scenic Area,"113.724204,34.772895",34.772895,113.724204,4.7,Must-Eat Top 10;Online Queue
Dexian Zhijian · Teahouse · Eco Xinyang Cuisine (CBD Branch),Zhengzhou,34.774628,113.718260,88.0,生活服务;生活服务场所;生活服务场所,11:00,21:00,Ruyi Lake Scenic Area,"113.724204,34.772895",34.772895,113.724204,4.6,Private Room;Birthday Package
Twin Seasons Dessert Fusion Restaurant (Yaoqiao Community North Courtyard Branch),Zhengzhou,34.813115,113.795071,27.0,甜品店;甜品店,11:00,22:00,Beilong Lake Wetland Park,"113.789100,34.812300",34.812300,113.789100,4.4,Outdoor Seating
Xuan Ge Music Restaurant & Bar,Zhengzhou,34.809266,113.793947,100.0,Chinese Restaurant;Chinese Restaurant,11:00,21:00,Beilong Lake Wetland Park,"113.789100,34.812300",34.812300,113.789100,3.9,Online Queue
Shijianli Fusion Restaurant,Zhengzhou,34.818459,113.794111,100.0,Food Service Related;Food Service Related,11:00,21:00,Beilong Lake Wetland Park,"113.789100,34.812300",34.812300,113.789100,3.8,Birthday Package;Online Queue
Lakeside Restaurant,Zhengzhou,34.803494,113.786967,100.0,Chinese Restaurant;Chinese Restaurant,11:00,21:00,Beilong Lake Wetland Park,"113.789100,34.812300",34.812300,113.789100,3.5,Waiting Area;Birthday Package
Coarse Grain Kitchen Lamb Skewers & Stir-fried Chicken,Zhengzhou,34.809780,113.800337,53.0,Chinese Restaurant;General Restaurant,10:00,23:00,Beilong Lake Wetland Park,"113.789100,34.812300",34.812300,113.789100,4.1,Private Room;Online Queue
Enjoy Baiwei Shangshang Pot 29 Yuan Hotpot Buffet Restaurant (Shigeng Community Branch) (Temporarily Closed),Zhengzhou,34.808834,113.797840,31.0,Food Service Related;Food Service Related,10:00,23:30,Beilong Lake Wetland Park,"113.789100,34.812300",34.812300,113.789100,4.2,Must-Eat Top 10
Yiwei Shanfang Vegetarian Restaurant (Official Store in Songshan Shaolin Scenic Area),Zhengzhou,34.513012,112.952106,33.0,Chinese Restaurant;Chinese Restaurant,09:30,21:00,Sanhuangzhai,"112.952063,34.473496",34.473496,112.952063,3.9,Private Room
Shaolin Service Area Express Restaurant,Zhengzhou,34.427016,112.929723,100.0,Fast Food Restaurant;Fast Food Restaurant,11:00,21:00,Sanhuangzhai,"112.952063,34.473496",34.473496,112.952063,3.7,Private Room;Birthday Package
Chanwu Grand Hotel - Chinese Restaurant,Zhengzhou,34.471305,113.017117,136.0,Chinese Restaurant;Chinese Restaurant,08:30,22:00,Sanhuangzhai,"112.952063,34.473496",34.473496,112.952063,4.4,Private Room;Online Queue
Songshan Unique Water Banquet Cultural Restaurant,Zhengzhou,34.449754,113.018493,91.0,Chinese Restaurant;Chinese Restaurant,17:00,21:00,Sanhuangzhai,"112.952063,34.473496",34.473496,112.952063,4.4,Outdoor Seating
Yunshe Tea Restaurant,Zhengzhou,34.468766,113.028504,113.0,Fast Food Restaurant;Tea Restaurant,10:00,23:00,Sanhuangzhai,"112.952063,34.473496",34.473496,112.952063,4.4,Birthday Package;Online Queue
Little Taste Restaurant,Zhengzhou,34.740996,113.539988,100.0,Chinese Restaurant;Chinese Restaurant,11:00,21:00,Zhengzhou Museum New Hall,"113.546720,34.739600",34.739600,113.546720,3.6,Private Room
Zhengzhou Olympic Jian'guo Hotel - Seafood Buffet Restaurant,Zhengzhou,34.739770,113.537534,100.0,Chinese Restaurant;Chinese Restaurant,17:00,21:00,Zhengzhou Museum New Hall,"113.546720,34.739600",34.739600,113.546720,4.0,Birthday Package
Zhengdi Olympic Jian'guo Hotel All-day Dining Restaurant,Zhengzhou,34.740659,113.537609,100.0,Food Service Related;Food Service Related,17:30,21:00,Zhengzhou Museum New Hall,"113.546720,34.739600",34.739600,113.546720,4.2,Outdoor Seating;Online Queue
Jiupu Restaurant,Zhengzhou,34.739579,113.561973,100.0,Chinese Restaurant;Chinese Restaurant,11:00,21:00,Zhengzhou Museum New Hall,"113.546720,34.739600",34.739600,113.546720,3.6,Waiting Area
Peony Restaurant (Yi'er Hotel Management Company),Zhengzhou,34.739995,113.562140,100.0,Chinese Restaurant;Chinese Restaurant,07:30,15:00,Zhengzhou Museum New Hall,"113.546720,34.739600",34.739600,113.546720,4.1,Must-Eat Top 10;Birthday Package
M Art Restaurant Qidesheng · Beef Noodles,Zhengzhou,34.739800,113.563173,100.0,Chinese Restaurant;Chinese Restaurant,11:00,21:00,Zhengzhou Museum New Hall,"113.546720,34.739600",34.739600,113.546720,4.0,Outdoor Seating
Waku No. 50 (Kaixuan Road Branch),Zhengzhou,34.740377,113.563327,100.0,Food Service Related;Food Service Related,09:00,23:00,Zhengzhou Museum New Hall,"113.546720,34.739600",34.739600,113.546720,4.7,Private Room;Waiting Area
