restaurant_name,city,latitude,longitude,price_per_person,cuisine,opening_time,closing_time,nearby_attraction_name,nearby_attraction_coords,query_latitude,query_longitude,rating,tags
Dingyuan Buffet Restaurant,Zhengzhou,34.786308,113.672932,100.0,Chinese Restaurant;Chinese Restaurant,11:00,21:00,Henan Museum,"113.672097,34.788263",34.788263,113.672097,2.5,Outdoor Seating;Waiting Area
Xiangshe Tea Restaurant (Century Star Building Store),Zhengzhou,34.786292,113.671079,100.0,Fast Food Restaurant;Tea Restaurant,17:00,21:30,Henan Museum,"113.672097,34.788263",34.788263,113.672097,3.8,Waiting Area;Birthday Package
Century Star Garden Restaurant,Zhengzhou,34.786256,113.671176,100.0,Chinese Restaurant;Chinese Restaurant,11:00,21:00,Henan Museum,"113.672097,34.788263",34.788263,113.672097,4.1,Private Room
Gourmet Restaurant (Zhengzhou Times International Plaza Building 70 Branch),Zhengzhou,34.786608,113.670287,100.0,Chinese Restaurant;Chinese Restaurant,11:00,21:00,Henan Museum,"113.672097,34.788263",34.788263,113.672097,3.5,Must-Eat Top 10;Waiting Area
Agricultural University Home Faculty Canteen (No. 52 Wenhua Road Courtyard Store),Zhengzhou,34.785268,113.668041,100.0,Chinese Restaurant;Chinese Restaurant,06:00,22:00,Henan Museum,"113.672097,34.788263",34.788263,113.672097,3.9,Outdoor Seating
Nongda Jiayuan Faculty Restaurant,Zhengzhou,34.784879,113.666814,100.0,Chinese Restaurant;Chinese Restaurant,08:00,22:00,Henan Museum,"113.672097,34.788263",34.788263,113.672097,4.0,Must-Eat Top 10
Mao Zhangzhang Oil Marinated Skewers (Guomao 360 Branch),Zhengzhou,34.783597,113.675687,100.0,Food Service Related;Food Service Related,11:00,23:00,Henan Museum,"113.672097,34.788263",34.788263,113.672097,4.7,Birthday Package
Hongyan RED SALT New-style Indian-Pakistani Restaurant,Zhengzhou,34.793421,113.677088,69.0,Chinese Restaurant;Chinese Restaurant,11:00,21:00,Henan Museum,"113.672097,34.788263",34.788263,113.672097,4.5,Waiting Area
Wentong Ice Room (Guomao 360 Branch),Zhengzhou,34.784943,113.679565,39.0,Cold Beverage Shop;Cold Beverage Shop,10:30,22:00,Henan Museum,"113.672097,34.788263",34.788263,113.672097,4.7,Private Room;Birthday Package
Wanda Vista Hotel Pinzhen Chinese Restaurant,Zhengzhou,34.792621,113.678848,246.0,Food Service Related;Food Service Related,17:30,21:30,Henan Museum,"113.672097,34.788263",34.788263,113.672097,4.4,Outdoor Seating;Online Queue
Daobendao Unmanned Restaurant (Shenglong City Branch),Zhengzhou,34.721237,113.632227,100.0,Chinese Restaurant;Chinese Restaurant,09:30,21:00,Zhengzhou Museum (Songshan Road Branch),"113.632600,34.723400",34.723400,113.632600,3.5,Must-Eat Top 10;Birthday Package
Music Restaurant & Bar,Zhengzhou,34.725040,113.629748,100.0,Chinese Restaurant;Chinese Restaurant,11:00,21:00,Zhengzhou Museum (Songshan Road Branch),"113.632600,34.723400",34.723400,113.632600,3.5,Waiting Area
Little Green Lotus Restaurant,Zhengzhou,34.721666,113.636146,100.0,Chinese Restaurant;Chinese Restaurant,08:00,22:00,Zhengzhou Museum (Songshan Road Branch),"113.632600,34.723400",34.723400,113.632600,3.9,Online Queue
Zanbala Flower Market Second Floor Restaurant,Zhengzhou,34.726575,113.626975,100.0,Chinese Restaurant;Chinese Restaurant,11:00,21:00,Zhengzhou Museum (Songshan Road Branch),"113.632600,34.723400",34.723400,113.632600,3.6,Private Room;Birthday Package
Kunlun Leju Business Hotel Chinese Restaurant (Huaihe Road Store),Zhengzhou,34.729111,113.631083,155.0,Food Service Related;Food Service Related,11:00,21:00,Zhengzhou Museum (Songshan Road Branch),"113.632600,34.723400",34.723400,113.632600,4.1,Waiting Area;Birthday Package
Mipi Ji Halal Restaurant (Huainan Street),Zhengzhou,34.728594,113.636312,11.0,Chinese Restaurant;Halal Restaurant,10:00,22:00,Zhengzhou Museum (Songshan Road Branch),"113.632600,34.723400",34.723400,113.632600,4.3,Waiting Area;Birthday Package
Zhengzhou Second People's Hospital Main Campus Nutrition Restaurant (Lianxinli Branch),Zhengzhou,34.721965,113.639981,100.0,Chinese Restaurant;Chinese Restaurant,11:00,21:00,Zhengzhou Museum (Songshan Road Branch),"113.632600,34.723400",34.723400,113.632600,3.9,Outdoor Seating
Zhuangba Music Restaurant,Zhengzhou,34.726061,113.640451,100.0,Entertainment Venue;Bar,11:00,21:00,Zhengzhou Museum (Songshan Road Branch),"113.632600,34.723400",34.723400,113.632600,3.9,Must-Eat Top 10;Private Room
Painting Music Restaurant & Bar,Zhengzhou,34.717961,113.626270,29.0,Chinese Restaurant;Chinese Restaurant,16:00,02:00,Zhengzhou Museum (Songshan Road Branch),"113.632600,34.723400",34.723400,113.632600,4.8,Waiting Area
Suyi Xiang Vegetarian Buffet Restaurant,Zhengzhou,34.725310,113.641557,24.0,Food Service Related;Food Service Related,17:30,19:30,Zhengzhou Museum (Songshan Road Branch),"113.632600,34.723400",34.723400,113.632600,4.4,Outdoor Seating;Private Room
Little Taste Restaurant,Zhengzhou,34.740996,113.539988,100.0,Chinese Restaurant;Chinese Restaurant,11:00,21:00,Zhengzhou Museum New Hall,"113.546720,34.739600",34.739600,113.546720,3.6,Waiting Area
Zhengzhou Olympic JianGuo Hotel - Seafood Buffet Restaurant,Zhengzhou,34.739770,113.537534,100.0,Chinese Restaurant;Chinese Restaurant,17:00,21:00,Zhengzhou Museum New Hall,"113.546720,34.739600",34.739600,113.546720,4.0,Waiting Area
Zhengdi Olympic Jian'guo Hotel All-Day Dining Restaurant,Zhengzhou,34.740659,113.537609,100.0,Food Service Related;Food Service Related,17:30,21:00,Zhengzhou Museum New Hall,"113.546720,34.739600",34.739600,113.546720,4.2,Must-Eat Top 10;Waiting Area
Jiugu Restaurant,Zhengzhou,34.739579,113.561973,100.0,Chinese Restaurant;Chinese Restaurant,11:00,21:00,Zhengzhou Museum New Hall,"113.546720,34.739600",34.739600,113.546720,3.6,Must-Eat Top 10;Birthday Package
Peony Restaurant (Yi'er Hotel Management Company),Zhengzhou,34.739995,113.562140,100.0,Chinese Restaurant;Chinese Restaurant,07:30,15:00,Zhengzhou Museum New Hall,"113.546720,34.739600",34.739600,113.546720,4.1,Waiting Area;Online Queue
M Art Restaurant Qidesheng · Beef Noodles,Zhengzhou,34.739800,113.563173,100.0,Chinese Restaurant;Chinese Restaurant,11:00,21:00,Zhengzhou Museum New Hall,"113.546720,34.739600",34.739600,113.546720,4.0,Outdoor Seating
Waku No. 50 (Kaixuan Road Branch),Zhengzhou,34.740377,113.563327,100.0,Food Service Related;Food Service Related,09:00,23:00,Zhengzhou Museum New Hall,"113.546720,34.739600",34.739600,113.546720,4.7,Outdoor Seating;Waiting Area
Ginkgo Tree Seafood Restaurant (Jinshui Road Branch),Zhengzhou,34.763326,113.684358,100.0,Chinese Restaurant;Seafood Restaurant,17:00,22:00,Zijinshan Park,"113.687708,34.761890",34.761890,113.687708,4.6,Waiting Area;Online Queue
Office Canteen Fast Food Department,Zhengzhou,34.764882,113.689757,100.0,Fast Food Restaurant;Fast Food Restaurant,11:00,21:00,Zijinshan Park,"113.687708,34.761890",34.761890,113.687708,3.8,Must-Eat Top 10
Tanghou Keyixing Tea Banquet,Zhengzhou,34.764738,113.684978,93.0,Tea House;Tea House|购物相关场所;购物相关场所,09:30,23:00,Zijinshan Park,"113.687708,34.761890",34.761890,113.687708,4.3,Birthday Package
Sofitel International Hotel (Yueweixian Chinese Restaurant),Zhengzhou,34.761932,113.692486,204.0,Chinese Restaurant;Chinese Restaurant,17:30,22:00,Zijinshan Park,"113.687708,34.761890",34.761890,113.687708,4.1,Waiting Area;Birthday Package
Zhengzhou Zhongzhou Holiday Inn Restaurant,Zhengzhou,34.762887,113.692533,100.0,Cafe;Cafe,11:00,21:00,Zijinshan Park,"113.687708,34.761890",34.761890,113.687708,4.1,Waiting Area;Birthday Package
Zhengzhou Sofitel International Hotel · Dome Western Restaurant,Zhengzhou,34.761863,113.692708,237.0,Foreign Restaurant;Western Restaurant,11:00,21:30,Zijinshan Park,"113.687708,34.761890",34.761890,113.687708,4.2,Private Room
Starshine Restaurant,Zhengzhou,34.764980,113.691112,100.0,Chinese Restaurant;Chinese Restaurant,11:00,21:00,Zijinshan Park,"113.687708,34.761890",34.761890,113.687708,2.6,Outdoor Seating
Zijing Mountain Hotel - Restaurant,Zhengzhou,34.764942,113.691889,100.0,Chinese Restaurant;Chinese Restaurant,07:00,20:00,Zijinshan Park,"113.687708,34.761890",34.761890,113.687708,4.0,Must-Eat Top 10;Online Queue
Fang Zhongshan Spicy Soup (Headquarters),Zhengzhou,34.760065,113.682462,15.0,Chinese Restaurant;Halal Restaurant,05:00,13:30,Zijinshan Park,"113.687708,34.761890",34.761890,113.687708,4.5,Outdoor Seating;Online Queue
Hongyuan Restaurant,Zhengzhou,34.761674,113.693653,100.0,Chinese Restaurant;Cantonese Cuisine,17:30,21:30,Zijinshan Park,"113.687708,34.761890",34.761890,113.687708,3.9,Birthday Package;Online Queue
Haiyu Premium Seafood Restaurant,Zhengzhou,34.769787,113.726419,39.0,Chinese Restaurant;Seafood Restaurant,17:00,23:00,Qianxi Square (Big Corn Tower),"113.726322,34.769955",34.769955,113.726322,3.8,Must-Eat Top 10
Zhengzhou Greenland JW Marriott Hotel (Marriott Chinese Restaurant),Zhengzhou,34.770905,113.727350,300.0,Chinese Restaurant;Chinese Restaurant,17:30,22:30,Qianxi Square (Big Corn Tower),"113.726322,34.769955",34.769955,113.726322,4.5,Waiting Area
Qianxi Cloud Restaurant (Qianxi Plaza Branch),Zhengzhou,34.771075,113.727225,165.0,Chinese Restaurant;Chinese Restaurant,09:00,01:00,Qianxi Square (Big Corn Tower),"113.726322,34.769955",34.769955,113.726322,4.5,Online Queue
Zhengzhou Big Corn G PLUS Skyview Restaurant,Zhengzhou,34.770914,113.727493,228.0,Chinese Restaurant;General Restaurant,16:00,05:00,Qianxi Square (Big Corn Tower),"113.726322,34.769955",34.769955,113.726322,4.2,Online Queue
Zhengzhou Greenland JW Marriott Hotel · Urban Bistro Buffet Restaurant,Zhengzhou,34.771054,113.727309,280.0,Foreign Restaurant;Western Restaurant,17:30,21:30,Qianxi Square (Big Corn Tower),"113.726322,34.769955",34.769955,113.726322,4.3,Must-Eat Top 10;Birthday Package
Drunken Fresh Grilled Fish (Qianxi Plaza Branch),Zhengzhou,34.770902,113.727580,62.0,Food Service Related;Food Service Related,10:00,24:00,Qianxi Square (Big Corn Tower),"113.726322,34.769955",34.769955,113.726322,4.2,Must-Eat Top 10
Yu Jian Tea Restaurant (Xin'ao Building Branch),Zhengzhou,34.767928,113.723581,100.0,Chinese Restaurant;Chinese Restaurant,11:00,21:00,Qianxi Square (Big Corn Tower),"113.726322,34.769955",34.769955,113.726322,4.1,Must-Eat Top 10
Xinhuose (Freshly Stir-Fried Restaurant),Zhengzhou,34.767451,113.723530,100.0,Chinese Restaurant;Chinese Restaurant,10:00,21:00,Qianxi Square (Big Corn Tower),"113.726322,34.769955",34.769955,113.726322,3.9,Birthday Package
Two Birds One Stone (Muse Branch),Zhengzhou,34.767030,113.730428,95.0,Food Service Related;Food Service Related,10:00,21:00,Qianxi Square (Big Corn Tower),"113.726322,34.769955",34.769955,113.726322,4.6,Outdoor Seating
Han Feng Yuan Barbecue and Hot Pot Buffet Restaurant (Asia Joy City Branch),Zhengzhou,34.751785,113.667704,80.0,Chinese Restaurant;Chinese Restaurant,11:00,23:30,Erqi Square,"113.666451,34.751860",34.751860,113.666451,4.7,Outdoor Seating;Private Room
Yuehai Hotel Xuan Palace Western Restaurant (Erqi Square),Zhengzhou,34.749629,113.667658,111.0,Foreign Restaurant;Western Restaurant,10:00,23:00,Erqi Square,"113.666451,34.751860",34.751860,113.666451,3.9,Online Queue
Yuehai Hotel - Yuehai Xuan Chinese Restaurant,Zhengzhou,34.749142,113.667796,100.0,Chinese Restaurant;Chinese Restaurant,11:00,21:00,Erqi Square,"113.666451,34.751860",34.751860,113.666451,3.9,Must-Eat Top 10;Waiting Area
Hu Ya Stir-fried Chicken (Henan Zhengzhou Erqi MixC Branch),Zhengzhou,34.754815,113.662798,55.0,Chinese Restaurant;Chinese Restaurant,10:00,22:00,Erqi Square,"113.666451,34.751860",34.751860,113.666451,4.6,Must-Eat Top 10
Jixu Folk Ballad Barbecue House (Zhengzhou Guangcai Branch),Zhengzhou,34.755287,113.669676,72.0,Chinese Restaurant;Chinese Restaurant,18:00,02:30,Erqi Square,"113.666451,34.751860",34.751860,113.666451,4.6,Outdoor Seating;Private Room
Green Tea Restaurant (Zhengzhou MixC Store),Zhengzhou,34.754667,113.662403,100.0,Chinese Restaurant;Chinese Restaurant,11:00,21:00,Erqi Square,"113.666451,34.751860",34.751860,113.666451,4.6,Online Queue
Zhengzhou Zhengbai Restaurant (Zhengzhou Department Store Branch),Zhengzhou,34.756286,113.668080,100.0,Chinese Restaurant;Chinese Restaurant,09:30,21:00,Erqi Square,"113.666451,34.751860",34.751860,113.666451,3.9,Outdoor Seating
Datong Hotel Restaurant,Zhengzhou,34.747498,113.663838,31.0,Chinese Restaurant;Chinese Restaurant,17:00,21:00,Erqi Square,"113.666451,34.751860",34.751860,113.666451,3.8,Must-Eat Top 10;Online Queue
Route 5 Restaurant Stone-Grilled Steak (David City Branch),Zhengzhou,34.756777,113.666316,128.0,Fast Food Restaurant;Fast Food Restaurant,11:00,22:00,Erqi Square,"113.666451,34.751860",34.751860,113.666451,4.7,Online Queue
Jiang Aqiao Tart Noodles (Grand Shanghai Branch),Zhengzhou,34.755928,113.670393,100.0,Chinese Restaurant;Chinese Restaurant,10:30,21:30,Zhengzhou Shang Dynasty Ruins,"113.671988,34.755497",34.755497,113.671988,4.5,Must-Eat Top 10;Waiting Area
Henan University of Chinese Medicine First Affiliated Hospital Renmin Road Campus Restaurant,Zhengzhou,34.758033,113.673949,100.0,Chinese Restaurant;Chinese Restaurant,11:00,21:00,Zhengzhou Shang Dynasty Ruins,"113.671988,34.755497",34.755497,113.671988,3.7,Private Room;Birthday Package
Little Alley Community Cafeteria · Mama Restaurant,Zhengzhou,34.752730,113.674692,100.0,Chinese Restaurant;Chinese Restaurant,17:00,20:30,Zhengzhou Shang Dynasty Ruins,"113.671988,34.755497",34.755497,113.671988,4.2,Online Queue
Heji (Old Street Snack Street Store),Zhengzhou,34.758132,113.675030,100.0,Chinese Restaurant;Halal Restaurant,10:30,22:00,Zhengzhou Shang Dynasty Ruins,"113.671988,34.755497",34.755497,113.671988,4.4,Online Queue
Mi Pi Ji Halal Restaurant (West Street Branch),Zhengzhou,34.751298,113.673507,11.0,Chinese Restaurant;Halal Restaurant,10:00,22:00,Zhengzhou Shang Dynasty Ruins,"113.671988,34.755497",34.755497,113.671988,4.3,Outdoor Seating
Manyu (Dennis David City Branch),Zhengzhou,34.756848,113.666241,90.0,服装鞋帽皮具店;服装鞋帽皮具店,11:00,21:00,Zhengzhou Shang Dynasty Ruins,"113.671988,34.755497",34.755497,113.671988,4.7,Birthday Package;Online Queue
Chinese Cuisine Fast Food Restaurant,Zhengzhou,34.759118,113.676308,20.0,Fast Food Restaurant;Fast Food Restaurant,07:00,20:00,Zhengzhou Shang Dynasty Ruins,"113.671988,34.755497",34.755497,113.671988,3.7,Must-Eat Top 10;Private Room
Luoshan Fisherman's Delight Restaurant,Zhengzhou,34.903556,113.670261,63.0,Chinese Restaurant;Chinese Restaurant,10:00,23:00,Yellow River Huayuankou Tourist Area,"113.676636,34.903629",34.903629,113.676636,4.3,Private Room
Wang Wang Small Eatery,Zhengzhou,34.901524,113.668069,100.0,Chinese Restaurant;Chinese Restaurant,11:00,21:00,Yellow River Huayuankou Tourist Area,"113.676636,34.903629",34.903629,113.676636,2.4,Private Room
Lounge Restaurant,Zhengzhou,34.754747,113.783314,100.0,Chinese Restaurant;General Restaurant,10:00,22:00,Zhengzhou East Station,"113.779558,34.759081",34.759081,113.779558,3.7,Online Queue
Zhengzhou Hesense Easthotel · Xindi Restaurant (Greenland Colorful City Branch),Zhengzhou,34.761864,113.772727,125.0,Chinese Restaurant;Chinese Restaurant,06:30,24:00,Zhengzhou East Station,"113.779558,34.759081",34.759081,113.779558,4.1,Must-Eat Top 10;Private Room
Lanting Xu Tea Restaurant,Zhengzhou,34.753801,113.774832,100.0,Fast Food Restaurant;Fast Food Restaurant,09:00,22:00,Zhengzhou East Station,"113.779558,34.759081",34.759081,113.779558,4.5,Outdoor Seating;Private Room
Huangjuewei Convenient Restaurant (Rongan Shijia Branch),Zhengzhou,29.860538,121.536445,100.0,Fast Food Restaurant;Fast Food Restaurant,11:00,21:00,Ningbo Station,"121.536631,29.861949",29.861949,121.536631,1.9,Must-Eat Top 10;Online Queue
Fish Come Fish Go Restaurant,Zhengzhou,29.862175,121.539025,22.0,Chinese Restaurant;Chinese Restaurant,11:00,21:00,Ningbo Station,"121.536631,29.861949",29.861949,121.536631,3.9,Private Room;Waiting Area
Fubon Grand Hotel - Sunday Eight Western Restaurant,Zhengzhou,29.863910,121.538790,223.0,Food Service Related;Food Service Related,17:00,20:30,Ningbo Station,"121.536631,29.861949",29.861949,121.536631,4.0,Waiting Area
Little Domi Korean Restaurant,Zhengzhou,29.864725,121.537875,54.0,Foreign Restaurant;韩国料理,09:30,22:00,Ningbo Station,"121.536631,29.861949",29.861949,121.536631,4.5,Online Queue
Mingyi Restaurant (Mayuanfang Business Building Branch),Zhengzhou,29.864964,121.537985,100.0,Chinese Restaurant;Chinese Restaurant,09:15,22:30,Ningbo Station,"121.536631,29.861949",29.861949,121.536631,3.8,Outdoor Seating
Ah Xiang Rice Noodles (Zhengzhou Erqi Shanshan Outlet Restaurant),Zhengzhou,34.526573,113.855171,31.0,Chinese Restaurant;Local Specialty Restaurant,06:00,22:00,Xinzheng International Airport,"113.856808,34.528476",34.528476,113.856808,3.7,Outdoor Seating;Online Queue
Zhengzhou Airport Grand Hotel Chinese Restaurant,Zhengzhou,34.528534,113.843450,70.0,Chinese Restaurant;Chinese Restaurant,10:00,21:00,Xinzheng International Airport,"113.856808,34.528476",34.528476,113.856808,4.1,Must-Eat Top 10
Guangdong Restaurant (Erma Road),Zhengzhou,34.749825,113.660012,100.0,Chinese Restaurant;Cantonese Cuisine,11:00,21:00,Zhengzhou Station,"113.658097,34.745795",34.745795,113.658097,3.7,Outdoor Seating
Nutrition and Health Restaurant,Zhengzhou,34.744171,113.652484,100.0,Chinese Restaurant;Chinese Restaurant,11:00,21:00,Zhengzhou Station,"113.658097,34.745795",34.745795,113.658097,3.5,Private Room;Waiting Area
People Come and Go Gourmet Restaurant,Zhengzhou,29.825749,121.476645,100.0,Chinese Restaurant;Chinese Restaurant,08:00,20:00,Lishe International Airport,"121.466363,29.821287",29.821287,121.466363,4.1,Must-Eat Top 10;Private Room
Shiyi Hotel · Seafood Restaurant,Zhengzhou,29.830943,121.471005,100.0,Chinese Restaurant;Seafood Restaurant,10:00,20:30,Lishe International Airport,"121.466363,29.821287",29.821287,121.466363,4.1,Outdoor Seating
Senkai Restaurant,Zhengzhou,29.823596,121.485451,100.0,Chinese Restaurant;Chinese Restaurant,11:00,21:00,Lishe International Airport,"121.466363,29.821287",29.821287,121.466363,3.6,Waiting Area
Zhengzhou Aviation Port District Boom Drink Theme Bar,Zhengzhou,34.530293,113.823391,100.0,Chinese Restaurant;Chinese Restaurant,17:00,04:00,Ruyue Cloud Hotel by Home Inn - Zhengzhou Xinzheng International Airport,"113.827800,34.532732",34.532732,113.827800,3.5,Private Room;Online Queue
Yunduo Xuan Restaurant (Financial Plaza Branch),Zhengzhou,34.537244,113.826908,168.0,Food Service Related;Food Service Related,10:00,22:00,Ruyue Cloud Hotel by Home Inn - Zhengzhou Xinzheng International Airport,"113.827800,34.532732",34.532732,113.827800,4.1,Must-Eat Top 10
Fang Zhongshan Spicy Soup (Port District First Store),Zhengzhou,34.537354,113.833042,14.0,Chinese Restaurant;Halal Restaurant,05:30,13:00,Ruyue Cloud Hotel by Home Inn - Zhengzhou Xinzheng International Airport,"113.827800,34.532732",34.532732,113.827800,4.5,Private Room;Waiting Area
Qiyu Cantonese Tea Restaurant,Zhengzhou,34.540161,113.830394,25.0,Cafe;Cafe|糕饼店;糕饼店,07:00,24:00,Ruyue Cloud Hotel by Home Inn - Zhengzhou Xinzheng International Airport,"113.827800,34.532732",34.532732,113.827800,4.1,Private Room
Yaser Lakeside Restaurant,Zhengzhou,34.775577,113.858407,90.0,Chinese Restaurant;Chinese Restaurant,11:00,21:00,Zhengzhou Yaser International Hotel (Provincial Science and Technology Museum Xianghu Branch),"113.858697,34.775698",34.775698,113.858697,3.9,Must-Eat Top 10;Waiting Area
Water Margin Barbecue (Yongshun Road Branch),Zhengzhou,34.773371,113.856956,57.0,Chinese Restaurant;Local Specialty Restaurant,10:00,02:00,Zhengzhou Yaser International Hotel (Provincial Science and Technology Museum Xianghu Branch),"113.858697,34.775698",34.775698,113.858697,4.5,Private Room;Birthday Package
Future Ocean Creative Fusion Restaurant,Zhengzhou,34.773400,113.854577,48.0,Food Service Related;Food Service Related,09:30,22:00,Zhengzhou Yaser International Hotel (Provincial Science and Technology Museum Xianghu Branch),"113.858697,34.775698",34.775698,113.858697,4.3,Private Room
Bengbeng Music Restaurant,Zhengzhou,34.369146,113.919410,100.0,Chinese Restaurant;Chinese Restaurant,09:00,21:00,Yunman Hotel (Zhengzhou Airport Zone BYD Factory Branch),"113.919851,34.368782",34.368782,113.919851,3.6,Waiting Area
New Yijia (Zhengzhou Aviation Port Area) Themed Dining Restaurant (Individual Business),Zhengzhou,34.365406,113.918814,100.0,Chinese Restaurant;Chinese Restaurant,08:00,22:00,Yunman Hotel (Zhengzhou Airport Zone BYD Factory Branch),"113.919851,34.368782",34.368782,113.919851,3.8,Waiting Area
Youjinsheng Jewelry Tea Restaurant (Weiye Xianghu Garden Branch),Zhengzhou,34.769988,113.864010,100.0,Fast Food Restaurant;Fast Food Restaurant,11:00,21:00,Hanting Hotel Zhengzhou Xianghu Science and Technology Museum,"113.863000,34.763200",34.763200,113.863000,3.7,Outdoor Seating;Waiting Area
Xinwaku Tea Restaurant (Weiye Xianghu Garden Branch),Zhengzhou,34.769990,113.864126,100.0,Fast Food Restaurant;Tea Restaurant,11:00,21:00,Hanting Hotel Zhengzhou Xianghu Science and Technology Museum,"113.863000,34.763200",34.763200,113.863000,3.5,Waiting Area
Taste of Shrimp Small Restaurant,Zhengzhou,34.759727,113.853131,100.0,Chinese Restaurant;Chinese Restaurant,10:00,23:00,Hanting Hotel Zhengzhou Xianghu Science and Technology Museum,"113.863000,34.763200",34.763200,113.863000,3.7,Outdoor Seating
Liuyuan · Leisure Tea and Food Appreciation,Zhengzhou,34.802265,113.740183,100.0,Tea House;Tea House,09:00,21:30,Atour Hotel Zhengzhou Beilonghu Financial Center Financial Island,"113.740044,34.801804",34.801804,113.740044,4.3,Private Room
Wu Wei Academy · Laozi Cultural Tea Dining Space,Zhengzhou,34.800876,113.734358,459.0,Chinese Restaurant;Chinese Restaurant,10:00,22:00,Atour Hotel Zhengzhou Beilonghu Financial Center Financial Island,"113.740044,34.801804",34.801804,113.740044,4.0,Private Room;Waiting Area
Ji Lu Restaurant (Kailin Building Branch),Zhengzhou,34.802746,113.733842,100.0,Chinese Restaurant;Chinese Restaurant,11:00,21:00,Atour Hotel Zhengzhou Beilonghu Financial Center Financial Island,"113.740044,34.801804",34.801804,113.740044,4.1,Outdoor Seating
Old Mo's Marinated Small Seafood,Zhengzhou,34.723986,113.716121,100.0,Chinese Restaurant;Seafood Restaurant,11:00,21:00,Hanting Hotel Zhengzhou Hanghai East Road,"113.718570,34.725246",34.725246,113.718570,3.6,Must-Eat Top 10;Online Queue
North Point Xiuwai Hong Kong-style Tea Restaurant (Longtang Vanke Plaza Branch),Zhengzhou,34.722045,113.718822,57.0,Fast Food Restaurant;Tea Restaurant,11:00,22:00,Hanting Hotel Zhengzhou Hanghai East Road,"113.718570,34.725246",34.725246,113.718570,4.3,Online Queue
DBe's Da Bai E Russian Grill Western Restaurant (Futian Xintiandi Branch),Zhengzhou,34.721373,113.712549,98.0,Foreign Restaurant;Foreign Restaurant,11:00,14:30,Hanting Hotel Zhengzhou Hanghai East Road,"113.718570,34.725246",34.725246,113.718570,4.7,Birthday Package
Rong Yu Restaurant,Zhengzhou,34.754245,113.770035,100.0,Chinese Restaurant;Chinese Restaurant,10:00,21:30,Courtyard by Marriott Zhengzhou Huiyi,"113.770139,34.753708",34.753708,113.770139,3.6,Waiting Area
Soonsoo Fried Chicken Cuisine,Zhengzhou,34.754378,113.771221,91.0,Fast Food Restaurant;Fast Food Restaurant,10:00,22:00,Courtyard by Marriott Zhengzhou Huiyi,"113.770139,34.753708",34.753708,113.770139,4.7,Private Room;Birthday Package
Thirty-Three Flavors Restaurant,Zhengzhou,34.752661,113.769800,81.0,Chinese Restaurant;Chinese Restaurant,11:00,21:00,Courtyard by Marriott Zhengzhou Huiyi,"113.770139,34.753708",34.753708,113.770139,4.6,Must-Eat Top 10;Outdoor Seating
Hecha,Zhengzhou,34.612306,113.736545,100.0,Tea House;Tea House,10:00,22:00,Kunlun Leju Select Hotel (Zhengzhou South City Jinyi City Branch),"113.733835,34.613066",34.613066,113.733835,3.5,Birthday Package
Qingtang Buffet Restaurant (Hua'nan City Branch),Zhengzhou,34.609475,113.732425,100.0,Chinese Restaurant;Chinese Restaurant,11:00,21:00,Kunlun Leju Select Hotel (Zhengzhou South City Jinyi City Branch),"113.733835,34.613066",34.613066,113.733835,4.5,Outdoor Seating;Birthday Package
Han Feng Yuan Barbecue and Hotpot Buffet Restaurant (Longhu Jinyi City Direct Store),Zhengzhou,34.613777,113.726277,66.0,Food Service Related;Food Service Related,11:00,22:30,Kunlun Leju Select Hotel (Zhengzhou South City Jinyi City Branch),"113.733835,34.613066",34.613066,113.733835,4.3,Outdoor Seating;Online Queue
Backyard Tea Restaurant (New Dongyi SPACE Branch),Zhengzhou,34.779601,113.699724,114.0,Fast Food Restaurant;Tea Restaurant,10:00,22:00,Orange Hotel Zhengzhou Zhengdong New District Convention Center,"113.702020,34.779780",34.779780,113.702020,4.5,Private Room
Hu Lamb Chops · Shrimp Hot Pot · Nutrition Restaurant (Hongqi Road),Zhengzhou,34.777006,113.702984,37.0,Chinese Restaurant;Hot Pot,10:30,22:00,Orange Hotel Zhengzhou Zhengdong New District Convention Center,"113.702020,34.779780",34.779780,113.702020,4.5,Must-Eat Top 10;Waiting Area
Mipi Ji Halal Restaurant (Yaozhai Road Branch),Zhengzhou,34.776594,113.704493,11.0,Chinese Restaurant;Halal Restaurant,10:00,21:00,Orange Hotel Zhengzhou Zhengdong New District Convention Center,"113.702020,34.779780",34.779780,113.702020,4.2,Outdoor Seating;Birthday Package
Yuanwei Fusion Tea Restaurant,Zhengzhou,34.778131,113.706295,180.0,Fast Food Restaurant;Fast Food Restaurant,16:00,22:30,Orange Hotel Zhengzhou Zhengdong New District Convention Center,"113.702020,34.779780",34.779780,113.702020,4.0,Birthday Package
Super Deer Squad Fitness and Fat Loss Restaurant (Jincheng Times Plaza Branch),Zhengzhou,34.777542,113.706140,24.0,Food Service Related;Food Service Related,08:00,21:00,Orange Hotel Zhengzhou Zhengdong New District Convention Center,"113.702020,34.779780",34.779780,113.702020,3.9,Outdoor Seating
Creekside Tea Restaurant,Zhengzhou,34.781870,113.687685,100.0,Fast Food Restaurant;Fast Food Restaurant,12:00,24:00,Zhengzhou Jinshen Zhongzhou Yihe Hotel,"113.686953,34.781424",34.781424,113.686953,3.7,Must-Eat Top 10;Waiting Area
Kaka Light Food Restaurant,Zhengzhou,34.780128,113.685970,100.0,Food Service Related;Food Service Related,09:00,20:00,Zhengzhou Jinshen Zhongzhou Yihe Hotel,"113.686953,34.781424",34.781424,113.686953,4.0,Birthday Package
Hailan Restaurant,Zhengzhou,34.781419,113.684659,100.0,Chinese Restaurant;Chinese Restaurant,11:00,21:00,Zhengzhou Jinshen Zhongzhou Yihe Hotel,"113.686953,34.781424",34.781424,113.686953,3.7,Private Room;Birthday Package
Henan Yellow River Guesthouse Chinese Restaurant,Zhengzhou,34.872199,113.648259,100.0,Foreign Restaurant;Western Restaurant,11:00,21:00,Henan Yellow River Guesthouse,"113.648540,34.872278",34.872278,113.648540,3.2,Online Queue
Aoli Family Restaurant,Zhengzhou,34.869788,113.636415,16.0,Chinese Restaurant;Chinese Restaurant,11:00,21:30,Henan Yellow River Guesthouse,"113.648540,34.872278",34.872278,113.648540,4.2,Outdoor Seating
Haokelai Steak (Zhengzhou Huiji Wanda Restaurant),Zhengzhou,34.868938,113.636045,68.0,Foreign Restaurant;Western Restaurant,10:00,22:00,Henan Yellow River Guesthouse,"113.648540,34.872278",34.872278,113.648540,4.6,Birthday Package;Online Queue
Shisui Hot Pot Restaurant (Future Road Branch),Zhengzhou,34.771161,113.707663,100.0,Chinese Restaurant;Hot Pot,09:30,24:00,Ji Hotel Zhengzhou Convention Center Future Road,"113.707000,34.772300",34.772300,113.707000,4.6,Birthday Package
Meilun Chinese Restaurant (Future Road Branch),Zhengzhou,34.773957,113.708770,43.0,Food Service Related;Food Service Related,11:00,21:00,Ji Hotel Zhengzhou Convention Center Future Road,"113.707000,34.772300",34.772300,113.707000,4.0,Outdoor Seating
Futures Restaurant (Future Building Branch),Zhengzhou,34.769968,113.708708,100.0,Chinese Restaurant;Chinese Restaurant,17:30,21:30,Ji Hotel Zhengzhou Convention Center Future Road,"113.707000,34.772300",34.772300,113.707000,4.3,Birthday Package
Future Grand Hotel · Golden Future Restaurant,Zhengzhou,34.769025,113.707177,162.0,Chinese Restaurant;Chinese Restaurant,18:00,21:00,Ji Hotel Zhengzhou Convention Center Future Road,"113.707000,34.772300",34.772300,113.707000,4.2,Outdoor Seating
Yuanfuyuan Canteen (Jincheng Times Plaza Branch),Zhengzhou,34.776707,113.706486,24.0,Chinese Restaurant;Chinese Restaurant,11:00,21:00,Ji Hotel Zhengzhou Convention Center Future Road,"113.707000,34.772300",34.772300,113.707000,4.1,Online Queue
Muyuan Hotel (Zhengzhou East High-Speed Railway Station Branch) · Ancient Vine Takt German Restaurant,Zhengzhou,34.755419,113.789670,100.0,Food Service Related;Food Service Related,11:00,21:00,Hanting Hotel (Zhengzhou East Station East Square Shangding Road Branch),"113.787360,34.755908",34.755908,113.787360,3.6,Must-Eat Top 10;Birthday Package
Guten Tag German Restaurant,Zhengzhou,34.755935,113.789800,59.0,Fast Food Restaurant;Fast Food Restaurant,17:00,21:00,Hanting Hotel (Zhengzhou East Station East Square Shangding Road Branch),"113.787360,34.755908",34.755908,113.787360,3.8,Must-Eat Top 10;Private Room
Fu Yu Xuan Seafood Fusion Restaurant,Zhengzhou,34.756247,113.790010,91.0,Food Service Related;Food Service Related,17:00,21:30,Hanting Hotel (Zhengzhou East Station East Square Shangding Road Branch),"113.787360,34.755908",34.755908,113.787360,4.0,Must-Eat Top 10
Tongshantang Experience Restaurant,Zhengzhou,34.764509,113.745962,100.0,Chinese Restaurant;Chinese Restaurant,08:00,21:00,Chenxi Hotel (Zhengzhou Convention Center Branch),"113.745222,34.764990",34.764990,113.745222,3.8,Online Queue
Qingyuan Tea Restaurant,Zhengzhou,34.765092,113.744012,100.0,Fast Food Restaurant;Tea Restaurant,11:00,21:00,Chenxi Hotel (Zhengzhou Convention Center Branch),"113.745222,34.764990",34.764990,113.745222,3.7,Outdoor Seating;Online Queue
Chujing Restaurant (Provincial Government Store),Zhengzhou,34.767275,113.746025,138.0,Chinese Restaurant;Chinese Restaurant,17:00,21:30,Chenxi Hotel (Zhengzhou Convention Center Branch),"113.745222,34.764990",34.764990,113.745222,4.7,Waiting Area;Birthday Package
Chaozhou Tea Restaurant,Zhengzhou,34.723058,113.748498,100.0,Chinese Restaurant;Chinese Restaurant,11:00,21:00,Home Inn - Zhengzhou Zhongyuan Tower East Metro Station Branch,"113.746504,34.722713",34.722713,113.746504,3.7,Outdoor Seating;Online Queue
Liu Yanghe Barbecue (Second Avenue Branch),Zhengzhou,34.723605,113.743651,56.0,Foreign Restaurant;Foreign Restaurant,17:00,22:30,Home Inn - Zhengzhou Zhongyuan Tower East Metro Station Branch,"113.746504,34.722713",34.722713,113.746504,4.6,Must-Eat Top 10
Management Committee Canteen,Zhengzhou,34.721704,113.743254,100.0,Fast Food Restaurant;Fast Food Restaurant,07:30,18:30,Home Inn - Zhengzhou Zhongyuan Tower East Metro Station Branch,"113.746504,34.722713",34.722713,113.746504,3.7,Birthday Package
Quanxin Beiai Baby Restaurant (Dennis Hanghai Tiandi Branch),Zhengzhou,34.721934,113.739210,35.0,Chinese Restaurant;Chinese Restaurant,10:00,21:30,Home Inn - Zhengzhou Zhongyuan Tower East Metro Station Branch,"113.746504,34.722713",34.722713,113.746504,4.1,Outdoor Seating;Private Room
Zhuli Tea Restaurant (Xinghua Building B Store),Zhengzhou,34.717975,113.741775,100.0,Fast Food Restaurant;Fast Food Restaurant,09:30,21:00,Home Inn - Zhengzhou Zhongyuan Tower East Metro Station Branch,"113.746504,34.722713",34.722713,113.746504,4.0,Birthday Package
Supreme Qiangzai (Zhengguang North Street Branch),Zhengzhou,34.771566,113.754982,80.0,Chinese Restaurant;Cantonese Cuisine,17:00,22:00,Orange Hotel Zhengzhou Provincial Government MixC,"113.755528,34.771074",34.771074,113.755528,4.6,Private Room;Waiting Area
Guangyi Xinyang Maojian Tea Restaurant (Yuhang Branch),Zhengzhou,34.771881,113.755782,100.0,Specialty Store;Exclusive Store,11:00,21:00,Orange Hotel Zhengzhou Provincial Government MixC,"113.755528,34.771074",34.771074,113.755528,3.7,Birthday Package
Yu Long Xuan Tea Restaurant (Yuhang Center Branch),Zhengzhou,34.771871,113.755230,100.0,Chinese Restaurant;Chinese Restaurant,09:00,22:30,Orange Hotel Zhengzhou Provincial Government MixC,"113.755528,34.771074",34.771074,113.755528,3.6,Birthday Package
Taichengxing Thai Fusion Restaurant (Renzhai North Street Branch),Zhengzhou,34.770650,113.668814,91.0,Foreign Restaurant;泰国/越南菜品餐厅,11:30,21:30,Future Livable Hotel (Health Road Night Market Zhengzhou Second Affiliated Hospital Branch),"113.669130,34.769325",34.769325,113.669130,4.6,Must-Eat Top 10
Old Courtyard Restaurant,Zhengzhou,34.769141,113.670762,100.0,Chinese Restaurant;Chinese Restaurant,11:00,21:00,Future Livable Hotel (Health Road Night Market Zhengzhou Second Affiliated Hospital Branch),"113.669130,34.769325",34.769325,113.669130,3.6,Private Room;Birthday Package
Zhengzhou University Second Affiliated Hospital Main Campus Nutrition Restaurant,Zhengzhou,34.766250,113.670538,9.0,Chinese Restaurant;Chinese Restaurant,11:00,21:00,Future Livable Hotel (Health Road Night Market Zhengzhou Second Affiliated Hospital Branch),"113.669130,34.769325",34.769325,113.669130,3.7,Online Queue
Harbor Leisure & Entertainment Restaurant - Romantic Leisure Couple's Meal,Zhengzhou,34.772217,113.666670,100.0,Chinese Restaurant;Chinese Restaurant,11:00,21:00,Future Livable Hotel (Health Road Night Market Zhengzhou Second Affiliated Hospital Branch),"113.669130,34.769325",34.769325,113.669130,3.5,Waiting Area
Fuxiangyue Restaurant,Zhengzhou,34.773575,113.669409,57.0,Chinese Restaurant;Hunan Cuisine,11:00,21:00,Future Livable Hotel (Health Road Night Market Zhengzhou Second Affiliated Hospital Branch),"113.669130,34.769325",34.769325,113.669130,4.4,Waiting Area;Birthday Package
Mi Pi Ji Halal Restaurant (Yunshang Store),Zhengzhou,34.745125,113.760153,11.0,Chinese Restaurant;Halal Restaurant,10:00,22:00,Hampton by Hilton Zhengzhou Zhengdong New District,"113.763361,34.745195",34.745195,113.763361,4.2,Private Room;Online Queue
Oukala Steak Buffet Restaurant (Zhengdong Commercial Center Area A Branch),Zhengzhou,34.745247,113.760006,62.0,Foreign Restaurant;Foreign Restaurant,17:00,21:30,Hampton by Hilton Zhengzhou Zhengdong New District,"113.763361,34.745195",34.745195,113.763361,4.1,Outdoor Seating;Birthday Package
Jinshan Yushui Tea Restaurant (Zhengshang Dongfang Gangwan Branch),Zhengzhou,34.748100,113.763304,33.0,Fast Food Restaurant;Tea Restaurant,10:00,22:00,Hampton by Hilton Zhengzhou Zhengdong New District,"113.763361,34.745195",34.745195,113.763361,4.0,Must-Eat Top 10
Xiao Ling Western Restaurant (Vintage American Theme) Halal,Zhengzhou,34.743902,113.759606,106.0,Foreign Restaurant;American Cuisine,11:00,22:00,Hampton by Hilton Zhengzhou Zhengdong New District,"113.763361,34.745195",34.745195,113.763361,4.7,Must-Eat Top 10
Momo and Han Western Cuisine · Desserts · Birthday Party,Zhengzhou,34.743317,113.759315,93.0,Foreign Restaurant;Western Restaurant,10:00,22:00,Hampton by Hilton Zhengzhou Zhengdong New District,"113.763361,34.745195",34.745195,113.763361,4.8,Online Queue
Yiwei Shan Fang Vegetarian Restaurant (Songshan Shaolin Scenic Area Official Branch),Zhengzhou,34.513012,112.952106,33.0,Chinese Restaurant;Chinese Restaurant,09:30,21:00,Three Emperors' Fortress,"112.952063,34.473496",34.473496,112.952063,3.9,Outdoor Seating;Online Queue
Shaolin Service Area Fast Restaurant,Zhengzhou,34.427016,112.929723,100.0,Fast Food Restaurant;Fast Food Restaurant,11:00,21:00,Three Emperors' Fortress,"112.952063,34.473496",34.473496,112.952063,3.7,Private Room
Chanwu Grand Hotel - Chinese Restaurant,Zhengzhou,34.471305,113.017117,136.0,Chinese Restaurant;Chinese Restaurant,08:30,22:00,Three Emperors' Fortress,"112.952063,34.473496",34.473496,112.952063,4.4,Birthday Package
Songshan Unique Water Banquet Culture Restaurant,Zhengzhou,34.449754,113.018493,91.0,Chinese Restaurant;Chinese Restaurant,17:00,21:00,Three Emperors' Fortress,"112.952063,34.473496",34.473496,112.952063,4.4,Waiting Area
Yunshe Tea Restaurant,Zhengzhou,34.468766,113.028504,113.0,Fast Food Restaurant;Tea Restaurant,10:00,23:00,Three Emperors' Fortress,"112.952063,34.473496",34.473496,112.952063,4.4,Must-Eat Top 10;Outdoor Seating
Jiang Aqiao Tart Noodles (Grand Shanghai Branch),Zhengzhou,34.755928,113.670393,100.0,Chinese Restaurant;Chinese Restaurant,10:30,21:30,Hanting Hotel Zhengzhou Erqi Square,"113.671977,34.754346",34.754346,113.671977,4.5,Outdoor Seating
Jixu Folk Ballad Barbecue House (Zhengzhou Guangcai Branch),Zhengzhou,34.755287,113.669676,72.0,Chinese Restaurant;Chinese Restaurant,18:00,02:30,Hanting Hotel Zhengzhou Erqi Square,"113.671977,34.754346",34.754346,113.671977,4.6,Private Room
Henan University of Chinese Medicine First Affiliated Hospital Renmin Road Campus Restaurant,Zhengzhou,34.758033,113.673949,100.0,Chinese Restaurant;Chinese Restaurant,11:00,21:00,Hanting Hotel Zhengzhou Erqi Square,"113.671977,34.754346",34.754346,113.671977,3.7,Must-Eat Top 10
Han Feng Yuan Barbecue and Hot Pot Buffet Restaurant (Asia Joy City Branch),Zhengzhou,34.751785,113.667704,80.0,Food Service Related;Food Service Related,10:00,23:00,Hanting Hotel Zhengzhou Erqi Square,"113.671977,34.754346",34.754346,113.671977,4.7,Private Room
Heji (Old Street Snack Street Store),Zhengzhou,34.758132,113.675030,100.0,Chinese Restaurant;Halal Restaurant,10:30,22:00,Hanting Hotel Zhengzhou Erqi Square,"113.671977,34.754346",34.754346,113.671977,4.4,Waiting Area
Western Restaurant,Zhengzhou,34.768817,113.933939,100.0,Chinese Restaurant;Chinese Restaurant,11:00,21:00,Zhipu Hotel Zhengzhou Zhongmu (Only Henan Film Town Branch),"113.955310,34.786329",34.786329,113.955310,3.8,Must-Eat Top 10
Ultraman Theme Restaurant Monster Branch,Zhengzhou,34.789259,113.986234,63.0,Chinese Restaurant;Chinese Restaurant,11:00,18:00,Zhipu Hotel Zhengzhou Zhongmu (Only Henan Film Town Branch),"113.955310,34.786329",34.786329,113.955310,3.9,Birthday Package
Ultraman Themed Restaurant - Hero Branch,Zhengzhou,34.786826,113.988821,86.0,Chinese Restaurant;Chinese Restaurant,11:00,21:00,Zhipu Hotel Zhengzhou Zhongmu (Only Henan Film Town Branch),"113.955310,34.786329",34.786329,113.955310,4.0,Must-Eat Top 10;Birthday Package
Zhongmou Yangji Large Plate Chicken Small Restaurant,Zhengzhou,34.756800,113.944461,100.0,Chinese Restaurant;Chinese Restaurant,08:00,23:15,Zhipu Hotel Zhengzhou Zhongmu (Only Henan Film Town Branch),"113.955310,34.786329",34.786329,113.955310,3.7,Private Room;Birthday Package
Brothers Gourmet Small Restaurant,Zhengzhou,34.805008,113.919082,100.0,Chinese Restaurant;Chinese Restaurant,08:00,23:00,Zhipu Hotel Zhengzhou Zhongmu (Only Henan Film Town Branch),"113.955310,34.786329",34.786329,113.955310,3.6,Birthday Package;Online Queue
Old Flavor Roast Whole Lamb,Zhengzhou,34.902822,113.633591,73.0,Chinese Restaurant;Chinese Restaurant,10:00,23:00,Yellow River Scenic Area,"113.630000,34.920000",34.920000,113.630000,4.2,Outdoor Seating;Waiting Area
Fusion Restaurant (Yifeng Forest Lake Branch),Zhengzhou,34.897770,113.618020,100.0,Chinese Restaurant;General Restaurant,17:00,21:00,Yellow River Scenic Area,"113.630000,34.920000",34.920000,113.630000,4.3,Online Queue
Cailan Sister Ecological Organic Restaurant,Zhengzhou,34.897676,113.617674,100.0,Food Service Related;Food Service Related,11:00,21:00,Yellow River Scenic Area,"113.630000,34.920000",34.920000,113.630000,2.8,Must-Eat Top 10;Private Room
Wang Wang Small Eatery,Zhengzhou,34.901524,113.668069,100.0,Chinese Restaurant;Chinese Restaurant,11:00,21:00,Yellow River Scenic Area,"113.630000,34.920000",34.920000,113.630000,2.4,Online Queue
Luoshan Fisherman's Delight Restaurant,Zhengzhou,34.903556,113.670261,63.0,Chinese Restaurant;Chinese Restaurant,10:00,23:00,Yellow River Scenic Area,"113.630000,34.920000",34.920000,113.630000,4.3,Waiting Area
