poi_name,latitude,longitude,address,poi_type
胡里山炮台,24.425286,118.125370,,attraction
菽庄花园,24.439553,118.068954,,attraction
白城沙滩,24.432104,118.102892,,attraction
厦门大学思明校区,24.436084,118.101683,,attraction
黄厝海滩,24.442614,118.161900,,attraction
环岛南路,24.431470,118.142622,,attraction
鳌园,24.565019,118.107443,,attraction
沙坡尾艺术西区,24.437609,118.087587,,attraction
环岛路,24.425000,118.125000,,attraction
皓月园,24.441099,118.075936,,attraction
厦门大学国际学术交流中心中餐厅,24.438323,118.098663,,restaurant
红厝灶咖·赖记小厨·原妞妞闽菜餐厅(厦大店),24.439167,118.092371,,restaurant
厦门大学思明校区勤业餐厅,24.438151,118.100286,,restaurant
小厝里砂锅焗海鲜(厦大店),24.437842,118.093059,,restaurant
金海湾·姜母鸭·海鲜餐厅(厦门大学店),24.437175,118.092820,,restaurant
想木目心墨西哥餐厅,24.435931,118.093939,,restaurant
名苑餐厅(大学城商场店),24.437025,118.092127,,restaurant
余毅谦海景餐厅,24.425358,118.124858,,restaurant
临家闽南菜(环岛路店),24.424218,118.124715,,restaurant
WANNA·望那儿落日峡谷海景餐吧,24.424150,118.124644,,restaurant
欢囍芒果糯米饭(曾厝安店),24.426987,118.125449,,restaurant
佳丽海鲜酒楼(环岛路店),24.423277,118.124971,,restaurant
阿里元餐厅(曾厝垵店),24.426628,118.123478,,restaurant
祝名平价海鲜古树海景餐厅(曾厝垵店),24.426359,118.123234,,restaurant
祝名海鲜平价活鲜海景餐厅(曾厝垵店),24.426436,118.123210,,restaurant
老闽味姜母鸭·煎蟹闽菜餐厅(曾厝垵地标店),24.427532,118.124499,,restaurant
格兰阁艺术中心·无国界融合料理(环岛路360度全海景餐厅),24.423458,118.127330,,restaurant
猫岛主趣味餐厅,24.442736,118.068569,,restaurant
音乐海鲜餐厅,24.443658,118.069567,,restaurant
古厝花园餐厅,24.443323,118.069694,,restaurant
六悦花园中餐厅(鼓浪屿店),24.440870,118.066559,,restaurant
黄家花园餐厅,24.440881,118.069643,,restaurant
老厦门海鲜餐厅(鼓浪屿店),24.442886,118.070977,,restaurant
赵小姐的店(鼓浪屿音乐厅店),24.443387,118.071405,,restaurant
海怪先生西餐厅(鼓浪屿美食地标),24.442379,118.072770,,restaurant
福林春餐厅,24.443529,118.071283,,restaurant
沈家闽南肠粉,24.443839,118.071394,,restaurant
鑫鑫落日海景海鲜餐厅(胡里山炮台地标店),24.430225,118.105575,,restaurant
厦门大学思明校区海滨食堂,24.432239,118.106511,,restaurant
厦门大学思明校区芙蓉餐厅,24.435738,118.102250,,restaurant
厦门大学思明校区东苑餐厅,24.436082,118.102090,,restaurant
厦门大学思明校区南光餐厅,24.435021,118.099579,,restaurant
鼎鸿粤皇茶餐厅|融闽粤茶点滋味(厦大店),24.434682,118.094421,,restaurant
数星园-粉夏pink·海景咖啡餐厅,24.441731,118.160292,,restaurant
荣誉梵尔纳美人鱼自助餐厅,24.445275,118.161975,,restaurant
树屋餐厅,24.443514,118.158633,,restaurant
海渔家餐厅,24.443588,118.158408,,restaurant
大厨的餐厅(黄厝分店),24.443209,118.158267,,restaurant
海强海鲜餐厅,24.443288,118.158187,,restaurant
依海人家海鲜餐厅,24.443044,118.158028,,restaurant
品鲜海鲜餐厅,24.443324,118.158018,,restaurant
黄厝木港海鲜餐厅,24.443040,118.157923,,restaurant
闽南郎姜母鸭餐厅,24.443878,118.157896,,restaurant
相域缘餐厅,24.428825,118.142325,,restaurant
厦门金沙湾宾馆(环岛路黄厝沙滩店)·中餐厅,24.429444,118.144577,,restaurant
厦门靠山吃海餐厅,24.433566,118.140707,,restaurant
亚洲海湾大酒店(海逸西餐厅店),24.431861,118.145638,,restaurant
湖畔亭海鲜·地道厦门菜(黄厝店),24.435298,118.141147,,restaurant
朋来阁餐厅,24.428541,118.138608,,restaurant
阿肥发自助餐厅,24.436450,118.143986,,restaurant
厦门海悦山庄酒店自助餐厅(地中海餐厅),24.435131,118.147812,,restaurant
香茶宫福建菜餐厅(海悦山庄店),24.435441,118.149148,,restaurant
白石海景Live餐酒吧,24.422623,118.134152,,restaurant
福星餐厅,24.444853,118.071253,,restaurant
大洋海鲜餐厅·锋味厦门菜(鼓浪屿总店),24.443972,118.071379,,restaurant
憨小宝餐厅,24.567794,118.103276,,restaurant
有时有泰·泰式料理餐厅(大社店),24.569090,118.102558,,restaurant
1996H·Decade,24.569128,118.103205,,restaurant
鱼嘉乐茶餐厅,24.567102,118.105101,,restaurant
蘭芳里茶餐厅,24.567353,118.105960,,restaurant
厦门兰芳里南洋花砖美宅智能民宿·蘭芳里茶餐厅,24.567377,118.105960,,restaurant
见南洋东南亚餐厅(公园路店),24.567413,118.105768,,restaurant
动哒餐室·港澳融合新式茶餐厅,24.568973,118.105997,,restaurant
古味坊餐厅(集美店),24.569706,118.105912,,restaurant
舒味海鲜,24.572531,118.105727,,restaurant
芋包嫂,24.438669,118.088652,,restaurant
天空餐厅(世茂Emall店),24.436114,118.088357,,restaurant
太哼冰室(厦门世茂Emall店),24.435739,118.088519,,restaurant
迦兰·泰式料理(世茂Emall店),24.435575,118.088347,,restaurant
厦门康莱德酒店鹭城轩中餐厅,24.435284,118.089187,,restaurant
38号码头餐厅(厦门康莱德酒店),24.435310,118.089352,,restaurant
渔家海鲜舫(蜂巢山路),24.441171,118.088933,,restaurant
食客家自选餐厅,24.441840,118.089551,,restaurant
海鲜生海景餐厅,24.425927,118.122524,,restaurant
三宝尚鲜餐厅,24.444598,118.072426,,restaurant
张三疯奶茶铺(鼓浪屿三友店),24.444866,118.072289,,restaurant
美味快餐厅(翔云三路店),24.533940,118.137455,,restaurant
佰味佳香港餐厅(机场店),24.534923,118.136693,,restaurant
食代多元餐厅(中骏大厦第2、3座店),24.534724,118.139251,,restaurant
思北花生汤,24.457171,118.079633,,restaurant
鑫阿强姜母鸭阿强煎蟹,24.456980,118.082161,,restaurant
RoseMary香草餐厅(大同路店),24.457735,118.081951,,restaurant
佳味香速餐厅,24.449502,118.081565,,restaurant
厦门海景千禧大酒店(龙苑中餐厅),24.451175,118.082475,,restaurant
大众鑫餐厅,24.451165,118.081831,,restaurant
好惠多现炒自选餐厅(广宇公寓店),24.559247,118.034516,,restaurant
真食荟餐馆,24.568379,118.030860,,restaurant
豪客来牛排(厦门杏林杏南餐厅),24.562357,118.041413,,restaurant
厦门华美达广场酒店-中餐厅,24.689244,118.122577,,restaurant
西域老马餐厅总店,24.690287,118.122586,,restaurant
七桃里音乐餐厅,24.691390,118.122460,,restaurant
大众餐厅(圣岩路店),24.642909,118.068194,,restaurant
江西餐馆(厦门高铁阳光花园店),24.630965,118.069474,,restaurant
旺角餐馆(大学城商业街店),24.634523,118.087878,,restaurant
兴恒大酒店自助餐厅(马巷店),24.672113,118.250867,,restaurant
古镇驿站柴火灶餐厅,24.670702,118.248576,,restaurant
小朱茶档,24.673303,118.247401,,restaurant
厦门万丽酒店·万丽轩中餐厅,24.607532,118.138254,,restaurant
遇见西木美式餐厅(同安店),24.610536,118.138608,,restaurant
小厝里砂锅焗海鲜(厦门阳光小镇店),24.610670,118.138763,,restaurant
面之缘餐馆,24.657646,118.156380,,restaurant
老蔡餐厅,24.656925,118.155825,,restaurant
闽北知者来餐厅(环东海城思明工业园职工之家店),24.651305,118.160439,,restaurant
金福缘餐厅,24.532581,118.163795,,restaurant
闽南湾·闽南风情餐厅·宵夜畅饮,24.527475,118.163425,,restaurant
一品瓦罐餐厅,24.533456,118.163977,,restaurant
钟正餐厅(水岸豪景店),24.496735,118.129805,,restaurant
青藤阁有机餐厅(江头店),24.497322,118.130549,,restaurant
大嶝渔村餐厅,24.497855,118.129315,,restaurant
Panzi(大洲城市花园店),24.472690,118.113372,,restaurant
将军匙海鲜餐厅(八市海景店),24.460275,118.073455,,restaurant
Qing青浅餐厅融合厦门菜(曾厝垵店),24.428309,118.124718,,restaurant
老牌正宗川菜(火车站店),24.473266,118.115618,,restaurant
郑言餐厅(莲成大厦店),24.477369,118.140743,,restaurant
厦门艾美酒店·新食谱西餐厅,24.500480,118.093884,,restaurant
阿光快捷餐厅(竹坑店),24.505671,118.094217,,restaurant
佳味鲜速食餐厅(竹坑店),24.505773,118.093798,,restaurant
自贸区餐厅,24.548628,118.125922,,restaurant
金成中式自选餐厅,24.548476,118.125751,,restaurant
林记餐厅(嘉福花园1期店),24.548426,118.115577,,restaurant
大拇指快餐厅(环城南路店),24.714272,118.138863,,restaurant
野草莓自由市场,24.459099,118.073074,,restaurant
鹭芝味姜母鸭海鲜加工(八市店),24.459575,118.074825,,restaurant
岁粤茶餐厅(罗宾森店),24.469325,118.113825,,restaurant
钟正海鲜餐厅(万象城店),24.471112,118.109665,,restaurant
亚煌现炒餐厅(鑫阳公寓店),24.471419,118.109597,,restaurant
安达仕酒店·壹佰零壹號中餐厅,24.471724,118.109757,,restaurant
磐基希尔顿酒店·悦园中餐厅,24.481882,118.120476,,restaurant
G.O今橄榄(磐基中心店),24.482024,118.120909,,restaurant
星仔冰室(磐基中心店),24.482327,118.120266,,restaurant
佳御楼餐厅(同安店),24.712444,118.145615,,restaurant
集哥·骚烤餐吧(城南店),24.715471,118.147160,,restaurant
稀岸轻奢公寓酒店(翔安马巷店),24.671150,118.250059,马巷街道巷西三里117号,hotel
安曼酒店(同安店),24.659410,118.162028,"厦门同安区吕厝一里1号, 中国",hotel
厦门汉景华美达广场酒店,24.689000,118.122030,厦门市同安区梧侣路241号,hotel
厦门喜来登酒店,24.495081,118.128705,嘉禾路386-1号 ，临近SM城市广场二期,hotel
厦门X未来酒店（环岛路曾厝垵店）,24.428037,118.123389,曾厝垵北路158号,hotel
厦门牡丹国际大酒店,24.477058,118.144844,莲前西路568号（近明发商业广场、会展中心）。,hotel
厦门百琪万怡酒店,24.553066,118.123449,高崎北路439号,hotel
厦门艾美酒店,24.500407,118.093951,南山冠军路7号,hotel
全季厦门中山路酒店,24.449200,118.084000,厦门市思明南路291号,hotel
厦门仙岳公园南山路亚朵酒店,24.502141,118.096675,厦门市湖里区南山西路336号,hotel
厦门机场五缘湾亚朵酒店,24.530388,118.164650,钟岭路6号,hotel
厦门万丽酒店,24.608843,118.137612,同安区观滨路 66 号,hotel
厦门同安源宿酒店,24.606716,118.137791,同安区观滨路 22 号,hotel
厦门磐基希尔顿酒店,24.481923,118.120685,嘉禾路199号，直通莲花路口地铁站，近明发商业广场、万象城,hotel
厦门集美杏林湾希尔顿欢朋酒店,24.563904,118.034843,中国福建省厦门市集美区日东二路289号主楼,hotel
厦门同安城南希尔顿欢朋酒店,24.715116,118.141664,中国福建省厦门市同安区环城南路379号,hotel
如家·neo-厦门火车站万象城湖滨东路地铁站店,24.471686,118.113870,厦门市思明区禾祥东路108号,hotel
汉庭厦门中山路第一码头海景酒店,24.460100,118.073000,鹭江道218-228号,hotel
汉庭厦门万象城酒店,24.470893,118.109590,厦门市思明区禾祥东路23号,hotel
汉庭厦门中山路步行街大同路酒店,24.456940,118.080606,福建省厦门思明区大同路280-308号,hotel
高崎国际机场,24.539495,118.137090,禾山街道翔云一路121号,airport
白塔国际机场,40.853491,111.826401,机场路,airport
正定国际机场,24.539495,118.137090,禾山街道翔云一路121号,airport
新桥国际机场,40.853491,111.826401,机场路,airport
龙嘉国际机场,40.853491,111.826401,机场路,airport
厦门北站,24.636977,118.073909,珩圣路399号,train_station
呼和浩特东站,40.851074,111.765256,万通路南店村,train_station
北京北站,24.636977,118.073909,珩圣路399号,train_station
北京南站,40.674794,111.570998,呼市绕城高速附近,train_station
清河站,24.474834,118.129658,东浦路248-256号,train_station
呼和浩特站,40.831275,111.665480,车站东街41号,train_station
智膳团美峰餐厅(美峰创谷店),24.613066,118.137583,,restaurant
聂府餐馆,24.609428,118.131954,,restaurant
滇彝部落·音乐餐厅(美峰创谷店),24.615117,118.139905,,restaurant
厦门高崎国际机场,24.539495,118.137090,禾山街道翔云一路121号,airport
呼和浩特白塔国际机场,40.853491,111.826401,机场路,airport
内蒙古民航机场集团职工餐厅,40.856724,111.826663,,restaurant
胡德蒙式餐馆(车站西街西马路店),40.827925,111.662475,,restaurant
福汇自助餐厅,40.827633,111.662778,,restaurant
长者餐厅,40.833431,111.659639,,restaurant
资小馆·哥伦比亚西餐厅,40.829382,111.672781,,restaurant
西摩意大利花园餐厅(喜来登店),40.825483,111.669966,,restaurant
内蒙古万浩大酒店-中餐厅,40.851661,111.757430,,restaurant
徽商星辰·餐厅(海东一号小区店),40.857243,111.764983,,restaurant
王府井奥莱肯德基餐厅(王府井奥莱如意小镇店),40.844692,111.766605,,restaurant
智选假日酒店-中餐厅,40.842104,111.776739,,restaurant
成都川菜馆(滨水新村店),40.854646,111.747514,,restaurant
匠心美食餐厅,24.632524,118.087840,,restaurant
集美苑餐厅(大学城商业街店),24.631394,118.087409,,restaurant
牡丹国际大酒店自助茶餐厅,24.476823,118.145084,,restaurant
金楠洋·海鲜餐厅(西林店),24.477101,118.144478,,restaurant
宗记鹅肉餐厅,24.476077,118.145789,,restaurant
嘉芳餐厅(金鸡亭花园小区东区店),24.474868,118.145734,,restaurant
青竹园餐厅,24.504395,118.100495,,restaurant
鑫林滨餐厅(鹭辉大厦店),24.505039,118.100728,,restaurant
钟鼓索道,24.452775,118.094162,,attraction
小眼镜大排档(万佳东方店),24.453992,118.092695,,restaurant
熊猫餐厅,24.453912,118.092370,,restaurant
茶油香闽南菜·空中餐厅(厦门大学店),24.454143,118.091873,,restaurant
厦门植物园棕野云涧茶餐厅,24.452881,118.097155,,restaurant
白鹭员工餐厅(白鹭宾馆店),24.454478,118.091330,,restaurant
盈翠餐厅,24.452932,118.090325,,restaurant
厦门宾馆中餐厅,24.456623,118.093475,,restaurant
九道传奇养生餐厅,24.456139,118.090982,,restaurant
橙大嘴,24.454071,118.089049,,restaurant
佳乐餐厅·快餐小炒,24.457772,118.092977,,restaurant
观音山梦幻海岸沙滩,24.490845,118.199438,,attraction
新海鱼村,24.488386,118.198907,,restaurant
观音山第一餐厅,24.490835,118.194589,,restaurant
知味餐厅,24.486946,118.196225,,restaurant
丽晶乐吧·茶餐厅,24.487026,118.195362,,restaurant
东东享自选餐厅(塔埔社区东区店),24.494545,118.194046,,restaurant
黑明餐厅(会展店),24.486238,118.193517,,restaurant
粤佳烧鹅港式餐厅(海西金谷广场店),24.493725,118.192275,,restaurant
斋糖厝闽南餐厅小吃·甜品,24.493575,118.191625,,restaurant
豪乐汇海鲜主题餐厅(观音山店),24.486231,118.192358,,restaurant
来福餐厅时尚自选餐厅,24.494435,118.191283,,restaurant
龙头路小吃街,24.445423,118.070021,,attraction
布仔客餐厅,24.445557,118.069775,,restaurant
鼓浪屿龙头鱼丸店只此一家,24.444990,118.070245,,restaurant
楼上餐厅,24.445150,118.070721,,restaurant
真爱码头小吃(龙头路店),24.444813,118.070582,,restaurant
林四喜·闽南传家菜(鼓浪屿店),24.444973,118.070923,,restaurant
小敏沙茶面,24.445354,118.071331,,restaurant
中山路步行街,24.453916,118.079484,,attraction
醉欢喜·闽南餐厅,24.453915,118.079202,,restaurant
QING青浅餐厅融合厦门菜(中山路轮渡店),24.453340,118.079264,,restaurant
回味香餐厅(顺荣大厦),24.453631,118.080254,,restaurant
海影记餐厅,24.454055,118.080520,,restaurant
港记茶餐厅(南中广场),24.454181,118.078409,,restaurant
厦门味道怀旧主题餐厅,24.453278,118.080379,,restaurant
璞云海鲜餐厅(南中广场店),24.454955,118.079450,,restaurant
挑食闽菜小海鲜(中华城店),24.454181,118.078244,,restaurant
双辉煎蟹·闽南小牌档,24.453283,118.080586,,restaurant
清菜家餐厅(南中广场店),24.455113,118.079417,,restaurant
五缘湾湿地公园,24.516071,118.178133,,attraction
五缘水乡酒店鹭鸣楼(中餐厅),24.517745,118.176806,,restaurant
五缘水乡酒店-湖畔全日餐厅,24.514326,118.174867,,restaurant
田里餐厅,24.512477,118.170612,,restaurant
天厦壹玖捌肆中餐厅(厦航总部店),24.510066,118.184682,,restaurant
Del Mar天意意大利餐厅,24.509875,118.185025,,restaurant
海龙船海鲜餐厅,24.519937,118.168885,,restaurant
朗豪酒店-T2餐厅,24.506125,118.177625,,restaurant
连鹭海鲜·南北融合菜·包厢宴请(湖里店),24.507100,118.182975,,restaurant
希尔顿欢朋酒店餐厅,24.507023,118.183733,,restaurant
豪客来牛排(厦门万达餐厅),24.505662,118.177339,,restaurant
日光岩,24.441998,118.067137,,attraction
那私厨(红砖老别墅餐厅),24.444820,118.067696,,restaurant
尚良便利店·南韵屹品餐厅,24.444922,118.067810,,restaurant
红猪餐厅·鼓浪屿华侨料理,24.444404,118.064810,,restaurant
鼓浪海鲜餐厅(鼓浪屿笔山洞店),24.445378,118.064724,,restaurant
曾厝垵,24.425286,118.125370,,attraction
