restaurant_name,city,latitude,longitude,price_per_person,cuisine,opening_time,closing_time,nearby_attraction_name,nearby_attraction_coords,query_latitude,query_longitude,rating
Zhang Manager's Goose Burger,Zhengzhou,34.870717,113.670712,50.0,Fast Food Restaurant;Fast Food Restaurant,09:30,23:00,Yellow River Museum,"113.677764,34.871840",34.871840,113.677764,4.4
Datang Restaurant Shrimp Dumpling Specialty Store (Yingbin Road Branch),Zhengzhou,34.871556,113.665047,90.0,Chinese Restaurant;Local Specialty Restaurant,17:00,21:30,Yellow River Museum,"113.677764,34.871840",34.871840,113.677764,4.5
Zhengzhou Radisson Blu Hotel - Pin Buffet Restaurant,Zhengzhou,34.859568,113.678526,208.0,Food Service Related;Food Service Related,11:00,22:00,Yellow River Museum,"113.677764,34.871840",34.871840,113.677764,4.1
Zhengzhou Normal University East Campus Jingxinyuan Restaurant,Zhengzhou,34.863435,113.659282,100.0,Chinese Restaurant;Chinese Restaurant,11:00,21:00,Yellow River Museum,"113.677764,34.871840",34.871840,113.677764,4.2
Xinyang Fusion Restaurant,Zhengzhou,34.889033,113.574616,32.0,Chinese Restaurant;Chinese Restaurant,11:00,22:00,Huiji Bridge Ruins Park,"113.585469,34.892354",34.892354,113.585469,3.8
Convenience Restaurant,Zhengzhou,34.886025,113.569690,100.0,Chinese Restaurant;Chinese Restaurant,11:00,21:00,Huiji Bridge Ruins Park,"113.585469,34.892354",34.892354,113.585469,2.2
KFC Drive-Thru Restaurant (Jiangshan Road DT Branch),Zhengzhou,34.880231,113.572945,100.0,Food Service Related;Food Service Related,11:00,21:00,Huiji Bridge Ruins Park,"113.585469,34.892354",34.892354,113.585469,3.7
Han Feng Yuan BBQ and Hotpot Buffet Restaurant (Asia Joy City Branch),Zhengzhou,34.751785,113.667704,80.0,Chinese Restaurant;Chinese Restaurant,11:00,23:30,Erqi Memorial Hall,"113.666494,34.752186",34.752186,113.666494,4.7
Yuehai Hotel Xuan Palace Western Restaurant (Erqi Square),Zhengzhou,34.749629,113.667658,111.0,Foreign Restaurant;Western Restaurant,10:00,23:00,Erqi Memorial Hall,"113.666494,34.752186",34.752186,113.666494,3.9
Yuehai Hotel - Yuehai Pavilion Chinese Restaurant,Zhengzhou,34.749142,113.667796,100.0,Chinese Restaurant;Chinese Restaurant,11:00,21:00,Erqi Memorial Hall,"113.666494,34.752186",34.752186,113.666494,3.9
"Hu Ya Stir-Fried Chicken (Erqi MixC Mall, Zhengzhou, Henan Branch)",Zhengzhou,34.754815,113.662798,55.0,Chinese Restaurant;Chinese Restaurant,10:00,22:00,Erqi Memorial Hall,"113.666494,34.752186",34.752186,113.666494,4.6
Jixu Folk Music Barbecue Restaurant (Zhengzhou Guangcai Branch),Zhengzhou,34.755287,113.669676,72.0,Chinese Restaurant;Chinese Restaurant,18:00,02:30,Erqi Memorial Hall,"113.666494,34.752186",34.752186,113.666494,4.6
Green Tea Restaurant (Zhengzhou MixC Mall Branch),Zhengzhou,34.754667,113.662403,100.0,Chinese Restaurant;Chinese Restaurant,11:00,21:00,Erqi Memorial Hall,"113.666494,34.752186",34.752186,113.666494,4.6
Zhengzhou Zhengbai Restaurant (Zhengzhou Department Store Building Branch),Zhengzhou,34.756286,113.668080,100.0,Chinese Restaurant;Chinese Restaurant,09:30,21:00,Erqi Memorial Hall,"113.666494,34.752186",34.752186,113.666494,3.9
Route Five Restaurant Stone-Grilled Steak (David City Branch),Zhengzhou,34.756777,113.666316,128.0,Fast Food Restaurant;Fast Food Restaurant,11:00,22:00,Erqi Memorial Hall,"113.666494,34.752186",34.752186,113.666494,4.7
Manyu (Dennis David Plaza Branch),Zhengzhou,34.756848,113.666241,90.0,服装鞋帽皮具店;服装鞋帽皮具店,11:00,21:00,Erqi Memorial Hall,"113.666494,34.752186",34.752186,113.666494,4.7
Jiang Aqiao Tart Noodle (Grand Shanghai Branch),Zhengzhou,34.755928,113.670393,100.0,Chinese Restaurant;Chinese Restaurant,10:30,21:30,Erqi Memorial Hall,"113.666494,34.752186",34.752186,113.666494,4.5
Ginkgo Tree Seafood Restaurant (Jinshui Road Branch),Zhengzhou,34.763326,113.684358,100.0,Chinese Restaurant;Seafood Restaurant,17:00,22:00,Zijing Mountain Park,"113.687708,34.761890",34.761890,113.687708,4.6
Government Office Restaurant Fast Food Section,Zhengzhou,34.764882,113.689757,100.0,Fast Food Restaurant;Fast Food Restaurant,11:00,21:00,Zijing Mountain Park,"113.687708,34.761890",34.761890,113.687708,3.8
Tanghou Kexing Tea Banquet,Zhengzhou,34.764738,113.684978,93.0,Tea House;Tea House|购物相关场所;购物相关场所,09:30,23:00,Zijing Mountain Park,"113.687708,34.761890",34.761890,113.687708,4.3
Sofitel International Hotel (Yueweixian Chinese Restaurant),Zhengzhou,34.761932,113.692486,204.0,Chinese Restaurant;Chinese Restaurant,17:30,22:00,Zijing Mountain Park,"113.687708,34.761890",34.761890,113.687708,4.1
Zhengzhou Zhongzhou Holiday Inn Express Hotel Restaurant,Zhengzhou,34.762887,113.692533,100.0,Cafe;Cafe,11:00,21:00,Zijing Mountain Park,"113.687708,34.761890",34.761890,113.687708,4.1
Zhengzhou Sofitel International Hotel · Dome Western Restaurant,Zhengzhou,34.761863,113.692708,237.0,Foreign Restaurant;Western Restaurant,11:00,21:30,Zijing Mountain Park,"113.687708,34.761890",34.761890,113.687708,4.2
Starshine Restaurant,Zhengzhou,34.764980,113.691112,100.0,Chinese Restaurant;Chinese Restaurant,11:00,21:00,Zijing Mountain Park,"113.687708,34.761890",34.761890,113.687708,2.6
Zijingshan Hotel - Restaurant,Zhengzhou,34.764942,113.691889,100.0,Chinese Restaurant;Chinese Restaurant,07:00,20:00,Zijing Mountain Park,"113.687708,34.761890",34.761890,113.687708,4.0
Fang Zhongshan Spicy Soup (Headquarters),Zhengzhou,34.760065,113.682462,15.0,Chinese Restaurant;Halal Restaurant,05:00,13:30,Zijing Mountain Park,"113.687708,34.761890",34.761890,113.687708,4.5
Hongyuan Restaurant,Zhengzhou,34.761674,113.693653,100.0,Chinese Restaurant;Cantonese Cuisine,17:30,21:30,Zijing Mountain Park,"113.687708,34.761890",34.761890,113.687708,3.9
Mama Restaurant (Chengdong Road Branch),Zhengzhou,34.748675,113.691225,15.0,Chinese Restaurant;Chinese Restaurant,17:30,21:00,Zhengzhou Confucian Temple,"113.688345,34.748659",34.748659,113.688345,4.4
Zhenyu Chuan Banquet Center,Zhengzhou,34.747760,113.691761,100.0,Chinese Restaurant;Chinese Restaurant,17:00,21:00,Zhengzhou Confucian Temple,"113.688345,34.748659",34.748659,113.688345,4.7
Henan University Affiliated Zhengzhou First People's Hospital · Nutrition Restaurant,Zhengzhou,34.750370,113.685219,100.0,Chinese Restaurant;Chinese Restaurant,11:00,21:00,Zhengzhou Confucian Temple,"113.688345,34.748659",34.748659,113.688345,3.7
Minyu Chinese Restaurant (Jinduo Yinduo Jewelry Store),Zhengzhou,34.748684,113.681630,90.0,Chinese Restaurant;Fujian Cuisine,10:00,22:00,Zhengzhou Confucian Temple,"113.688345,34.748659",34.748659,113.688345,4.0
Old Wu Meow Cafe · Cat-themed Restaurant (New World Department Store Branch),Zhengzhou,34.752925,113.682675,28.0,Food Service Related;Food Service Related,09:30,21:30,Zhengzhou Confucian Temple,"113.688345,34.748659",34.748659,113.688345,4.3
Henan Provincial Academy of Traditional Chinese Medicine Affiliated Hospital Restaurant,Zhengzhou,34.755083,113.685722,100.0,Chinese Restaurant;Chinese Restaurant,17:00,19:30,Zhengzhou Confucian Temple,"113.688345,34.748659",34.748659,113.688345,3.8
Yutong Retired Staff Cafeteria (Yutong Garden Zhengbian Road No. 42 Courtyard Store),Zhengzhou,34.747100,113.697080,100.0,Chinese Restaurant;Chinese Restaurant,11:00,21:00,Zhengzhou Confucian Temple,"113.688345,34.748659",34.748659,113.688345,3.6
Mama Restaurant,Zhengzhou,34.745025,113.680175,100.0,Chinese Restaurant;Chinese Restaurant,11:00,21:00,Zhengzhou Confucian Temple,"113.688345,34.748659",34.748659,113.688345,3.6
Erguang Restaurant,Zhengzhou,34.757454,113.691651,66.0,Chinese Restaurant;Halal Restaurant,17:30,22:00,Zhengzhou Confucian Temple,"113.688345,34.748659",34.748659,113.688345,4.4
Royal Dining Hall · Medicinal Cuisine Restaurant (Yuxi Building Branch),Zhengzhou,34.747991,113.699877,100.0,Chinese Restaurant;Chinese Restaurant,11:00,21:00,Zhengzhou Confucian Temple,"113.688345,34.748659",34.748659,113.688345,3.4
Little Taste Restaurant,Zhengzhou,34.740996,113.539988,100.0,Chinese Restaurant;Chinese Restaurant,11:00,21:00,Zhengzhou Museum New Hall,"113.546720,34.739600",34.739600,113.546720,3.6
Zhengzhou Olympic Sports Jianguo Hotel - Seafood Buffet Restaurant,Zhengzhou,34.739770,113.537534,100.0,Chinese Restaurant;Chinese Restaurant,17:00,21:00,Zhengzhou Museum New Hall,"113.546720,34.739600",34.739600,113.546720,4.0
Zhengzhou Aoti Jianguo Hotel All-Day Dining Restaurant,Zhengzhou,34.740659,113.537609,100.0,Food Service Related;Food Service Related,17:30,21:00,Zhengzhou Museum New Hall,"113.546720,34.739600",34.739600,113.546720,4.2
Jiuguo Restaurant,Zhengzhou,34.739579,113.561973,100.0,Chinese Restaurant;Chinese Restaurant,11:00,21:00,Zhengzhou Museum New Hall,"113.546720,34.739600",34.739600,113.546720,3.6
Peony Restaurant (Yi'er Hotel Management Company),Zhengzhou,34.739995,113.562140,100.0,Chinese Restaurant;Chinese Restaurant,07:30,15:00,Zhengzhou Museum New Hall,"113.546720,34.739600",34.739600,113.546720,4.1
M Art Restaurant Qidesheng · Beef Noodles,Zhengzhou,34.739800,113.563173,100.0,Chinese Restaurant;Chinese Restaurant,11:00,21:00,Zhengzhou Museum New Hall,"113.546720,34.739600",34.739600,113.546720,4.0
Waku No. 50 (Kaixuan Road Store),Zhengzhou,34.740377,113.563327,100.0,Food Service Related;Food Service Related,09:00,23:00,Zhengzhou Museum New Hall,"113.546720,34.739600",34.739600,113.546720,4.7
Twin Seasons Dessert Fusion Restaurant (Yaoqiao Community North Courtyard Branch),Zhengzhou,34.813115,113.795071,27.0,甜品店;甜品店,11:00,22:00,Beilong Lake Wetland Park,"113.789100,34.812300",34.812300,113.789100,4.4
Xuange Music Dining Bar,Zhengzhou,34.809266,113.793947,100.0,Chinese Restaurant;Chinese Restaurant,11:00,21:00,Beilong Lake Wetland Park,"113.789100,34.812300",34.812300,113.789100,3.9
Shijianli Fusion Restaurant,Zhengzhou,34.818459,113.794111,100.0,Food Service Related;Food Service Related,11:00,21:00,Beilong Lake Wetland Park,"113.789100,34.812300",34.812300,113.789100,3.8
Lakeside Restaurant,Zhengzhou,34.803494,113.786967,100.0,Chinese Restaurant;Chinese Restaurant,11:00,21:00,Beilong Lake Wetland Park,"113.789100,34.812300",34.812300,113.789100,3.5
Coarse Grain Little Chef Lamb Skewers & Stir-Fried Chicken,Zhengzhou,34.809780,113.800337,53.0,Chinese Restaurant;General Restaurant,10:00,23:00,Beilong Lake Wetland Park,"113.789100,34.812300",34.812300,113.789100,4.1
Enjoy Baiwei Shangshang Hotpot Buffet Restaurant (Shigeng Community Store) (Temporarily Closed),Zhengzhou,34.808834,113.797840,31.0,Food Service Related;Food Service Related,10:00,23:30,Beilong Lake Wetland Park,"113.789100,34.812300",34.812300,113.789100,4.2
Direct Third Hospital Nutrition Restaurant,Zhengzhou,34.767625,113.751240,100.0,Chinese Restaurant;Chinese Restaurant,11:00,21:00,Zhengdong New District CBD,"113.753400,34.769100",34.769100,113.753400,3.8
Supreme Qiangzai (Zhengguang North Street Branch),Zhengzhou,34.771566,113.754982,80.0,Chinese Restaurant;Cantonese Cuisine,17:00,22:00,Zhengdong New District CBD,"113.753400,34.769100",34.769100,113.753400,4.6
Yulongxuan Tea Restaurant (Yuhang Center Branch),Zhengzhou,34.771871,113.755230,100.0,Chinese Restaurant;Chinese Restaurant,09:00,22:30,Zhengdong New District CBD,"113.753400,34.769100",34.769100,113.753400,3.6
Hairong Grand Hotel Western Restaurant,Zhengzhou,34.768486,113.749551,60.0,Foreign Restaurant;Western Restaurant,06:30,22:00,Zhengdong New District CBD,"113.753400,34.769100",34.769100,113.753400,3.8
Guangyi Xinyang Maojian Tea Restaurant (Yuhang Branch),Zhengzhou,34.771881,113.755782,100.0,Specialty Store;Exclusive Store,11:00,21:00,Zhengdong New District CBD,"113.753400,34.769100",34.769100,113.753400,3.7
Xin Shi Lin Holiday Hotel - Element Restaurant,Zhengzhou,34.771175,113.757935,73.0,Chinese Restaurant;Chinese Restaurant,11:00,21:00,Zhengdong New District CBD,"113.753400,34.769100",34.769100,113.753400,4.2
Meisheng Sheraton Grand Hotel - Feast Signature Restaurant,Zhengzhou,34.764000,113.754711,260.0,Foreign Restaurant;Western Restaurant,17:30,21:30,Zhengdong New District CBD,"113.753400,34.769100",34.769100,113.753400,4.3
Sheng · Star Court Steak Restaurant,Zhengzhou,34.763882,113.754664,100.0,Foreign Restaurant;Western Restaurant,17:30,21:00,Zhengdong New District CBD,"113.753400,34.769100",34.769100,113.753400,3.8
Tianmingfang Five-Flavored Medicinal Cuisine Restaurant,Zhengzhou,34.772309,113.759111,279.0,Chinese Restaurant;Chinese Restaurant,17:30,21:00,Zhengdong New District CBD,"113.753400,34.769100",34.769100,113.753400,4.3
Song Style Elegant Banquet · Song Culture Restaurant (Shangzuo Center Branch),Zhengzhou,34.763443,113.756145,212.0,Chinese Restaurant;Chinese Restaurant,17:00,21:00,Zhengdong New District CBD,"113.753400,34.769100",34.769100,113.753400,4.6
Hao Ke Lai Steak (Chongqing Longfor Jinsha Paradise Walk Restaurant),Zhengzhou,29.554115,106.460720,67.0,Foreign Restaurant;Western Restaurant,10:00,22:00,Shapingba Station,"106.460662,29.554118",29.554118,106.460662,4.5
Senlan Restaurant (Longfor Chongqing Jinsha Paradise Walk Branch),Zhengzhou,29.554352,106.461010,147.0,Foreign Restaurant;Western Restaurant|公司企业;公司;公司,11:00,22:00,Shapingba Station,"106.460662,29.554118",29.554118,106.460662,4.5
The Murray Restaurant (Jinsha Tianjie Store),Zhengzhou,29.554039,106.461172,60.0,购物相关场所;购物相关场所,11:00,21:00,Shapingba Station,"106.460662,29.554118",29.554118,106.460662,4.4
Hot Plate and Rosemary Western Restaurant (Jinsha Sky Street Branch),Zhengzhou,29.554285,106.461607,67.0,Foreign Restaurant;Foreign Restaurant,11:00,21:00,Shapingba Station,"106.460662,29.554118",29.554118,106.460662,4.7
New Play Restaurant (Jinsha Tianjie Branch),Zhengzhou,29.554124,106.461646,85.0,Chinese Restaurant;Chinese Restaurant,10:00,22:00,Shapingba Station,"106.460662,29.554118",29.554118,106.460662,4.2
Lounge Restaurant,Zhengzhou,34.754747,113.783314,100.0,Chinese Restaurant;General Restaurant,10:00,22:00,Zhengzhou East Station,"113.779558,34.759081",34.759081,113.779558,3.7
Zhengzhou Heson Eastin Hotel · Heart Residence Restaurant (Greenland Colorful City Branch),Zhengzhou,34.761864,113.772727,125.0,Chinese Restaurant;Chinese Restaurant,06:30,24:00,Zhengzhou East Station,"113.779558,34.759081",34.759081,113.779558,4.1
Lantingxu Tea Restaurant,Zhengzhou,34.753801,113.774832,100.0,Fast Food Restaurant;Fast Food Restaurant,09:00,22:00,Zhengzhou East Station,"113.779558,34.759081",34.759081,113.779558,4.5
Xiaomi La Delicious Restaurant,Zhengzhou,29.611091,106.551772,25.0,Fast Food Restaurant;Fast Food Restaurant,06:00,23:30,Chongqing North Station,"106.550943,29.609826",29.609826,106.550943,3.5
Baba Restaurant (North Square of Train Station Branch),Zhengzhou,29.612523,106.549853,24.0,Chinese Restaurant;Chinese Restaurant,11:00,21:00,Chongqing North Station,"106.550943,29.609826",29.609826,106.550943,3.8
Chuan Yu Time-Honored Restaurant (Huayu Tiangong Plaza Branch),Zhengzhou,29.613718,106.548901,100.0,Chinese Restaurant;Chinese Restaurant,11:00,21:00,Chongqing North Station,"106.550943,29.609826",29.609826,106.550943,3.7
Yudu Restaurant (Huayu Tiangong Plaza Branch),Zhengzhou,29.613983,106.548861,100.0,Chinese Restaurant;Chinese Restaurant,11:00,21:00,Chongqing North Station,"106.550943,29.609826",29.609826,106.550943,3.4
Chongqing North Station Restaurant (Huayu Tiangong Plaza Branch),Zhengzhou,29.613900,106.548621,100.0,Chinese Restaurant;Chinese Restaurant,11:00,21:00,Chongqing North Station,"106.550943,29.609826",29.609826,106.550943,3.7
Xiao Liangkou Restaurant (Zhiji Road Store),Zhengzhou,34.751907,113.440908,13.0,Chinese Restaurant;Chinese Restaurant,10:00,15:30,Zhengzhou West Station,"113.425242,34.744948",34.744948,113.425242,3.9
Ah Xiang Rice Noodles (Zhengzhou Erqi Shanshan Outlet Restaurant),Zhengzhou,34.526573,113.855171,31.0,Chinese Restaurant;Local Specialty Restaurant,06:00,22:00,Xinzheng International Airport,"113.856808,34.528476",34.528476,113.856808,3.7
Zhengzhou Airport Grand Hotel Chinese Restaurant,Zhengzhou,34.528534,113.843450,70.0,Chinese Restaurant;Chinese Restaurant,10:00,21:00,Xinzheng International Airport,"113.856808,34.528476",34.528476,113.856808,4.1
Guangdong Restaurant (Erma Road),Zhengzhou,34.749825,113.660012,100.0,Chinese Restaurant;Cantonese Cuisine,11:00,21:00,Zhengzhou Station,"113.658097,34.745795",34.745795,113.658097,3.7
Nutrition and Health Restaurant,Zhengzhou,34.744171,113.652484,100.0,Chinese Restaurant;Chinese Restaurant,11:00,21:00,Zhengzhou Station,"113.658097,34.745795",34.745795,113.658097,3.5
Yungang Holiday Hotel Restaurant,Zhengzhou,29.723243,106.640111,100.0,Chinese Restaurant;Chinese Restaurant,11:00,21:00,Jiangbei International Airport,"106.657653,29.722563",29.722563,106.657653,3.8
GTC Restaurant,Zhengzhou,29.707450,106.654578,20.0,Chinese Restaurant;Chinese Restaurant,06:00,21:00,Jiangbei International Airport,"106.657653,29.722563",29.722563,106.657653,3.8
Backyard Tea Restaurant (New Dongyi SPACE Branch),Zhengzhou,34.779601,113.699724,114.0,Fast Food Restaurant;Tea Restaurant,10:00,22:00,Orange Hotel Zhengzhou Zhengdong New District Convention and Exhibition Center,"113.702020,34.779780",34.779780,113.702020,4.5
Hu Lamb Chop · Shrimp Hotpot · Nutrition Restaurant (Hongqi Road),Zhengzhou,34.777006,113.702984,37.0,Chinese Restaurant;Hot Pot,10:30,22:00,Orange Hotel Zhengzhou Zhengdong New District Convention and Exhibition Center,"113.702020,34.779780",34.779780,113.702020,4.5
Mi Pi Ji Halal Restaurant (Yaozhai Road Branch),Zhengzhou,34.776594,113.704493,11.0,Chinese Restaurant;Halal Restaurant,10:00,21:00,Orange Hotel Zhengzhou Zhengdong New District Convention and Exhibition Center,"113.702020,34.779780",34.779780,113.702020,4.2
Yuanwei Fusion Tea Restaurant,Zhengzhou,34.778131,113.706295,180.0,Fast Food Restaurant;Fast Food Restaurant,16:00,22:30,Orange Hotel Zhengzhou Zhengdong New District Convention and Exhibition Center,"113.702020,34.779780",34.779780,113.702020,4.0
Super Deer Squad Fitness and Weight Loss Restaurant (Jincheng Times Plaza Branch),Zhengzhou,34.777542,113.706140,24.0,Food Service Related;Food Service Related,08:00,21:00,Orange Hotel Zhengzhou Zhengdong New District Convention and Exhibition Center,"113.702020,34.779780",34.779780,113.702020,3.9
Yunduo Xuan Restaurant (Financial Plaza Branch),Zhengzhou,34.537244,113.826908,168.0,Food Service Related;Food Service Related,10:00,22:00,Atour Hotel Zhengzhou Xinzheng International Airport Huaxia Avenue,"113.826736,34.536927",34.536927,113.826736,4.1
Qiyu Cantonese Tea Restaurant,Zhengzhou,34.540161,113.830394,25.0,Cafe;Cafe|糕饼店;糕饼店,07:00,24:00,Atour Hotel Zhengzhou Xinzheng International Airport Huaxia Avenue,"113.826736,34.536927",34.536927,113.826736,4.1
Fangzhongshan Spicy Soup (Port District First Branch),Zhengzhou,34.537354,113.833042,14.0,Chinese Restaurant;Halal Restaurant,05:30,13:00,Atour Hotel Zhengzhou Xinzheng International Airport Huaxia Avenue,"113.826736,34.536927",34.536927,113.826736,4.5
Zhengzhou Aviation Port District Hongyin Themed Bar,Zhengzhou,34.530293,113.823391,100.0,Chinese Restaurant;Chinese Restaurant,17:00,04:00,Atour Hotel Zhengzhou Xinzheng International Airport Huaxia Avenue,"113.826736,34.536927",34.536927,113.826736,3.5
Zhengzhou Public Security Bureau Traffic Police 12th Division Restaurant,Zhengzhou,34.715080,113.765103,100.0,Chinese Restaurant;Chinese Restaurant,11:00,21:00,Emma King Hotel Zhengzhou,"113.765391,34.707160",34.707160,113.765391,3.3
Southern Windmill Goller International Hotel Chinese Restaurant,Zhengzhou,34.719198,113.764169,100.0,Chinese Restaurant;Chinese Restaurant,17:30,09:30,Emma King Hotel Zhengzhou,"113.765391,34.707160",34.707160,113.765391,4.1
Shishang Restaurant (Beef Bowl),Zhengzhou,34.718823,113.770208,15.0,Chinese Restaurant;General Restaurant,11:00,21:00,Emma King Hotel Zhengzhou,"113.765391,34.707160",34.707160,113.765391,4.2
Zhengzhou Concept Restaurant,Zhengzhou,34.763862,113.693297,100.0,Chinese Restaurant;Chinese Restaurant,11:00,21:00,All Seasons Zhengzhou Jinshui Road Hotel,"113.693000,34.763800",34.763800,113.693000,3.7
Youjinsheng Jewelry Tea Restaurant (Weiye Xianghu Garden Branch),Zhengzhou,34.769988,113.864010,100.0,Fast Food Restaurant;Fast Food Restaurant,11:00,21:00,Hanting Hotel Zhengzhou Xianghu Science and Technology Museum,"113.863000,34.763200",34.763200,113.863000,3.7
Xinwaku Tea Restaurant (Weiye Xianghu Garden Branch),Zhengzhou,34.769990,113.864126,100.0,Fast Food Restaurant;Tea Restaurant,11:00,21:00,Hanting Hotel Zhengzhou Xianghu Science and Technology Museum,"113.863000,34.763200",34.763200,113.863000,3.5
Taste of Shrimp Small Restaurant,Zhengzhou,34.759727,113.853131,100.0,Chinese Restaurant;Chinese Restaurant,10:00,23:00,Hanting Hotel Zhengzhou Xianghu Science and Technology Museum,"113.863000,34.763200",34.763200,113.863000,3.7
Community Assisted Dining Restaurant,Zhengzhou,34.709485,113.791266,100.0,Chinese Restaurant;Chinese Restaurant,11:00,22:00,Holiday Inn Zhengzhou Binhe International (Economic Development Butterfly Lake Park Branch),"113.789610,34.702484",34.702484,113.789610,4.0
Qionglin Banquet · Fusion Restaurant,Zhengzhou,34.694179,113.788699,73.0,Chinese Restaurant;Chinese Restaurant,11:00,22:30,Holiday Inn Zhengzhou Binhe International (Economic Development Butterfly Lake Park Branch),"113.789610,34.702484",34.702484,113.789610,4.4
Diehu Gathering Restaurant,Zhengzhou,34.689808,113.779198,100.0,Food Service Related;Food Service Related,15:00,01:00,Holiday Inn Zhengzhou Binhe International (Economic Development Butterfly Lake Park Branch),"113.789610,34.702484",34.702484,113.789610,4.7
Henan Qiande Second Floor Staff Cafeteria,Zhengzhou,34.691973,113.804440,100.0,Chinese Restaurant;Chinese Restaurant,11:00,21:00,Holiday Inn Zhengzhou Binhe International (Economic Development Butterfly Lake Park Branch),"113.789610,34.702484",34.702484,113.789610,4.1
Haima Neighborhood Center Restaurant (Haima Apartment Branch),Zhengzhou,34.717864,113.796684,100.0,Chinese Restaurant;Chinese Restaurant,11:00,21:00,Holiday Inn Zhengzhou Binhe International (Economic Development Butterfly Lake Park Branch),"113.789610,34.702484",34.702484,113.789610,3.8
Tongshantang Experience Restaurant,Zhengzhou,34.764509,113.745962,100.0,Chinese Restaurant;Chinese Restaurant,08:00,21:00,Chenxi Hotel (Zhengzhou Convention and Exhibition Center Branch),"113.745222,34.764990",34.764990,113.745222,3.8
Qingyuan Tea Restaurant,Zhengzhou,34.765092,113.744012,100.0,Fast Food Restaurant;Tea Restaurant,11:00,21:00,Chenxi Hotel (Zhengzhou Convention and Exhibition Center Branch),"113.745222,34.764990",34.764990,113.745222,3.7
Chujing Restaurant (Provincial Government Branch),Zhengzhou,34.767275,113.746025,138.0,Chinese Restaurant;Chinese Restaurant,17:00,21:30,Chenxi Hotel (Zhengzhou Convention and Exhibition Center Branch),"113.745222,34.764990",34.764990,113.745222,4.7
Jinshui District Committee Office Canteen,Zhengzhou,34.801028,113.659546,100.0,Chinese Restaurant;Chinese Restaurant,11:00,21:00,Hampton by Hilton Zhengzhou East Station Hotel,"113.660000,34.799899",34.799899,113.660000,2.6
Guang Shun Fa · Hong Kong Dim Sum and Soup Tea Restaurant,Zhengzhou,34.798775,113.662903,100.0,Fast Food Restaurant;Tea Restaurant,11:00,21:00,Hampton by Hilton Zhengzhou East Station Hotel,"113.660000,34.799899",34.799899,113.660000,2.2
Zhengzhou University of Light Industry Science Campus Staff Canteen,Zhengzhou,34.796972,113.654816,100.0,Chinese Restaurant;Chinese Restaurant,11:00,21:00,Hampton by Hilton Zhengzhou East Station Hotel,"113.660000,34.799899",34.799899,113.660000,3.3
Liubai Western Restaurant (Time Collection Branch),Zhengzhou,34.808010,113.658539,120.0,Foreign Restaurant;Foreign Restaurant,10:00,23:00,Hampton by Hilton Zhengzhou East Station Hotel,"113.660000,34.799899",34.799899,113.660000,3.8
Little Caesar's Pizza,Zhengzhou,34.808448,113.658294,35.0,Fast Food Restaurant;Fast Food Restaurant,10:30,22:00,Hampton by Hilton Zhengzhou East Station Hotel,"113.660000,34.799899",34.799899,113.660000,4.8
Foxconn F15 Restaurant,Zhengzhou,34.553254,113.855033,100.0,Chinese Restaurant;Chinese Restaurant,11:00,21:00,Courtyard Zhengzhou Airport Hotel,"113.860851,34.555751",34.555751,113.860851,4.6
Pang Dali Crab Pot (Jinrong Yuehui City Branch),Zhengzhou,34.564853,113.861227,74.0,Chinese Restaurant;Chinese Restaurant,09:30,22:00,Courtyard Zhengzhou Airport Hotel,"113.860851,34.555751",34.555751,113.860851,4.4
Han Feng Yuan BBQ and Hotpot Buffet Restaurant (Yuehui City Store),Zhengzhou,34.564947,113.861713,69.0,Chinese Restaurant;Chinese Restaurant,17:30,23:00,Courtyard Zhengzhou Airport Hotel,"113.860851,34.555751",34.555751,113.860851,4.4
G12 Staff Restaurant,Zhengzhou,34.546613,113.863064,100.0,Chinese Restaurant;Chinese Restaurant,11:00,21:00,Courtyard Zhengzhou Airport Hotel,"113.860851,34.555751",34.555751,113.860851,4.0
Foxconn E15 Restaurant,Zhengzhou,34.554199,113.849242,100.0,Food Service Related;Food Service Related,11:00,21:00,Courtyard Zhengzhou Airport Hotel,"113.860851,34.555751",34.555751,113.860851,4.4
Huimin Restaurant (Guanhutun Life Plaza Store),Zhengzhou,34.782608,113.677926,100.0,Chinese Restaurant;Chinese Restaurant,11:00,21:00,Atour Hotel Zhengzhou Provincial Museum Huayuan Road,"113.677554,34.784188",34.784188,113.677554,2.0
Manyu Bistro (Guomao Branch),Zhengzhou,34.784425,113.679525,80.0,Chinese Restaurant;Chinese Restaurant,10:00,22:00,Atour Hotel Zhengzhou Provincial Museum Huayuan Road,"113.677554,34.784188",34.784188,113.677554,4.5
Mao Zhang Zhang Oil-Braised Skewers (Guomao 360 Branch),Zhengzhou,34.783597,113.675687,100.0,Food Service Related;Food Service Related,11:00,23:00,Atour Hotel Zhengzhou Provincial Museum Huayuan Road,"113.677554,34.784188",34.784188,113.677554,4.7
Yase Lakeside Restaurant,Zhengzhou,34.775577,113.858407,90.0,Chinese Restaurant;Chinese Restaurant,11:00,21:00,Yasser International Hotel Zhengzhou (Provincial Science and Technology Museum Xianghu Branch),"113.858697,34.775698",34.775698,113.858697,3.9
Water Margin Barbecue (Yongshun Road Branch),Zhengzhou,34.773371,113.856956,57.0,Chinese Restaurant;Local Specialty Restaurant,10:00,02:00,Yasser International Hotel Zhengzhou (Provincial Science and Technology Museum Xianghu Branch),"113.858697,34.775698",34.775698,113.858697,4.5
Future Like the Sea Creative Fusion Restaurant,Zhengzhou,34.773400,113.854577,48.0,Food Service Related;Food Service Related,09:30,22:00,Yasser International Hotel Zhengzhou (Provincial Science and Technology Museum Xianghu Branch),"113.858697,34.775698",34.775698,113.858697,4.3
Omoo omoo,Zhengzhou,34.750025,113.723075,100.0,Casual Dining;Casual Dining,11:00,21:00,Le Méridien Zhengzhou Jianye,"113.724990,34.749650",34.749650,113.724990,4.8
Zhengzhou Le Méridien Hotel Le Mei Chinese Restaurant,Zhengzhou,34.747665,113.725033,151.0,Chinese Restaurant;Chinese Restaurant,17:30,21:30,Le Méridien Zhengzhou Jianye,"113.724990,34.749650",34.749650,113.724990,4.0
Zhengzhou Jianye Le Méridien Hotel Restaurant,Zhengzhou,34.747658,113.724967,100.0,Foreign Restaurant;Japanese Cuisine,11:00,21:00,Le Méridien Zhengzhou Jianye,"113.724990,34.749650",34.749650,113.724990,4.2
Henan Yellow River Guesthouse Chinese Restaurant,Zhengzhou,34.872199,113.648259,100.0,Foreign Restaurant;Western Restaurant,11:00,21:00,Yellow River Guesthouse Henan Province,"113.648540,34.872278",34.872278,113.648540,3.2
Aoli Family Restaurant,Zhengzhou,34.869788,113.636415,16.0,Chinese Restaurant;Chinese Restaurant,11:00,21:30,Yellow River Guesthouse Henan Province,"113.648540,34.872278",34.872278,113.648540,4.2
Hao Ke Lai Steak (Zhengzhou Huiji Wanda Restaurant),Zhengzhou,34.868938,113.636045,68.0,Foreign Restaurant;Western Restaurant,10:00,22:00,Yellow River Guesthouse Henan Province,"113.648540,34.872278",34.872278,113.648540,4.6
Zhengzhou Mehood Novotel Hotel · Xiangjiang Banquet Chinese Restaurant,Zhengzhou,34.778205,113.730351,137.0,Chinese Restaurant;Chinese Restaurant,17:30,21:00,Mehood Novotel Hotel Zhengzhou,"113.730350,34.778263",34.778263,113.730350,4.2
Laojiu Tea Restaurant,Zhengzhou,34.776039,113.731719,114.0,Fast Food Restaurant;Tea Restaurant,10:00,21:00,Mehood Novotel Hotel Zhengzhou,"113.730350,34.778263",34.778263,113.730350,4.3
Little Zero Western Restaurant (Magic World Theme) Halal,Zhengzhou,34.783912,113.729299,100.0,Foreign Restaurant;Western Restaurant,11:00,22:00,Mehood Novotel Hotel Zhengzhou,"113.730350,34.778263",34.778263,113.730350,4.7
Le Enjoy Restaurant,Zhengzhou,34.773675,113.735275,100.0,Chinese Restaurant;Chinese Restaurant,11:00,21:00,Mehood Novotel Hotel Zhengzhou,"113.730350,34.778263",34.778263,113.730350,3.9
Huayu Sichuan Restaurant (Dennis Seven Days City Branch),Zhengzhou,34.777780,113.722674,100.0,Chinese Restaurant;Chinese Restaurant,17:30,21:30,Mehood Novotel Hotel Zhengzhou,"113.730350,34.778263",34.778263,113.730350,4.7
Cloud Serenity Tea Dining Space (CBD Branch),Zhengzhou,34.772469,113.733631,142.0,Fast Food Restaurant;Tea Restaurant|Tea House;Tea House,10:00,21:30,Puxi Hotel (Zhengzhou CBD Convention and Exhibition Center Branch),"113.735001,34.770663",34.770663,113.735001,4.6
Henan Cultural Specialty Tea Restaurant,Zhengzhou,34.768346,113.732144,100.0,Fast Food Restaurant;Tea Restaurant,11:00,21:00,Puxi Hotel (Zhengzhou CBD Convention and Exhibition Center Branch),"113.735001,34.770663",34.770663,113.735001,2.2
LAVA Terrace Bar & Restaurant,Zhengzhou,34.768286,113.731658,38.0,Entertainment Venue;Bar,11:00,21:00,Puxi Hotel (Zhengzhou CBD Convention and Exhibition Center Branch),"113.735001,34.770663",34.770663,113.735001,4.5
Charming Vietnam Restaurant (Yongwei Muxi Boutique Branch),Zhengzhou,34.767189,113.730885,65.0,Chinese Restaurant;Chinese Restaurant,17:00,21:30,Puxi Hotel (Zhengzhou CBD Convention and Exhibition Center Branch),"113.735001,34.770663",34.770663,113.735001,4.4
Zhengzhou Greenland JW Marriott Hotel · Urban Kitchen Buffet Restaurant,Zhengzhou,34.771054,113.727309,280.0,Foreign Restaurant;Western Restaurant,17:30,21:30,JW Marriott Hotel Zhengzhou Greenland,"113.727282,34.770996",34.770996,113.727282,4.3
Qianxi Cloud Restaurant (Qianxi Plaza Branch),Zhengzhou,34.771075,113.727225,165.0,Chinese Restaurant;Chinese Restaurant,09:00,01:00,JW Marriott Hotel Zhengzhou Greenland,"113.727282,34.770996",34.770996,113.727282,4.4
Zhengzhou Greenland JW Marriott Hotel (Marriott Chinese Restaurant),Zhengzhou,34.770905,113.727350,300.0,Chinese Restaurant;Chinese Restaurant,17:30,22:30,JW Marriott Hotel Zhengzhou Greenland,"113.727282,34.770996",34.770996,113.727282,4.5
Zhengzhou Big Corn G PLUS Skyview Restaurant,Zhengzhou,34.770914,113.727493,228.0,Chinese Restaurant;General Restaurant,16:00,05:00,JW Marriott Hotel Zhengzhou Greenland,"113.727282,34.770996",34.770996,113.727282,4.2
Zui Ba Xian Grilled Fish (Qianxi Plaza Branch),Zhengzhou,34.770902,113.727580,62.0,Food Service Related;Food Service Related,10:00,24:00,JW Marriott Hotel Zhengzhou Greenland,"113.727282,34.770996",34.770996,113.727282,4.3
Da Fuyuan Medicinal Cuisine Dumpling Restaurant,Zhengzhou,34.756461,113.770911,100.0,Food Service Related;Food Service Related,11:00,21:00,Home Inn Selected Zhengzhou East Station Branch,"113.773536,34.757727",34.757727,113.773536,3.4
Soonsoo Fried Chicken Cuisine,Zhengzhou,34.754378,113.771221,91.0,Fast Food Restaurant;Fast Food Restaurant,10:00,22:00,Home Inn Selected Zhengzhou East Station Branch,"113.773536,34.757727",34.757727,113.773536,4.7
Zhengzhou Zhengdong Intercontinental Hotel - Banyan Pavilion Chinese Restaurant,Zhengzhou,34.761525,113.771825,100.0,Chinese Restaurant;Chinese Restaurant,17:30,21:30,Home Inn Selected Zhengzhou East Station Branch,"113.773536,34.757727",34.757727,113.773536,3.8
Rongyu Restaurant,Zhengzhou,34.754245,113.770035,100.0,Chinese Restaurant;Chinese Restaurant,10:00,21:30,Home Inn Selected Zhengzhou East Station Branch,"113.773536,34.757727",34.757727,113.773536,3.6
Danxingdao Future Past Bistro (Ideal Garden Branch),Zhengzhou,34.775187,113.415274,33.0,Chinese Restaurant;Chinese Restaurant,11:00,21:00,Jinjiang Inn (Xingyang New District Hotel),"113.420024,34.783427",34.783427,113.420024,3.9
Maiga Music Hotpot (Wuyue Plaza Branch),Zhengzhou,34.774763,113.428178,100.0,Chinese Restaurant;Hot Pot,11:00,06:00,Jinjiang Inn (Xingyang New District Hotel),"113.420024,34.783427",34.783427,113.420024,3.9
Yoomi Moments Steak & Pizza Buffet Restaurant (Wuyue Plaza Branch),Zhengzhou,34.773975,113.428375,100.0,Food Service Related;Food Service Related,17:00,21:00,Jinjiang Inn (Xingyang New District Hotel),"113.420024,34.783427",34.783427,113.420024,4.0
Zhengzhou Aviation Port District Hongyin Themed Bar,Zhengzhou,34.530293,113.823391,100.0,Chinese Restaurant;Chinese Restaurant,17:00,04:00,Rui Bai Yun Hotel by Home Inn - Zhengzhou Xinzheng International Airport,"113.827800,34.532732",34.532732,113.827800,3.5
Yunduo Xuan Restaurant (Financial Plaza Branch),Zhengzhou,34.537244,113.826908,168.0,Food Service Related;Food Service Related,10:00,22:00,Rui Bai Yun Hotel by Home Inn - Zhengzhou Xinzheng International Airport,"113.827800,34.532732",34.532732,113.827800,4.1
Fangzhongshan Spicy Soup (Port District First Branch),Zhengzhou,34.537354,113.833042,14.0,Chinese Restaurant;Halal Restaurant,05:30,13:00,Rui Bai Yun Hotel by Home Inn - Zhengzhou Xinzheng International Airport,"113.827800,34.532732",34.532732,113.827800,4.5
Qiyu Cantonese Tea Restaurant,Zhengzhou,34.540161,113.830394,25.0,Cafe;Cafe|糕饼店;糕饼店,07:00,24:00,Rui Bai Yun Hotel by Home Inn - Zhengzhou Xinzheng International Airport,"113.827800,34.532732",34.532732,113.827800,4.1
Zhengzhou Airport Grand Hotel Chinese Restaurant,Zhengzhou,34.528534,113.843450,70.0,Chinese Restaurant;Chinese Restaurant,10:00,21:00,Rui Bai Yun Hotel by Home Inn - Zhengzhou Xinzheng International Airport,"113.827800,34.532732",34.532732,113.827800,4.1
Ultraman Theme Restaurant Monster Store,Zhengzhou,34.789259,113.986234,63.0,Chinese Restaurant;Chinese Restaurant,11:00,18:00,Atour Hotel Zhengzhou Zhongmou Only Henan Zhengkai Avenue,"113.956225,34.786040",34.786040,113.956225,3.9
Western Restaurant,Zhengzhou,34.768817,113.933939,100.0,Chinese Restaurant;Chinese Restaurant,11:00,21:00,Atour Hotel Zhengzhou Zhongmou Only Henan Zhengkai Avenue,"113.956225,34.786040",34.786040,113.956225,3.8
Ultraman Theme Restaurant - Hero Branch,Zhengzhou,34.786826,113.988821,86.0,Chinese Restaurant;Chinese Restaurant,11:00,21:00,Atour Hotel Zhengzhou Zhongmou Only Henan Zhengkai Avenue,"113.956225,34.786040",34.786040,113.956225,4.0
Zhongmu Yang's Big Plate Chicken Small Restaurant,Zhengzhou,34.756800,113.944461,100.0,Chinese Restaurant;Chinese Restaurant,08:00,23:15,Atour Hotel Zhengzhou Zhongmou Only Henan Zhengkai Avenue,"113.956225,34.786040",34.786040,113.956225,3.7
Brothers Gourmet Bistro,Zhengzhou,34.805008,113.919082,100.0,Chinese Restaurant;Chinese Restaurant,08:00,23:00,Atour Hotel Zhengzhou Zhongmou Only Henan Zhengkai Avenue,"113.956225,34.786040",34.786040,113.956225,3.6
Henan University Affiliated Zhengzhou First People's Hospital · Nutrition Restaurant,Zhengzhou,34.750370,113.685219,100.0,Chinese Restaurant;Chinese Restaurant,11:00,21:00,Zhengzhou Shangdu National Archaeological Site Park,"113.690498,34.753775",34.753775,113.690498,3.7
Zhenyu Chuan Banquet Center,Zhengzhou,34.747760,113.691761,100.0,Chinese Restaurant;Chinese Restaurant,17:00,21:00,Zhengzhou Shangdu National Archaeological Site Park,"113.690498,34.753775",34.753775,113.690498,4.4
Old Wu Meow Cafe · Cat-themed Restaurant (New World Department Store Branch),Zhengzhou,34.752925,113.682675,28.0,Food Service Related;Food Service Related,09:30,21:30,Zhengzhou Shangdu National Archaeological Site Park,"113.690498,34.753775",34.753775,113.690498,4.3
Zhengzhou Sofitel International Hotel · Dome Western Restaurant,Zhengzhou,34.761863,113.692708,237.0,Foreign Restaurant;Western Restaurant,11:00,21:30,Zhengzhou Shangdu National Archaeological Site Park,"113.690498,34.753775",34.753775,113.690498,4.2
Old Land Fragrance Roasted Whole Lamb,Zhengzhou,34.902822,113.633591,73.0,Chinese Restaurant;Chinese Restaurant,10:00,23:00,Yellow River Scenic Area,"113.630000,34.920000",34.920000,113.630000,4.2
Fusion Restaurant (Yifeng Forest Lake Branch),Zhengzhou,34.897770,113.618020,100.0,Chinese Restaurant;General Restaurant,17:00,21:00,Yellow River Scenic Area,"113.630000,34.920000",34.920000,113.630000,4.3
Basket Sister Eco-Organic Restaurant,Zhengzhou,34.897676,113.617674,100.0,Food Service Related;Food Service Related,11:00,21:00,Yellow River Scenic Area,"113.630000,34.920000",34.920000,113.630000,2.8
Wangwang Small Restaurant,Zhengzhou,34.901524,113.668069,100.0,Chinese Restaurant;Chinese Restaurant,11:00,21:00,Yellow River Scenic Area,"113.630000,34.920000",34.920000,113.630000,2.4
Luoshan Fisherman’s Restaurant,Zhengzhou,34.903556,113.670261,63.0,Chinese Restaurant;Chinese Restaurant,10:00,23:00,Yellow River Scenic Area,"113.630000,34.920000",34.920000,113.630000,4.3
Yanqiu Golf Restaurant,Zhengzhou,34.923788,113.514385,100.0,Chinese Restaurant;Chinese Restaurant,09:00,20:30,Zhengzhou Yellow River Cultural Park,"113.512589,34.953667",34.953667,113.512589,4.1
Sinian Golf Green New Year Farmhouse Restaurant,Zhengzhou,34.919063,113.515391,100.0,Chinese Restaurant;Chinese Restaurant,17:30,20:30,Zhengzhou Yellow River Cultural Park,"113.512589,34.953667",34.953667,113.512589,4.3
Sinian Golf Green Lakeside Flower House Restaurant,Zhengzhou,34.914813,113.516550,85.0,Food Service Related;Food Service Related,10:00,22:00,Zhengzhou Yellow River Cultural Park,"113.512589,34.953667",34.953667,113.512589,4.5
Second Owner Restaurant,Zhengzhou,34.912985,113.515865,100.0,Chinese Restaurant;Chinese Restaurant,08:00,20:30,Zhengzhou Yellow River Cultural Park,"113.512589,34.953667",34.953667,113.512589,3.8
Zhengzhou Business College Restaurant,Zhengzhou,34.918067,113.537293,100.0,Chinese Restaurant;Chinese Restaurant,06:00,22:00,Zhengzhou Yellow River Cultural Park,"113.512589,34.953667",34.953667,113.512589,3.9
Dingyuan Buffet Restaurant,Zhengzhou,34.786308,113.672932,100.0,Chinese Restaurant;Chinese Restaurant,11:00,21:00,Henan Museum,"113.672097,34.788263",34.788263,113.672097,2.5
Enjoy House Tea Restaurant (Century Star Building Branch),Zhengzhou,34.786292,113.671079,100.0,Fast Food Restaurant;Tea Restaurant,17:00,21:30,Henan Museum,"113.672097,34.788263",34.788263,113.672097,3.8
Century Star Garden Restaurant,Zhengzhou,34.786256,113.671176,100.0,Chinese Restaurant;Chinese Restaurant,11:00,21:00,Henan Museum,"113.672097,34.788263",34.788263,113.672097,4.1
Gourmet Restaurant (Zhengzhou Times International Plaza Building 70 Branch),Zhengzhou,34.786608,113.670287,100.0,Chinese Restaurant;Chinese Restaurant,11:00,21:00,Henan Museum,"113.672097,34.788263",34.788263,113.672097,3.5
Nongda Jiayuan Faculty Restaurant (No. 52 Wenhua Road Branch),Zhengzhou,34.785268,113.668041,100.0,Chinese Restaurant;Chinese Restaurant,06:00,22:00,Henan Museum,"113.672097,34.788263",34.788263,113.672097,3.9
Agricultural University Faculty Dining Hall,Zhengzhou,34.784879,113.666814,100.0,Chinese Restaurant;Chinese Restaurant,08:00,22:00,Henan Museum,"113.672097,34.788263",34.788263,113.672097,4.0
Mao Zhang Zhang Oil-Braised Skewers (Guomao 360 Branch),Zhengzhou,34.783597,113.675687,100.0,Food Service Related;Food Service Related,11:00,23:00,Henan Museum,"113.672097,34.788263",34.788263,113.672097,4.7
Hongyan RED SALT Modern Indian-Pakistani Restaurant,Zhengzhou,34.793421,113.677088,69.0,Chinese Restaurant;Chinese Restaurant,11:00,21:00,Henan Museum,"113.672097,34.788263",34.788263,113.672097,4.5
Wentong Ice Room (International Trade 360 Branch),Zhengzhou,34.784943,113.679565,39.0,Cold Beverage Shop;Cold Beverage Shop,10:30,22:00,Henan Museum,"113.672097,34.788263",34.788263,113.672097,4.7
Wanda Vista Hotel Pinzhen Chinese Restaurant,Zhengzhou,34.792621,113.678848,246.0,Food Service Related;Food Service Related,17:30,21:30,Henan Museum,"113.672097,34.788263",34.788263,113.672097,4.4
Qianxi Cloud Restaurant (Qianxi Plaza Branch),Zhengzhou,34.771075,113.727225,165.0,Chinese Restaurant;Chinese Restaurant,09:00,01:00,Ruyi Lake Scenic Area,"113.724204,34.772895",34.772895,113.724204,4.5
Zhengzhou Greenland JW Marriott Hotel · Urban Kitchen Buffet Restaurant,Zhengzhou,34.771054,113.727309,280.0,Foreign Restaurant;Western Restaurant,17:30,21:30,Ruyi Lake Scenic Area,"113.724204,34.772895",34.772895,113.724204,4.3
Zhengzhou Greenland JW Marriott Hotel (Marriott Chinese Restaurant),Zhengzhou,34.770905,113.727350,300.0,Chinese Restaurant;Chinese Restaurant,17:30,22:30,Ruyi Lake Scenic Area,"113.724204,34.772895",34.772895,113.724204,4.5
Zhengzhou Big Corn G PLUS Skyview Restaurant,Zhengzhou,34.770914,113.727493,228.0,Chinese Restaurant;General Restaurant,16:00,05:00,Ruyi Lake Scenic Area,"113.724204,34.772895",34.772895,113.724204,4.2
Zui Ba Xian Grilled Fish (Qianxi Plaza Branch),Zhengzhou,34.770902,113.727580,62.0,Food Service Related;Food Service Related,10:00,24:00,Ruyi Lake Scenic Area,"113.724204,34.772895",34.772895,113.724204,4.2
Haiyu Gourmet Seafood Restaurant,Zhengzhou,34.769787,113.726419,39.0,Chinese Restaurant;Seafood Restaurant,17:00,23:00,Ruyi Lake Scenic Area,"113.724204,34.772895",34.772895,113.724204,3.8
No. 5 Restaurant (Henan International Chamber of Commerce Building Branch),Zhengzhou,34.770632,113.719294,18.0,Chinese Restaurant;Chinese Restaurant,11:00,21:00,Ruyi Lake Scenic Area,"113.724204,34.772895",34.772895,113.724204,4.2
Yu Jian Tea Restaurant (New Australia Building Branch),Zhengzhou,34.767928,113.723581,100.0,Chinese Restaurant;Chinese Restaurant,11:00,21:00,Ruyi Lake Scenic Area,"113.724204,34.772895",34.772895,113.724204,4.1
Huayu Sichuan Restaurant (Dennis Seven Days City Branch),Zhengzhou,34.777780,113.722674,100.0,Chinese Restaurant;Chinese Restaurant,11:00,21:00,Ruyi Lake Scenic Area,"113.724204,34.772895",34.772895,113.724204,4.7
Dexian Zhijian · Teahouse · Ecological Xinyang Cuisine (CBD Branch),Zhengzhou,34.774628,113.718260,88.0,生活服务;生活服务场所;生活服务场所,11:00,21:00,Ruyi Lake Scenic Area,"113.724204,34.772895",34.772895,113.724204,4.6
Luoshan Fisherman’s Restaurant,Zhengzhou,34.903556,113.670261,63.0,Chinese Restaurant;Chinese Restaurant,10:00,23:00,Yellow River Huayuankou Tourist Area,"113.676636,34.903629",34.903629,113.676636,4.3
Wangwang Small Restaurant,Zhengzhou,34.901524,113.668069,100.0,Chinese Restaurant;Chinese Restaurant,11:00,21:00,Yellow River Huayuankou Tourist Area,"113.676636,34.903629",34.903629,113.676636,2.4
Henan University Affiliated Zhengzhou First People's Hospital · Nutrition Restaurant,Zhengzhou,34.750370,113.685219,100.0,Chinese Restaurant;Chinese Restaurant,11:00,21:00,City God Temple,"113.686977,34.752061",34.752061,113.686977,3.7
Henan Provincial Academy of Traditional Chinese Medicine Affiliated Hospital Restaurant,Zhengzhou,34.755083,113.685722,100.0,Chinese Restaurant;Chinese Restaurant,17:00,19:30,City God Temple,"113.686977,34.752061",34.752061,113.686977,3.8
Old Wu Meow Cafe · Cat-themed Restaurant (New World Department Store Branch),Zhengzhou,34.752925,113.682675,28.0,Food Service Related;Food Service Related,09:30,21:30,City God Temple,"113.686977,34.752061",34.752061,113.686977,4.3
Mama Restaurant (Chengdong Road Branch),Zhengzhou,34.748675,113.691225,15.0,Chinese Restaurant;Chinese Restaurant,17:30,21:00,City God Temple,"113.686977,34.752061",34.752061,113.686977,4.4
Minyu Chinese Restaurant (Jinduo Yinduo Jewelry Store),Zhengzhou,34.748684,113.681630,90.0,Chinese Restaurant;Fujian Cuisine,10:00,22:00,City God Temple,"113.686977,34.752061",34.752061,113.686977,4.0
Zhenyu Chuan Banquet Center,Zhengzhou,34.747760,113.691761,100.0,Chinese Restaurant;Chinese Restaurant,17:00,21:00,City God Temple,"113.686977,34.752061",34.752061,113.686977,4.7
Erguang Restaurant,Zhengzhou,34.757454,113.691651,66.0,Chinese Restaurant;Halal Restaurant,17:30,22:00,City God Temple,"113.686977,34.752061",34.752061,113.686977,4.4
Song Lao San Su Pork and Lamb Soup Old Shop,Zhengzhou,34.751635,113.677244,100.0,Chinese Restaurant;Halal Restaurant,17:00,21:30,City God Temple,"113.686977,34.752061",34.752061,113.686977,4.4
Jingxinyuan Restaurant,Zhengzhou,34.757702,113.678788,69.0,Chinese Restaurant;Chinese Restaurant,10:00,22:00,City God Temple,"113.686977,34.752061",34.752061,113.686977,4.0
Fang Zhongshan Spicy Soup (Headquarters),Zhengzhou,34.760065,113.682462,15.0,Chinese Restaurant;Halal Restaurant,05:00,13:30,City God Temple,"113.686977,34.752061",34.752061,113.686977,4.5
Yiwei Shanfang Vegetarian Restaurant (Official Store of Songshan Shaolin Scenic Area),Zhengzhou,34.513012,112.952106,33.0,Chinese Restaurant;Chinese Restaurant,09:30,21:00,Sanhuangzhai,"112.952063,34.473496",34.473496,112.952063,3.9
Shaolin Service Area Express Restaurant,Zhengzhou,34.427016,112.929723,100.0,Fast Food Restaurant;Fast Food Restaurant,11:00,21:00,Sanhuangzhai,"112.952063,34.473496",34.473496,112.952063,3.7
Zenwu Grand Hotel - Chinese Restaurant,Zhengzhou,34.471305,113.017117,136.0,Chinese Restaurant;Chinese Restaurant,08:30,22:00,Sanhuangzhai,"112.952063,34.473496",34.473496,112.952063,4.4
Songshan Uncommon Water Banquet Cultural Restaurant,Zhengzhou,34.449754,113.018493,91.0,Chinese Restaurant;Chinese Restaurant,17:00,21:00,Sanhuangzhai,"112.952063,34.473496",34.473496,112.952063,4.4
Yunshe Tea Restaurant,Zhengzhou,34.468766,113.028504,113.0,Fast Food Restaurant;Tea Restaurant,10:00,23:00,Sanhuangzhai,"112.952063,34.473496",34.473496,112.952063,4.4
Han Feng Yuan BBQ and Hotpot Buffet Restaurant (Asia Joy City Branch),Zhengzhou,34.751785,113.667704,80.0,Chinese Restaurant;Chinese Restaurant,11:00,23:30,Erqi Square,"113.666451,34.751860",34.751860,113.666451,4.7
Yuehai Hotel Xuan Palace Western Restaurant (Erqi Square),Zhengzhou,34.749629,113.667658,111.0,Foreign Restaurant;Western Restaurant,10:00,23:00,Erqi Square,"113.666451,34.751860",34.751860,113.666451,3.9
Yuehai Hotel - Yuehai Pavilion Chinese Restaurant,Zhengzhou,34.749142,113.667796,100.0,Chinese Restaurant;Chinese Restaurant,11:00,21:00,Erqi Square,"113.666451,34.751860",34.751860,113.666451,3.9
"Hu Ya Stir-Fried Chicken (Erqi MixC Mall, Zhengzhou, Henan Branch)",Zhengzhou,34.754815,113.662798,55.0,Chinese Restaurant;Chinese Restaurant,10:00,22:00,Erqi Square,"113.666451,34.751860",34.751860,113.666451,4.6
Jixu Folk Music Barbecue Restaurant (Zhengzhou Guangcai Branch),Zhengzhou,34.755287,113.669676,72.0,Chinese Restaurant;Chinese Restaurant,18:00,02:30,Erqi Square,"113.666451,34.751860",34.751860,113.666451,4.6
Green Tea Restaurant (Zhengzhou MixC Mall Branch),Zhengzhou,34.754667,113.662403,100.0,Chinese Restaurant;Chinese Restaurant,11:00,21:00,Erqi Square,"113.666451,34.751860",34.751860,113.666451,4.6
Datong Hotel Restaurant,Zhengzhou,34.747498,113.663838,31.0,Chinese Restaurant;Chinese Restaurant,17:00,21:00,Erqi Square,"113.666451,34.751860",34.751860,113.666451,3.8
Caifeng Lou Chinese Restaurant (Zhengzhou Dennis Plaza InterContinental Hotel),Zhengzhou,34.757771,113.665954,227.0,Food Service Related;Food Service Related,17:30,21:30,David Plaza Shopping Center,"113.666031,34.758202",34.758202,113.666031,4.2
Issho Sukiyaki (Dennis David Plaza Branch),Zhengzhou,34.757768,113.665886,159.0,Foreign Restaurant;Japanese Cuisine,11:00,22:00,David Plaza Shopping Center,"113.666031,34.758202",34.758202,113.666031,4.6
The Boots Mud Boots Get Holiday (David Plaza Branch),Zhengzhou,34.758578,113.666557,117.0,Foreign Restaurant;Western Restaurant,11:00,22:00,David Plaza Shopping Center,"113.666031,34.758202",34.758202,113.666031,4.8
Wang Steak (Zhengzhou David Plaza Branch),Zhengzhou,34.757501,113.666208,258.0,Foreign Restaurant;牛扒店(扒房),17:00,21:00,David Plaza Shopping Center,"113.666031,34.758202",34.758202,113.666031,4.4
Xiangdingsheng Premium Restaurant (David Plaza Branch),Zhengzhou,34.757365,113.665761,61.0,Chinese Restaurant;Chinese Restaurant,11:00,21:00,David Plaza Shopping Center,"113.666031,34.758202",34.758202,113.666031,4.6
Grandma's Kitchen (Dennis · David City Branch),Zhengzhou,34.757262,113.666027,136.0,Chinese Restaurant;Chinese Restaurant,11:00,21:30,David Plaza Shopping Center,"113.666031,34.758202",34.758202,113.666031,4.5
De Fu's Indian Restaurant (David Plaza Branch),Zhengzhou,34.756973,113.665911,83.0,Food Service Related;Food Service Related,10:30,21:30,David Plaza Shopping Center,"113.666031,34.758202",34.758202,113.666031,4.6
Manyu (Dennis David Plaza Branch),Zhengzhou,34.756848,113.666241,90.0,服装鞋帽皮具店;服装鞋帽皮具店,11:00,21:00,David Plaza Shopping Center,"113.666031,34.758202",34.758202,113.666031,4.7
Route Five Restaurant Stone-Grilled Steak (David City Branch),Zhengzhou,34.756777,113.666316,128.0,Fast Food Restaurant;Fast Food Restaurant,11:00,22:00,David Plaza Shopping Center,"113.666031,34.758202",34.758202,113.666031,4.7
Zhengzhou Zhengbai Restaurant (Zhengzhou Department Store Building Branch),Zhengzhou,34.756286,113.668080,100.0,Chinese Restaurant;Chinese Restaurant,09:30,21:00,David Plaza Shopping Center,"113.666031,34.758202",34.758202,113.666031,3.9
