poi_name,latitude,longitude,address,poi_type
Three Pools Mirroring the Moon,30.238845,120.145369,,attraction
Leifeng Pagoda Scenic Area,30.230934,120.148849,,attraction
Xiaohe Historical and Cultural District,30.308302,120.135337,,attraction
Broken Bridge and Remnant Snow,30.258106,120.151299,,attraction
China National Tea Museum (Longjing Branch),30.219662,120.113539,,attraction
Nine Creeks and Misty Trees,30.202395,120.113350,,attraction
Southern Song Imperial Street Zhongshan Road Pedestrian Street,30.240249,120.169526,,attraction
Autumn Moon over the Calm Lake Scenic Spot,30.252038,120.146210,,attraction
Solitary Hill Park,30.251654,120.142481,,attraction
China Academy of Art Xiangshan Campus,30.155446,120.076690,,attraction
Migui Restaurant·Seasonal Farmhouse Private Cuisine (Manjuelong Branch),30.218446,120.123766,,restaurant
Longjing Grass Hall,30.224969,120.116079,,restaurant
Mountain Top Village Courtyard Restaurant,30.219221,120.116411,,restaurant
Cloud Resident B&B (West Lake Branch) Restaurant,30.217913,120.116908,,restaurant
Dixin · Longjing,30.226242,120.115439,,restaurant
Kouzi International Hotel Restaurant,30.232386,120.149789,,restaurant
Liuying Lakeside,30.238732,120.154521,,restaurant
West Lake Banquet · Lakeview Restaurant,30.236157,120.154292,,restaurant
Lotus Aroma Residence Restaurant,30.230372,120.148032,,restaurant
Wenying Pavilion (Liulang Wenying Branch),30.240324,120.155890,,restaurant
Wei Lu · West Lake 1138 Cultural Tea Restaurant,30.230253,120.138864,,restaurant
West Lake Impressions Restaurant,30.234732,120.156845,,restaurant
Park 1999 Garden-style Restaurant,30.240410,120.157740,,restaurant
Zhiwei Guan·Weizhuang (Yang Gong Di Branch),30.230581,120.137300,,restaurant
New Liuying Restaurant (Nanshan Road Branch),30.239341,120.157948,,restaurant
Zhanbi Tower · West Lake Lakeside Restaurant,30.247279,120.133313,,restaurant
Louwailou (Hangzhou West Lake Scenic Area Branch),30.250209,120.140723,,restaurant
Qinglan (Yang Gongdi Branch),30.248263,120.131589,,restaurant
Hangzhou Shangri-La·Coffee Garden,30.252574,120.137577,,restaurant
Twelve Hours Lakeview Restaurant,30.251519,120.131988,,restaurant
North China Hotel - Chinese Restaurant,30.253808,120.133460,,restaurant
Tulip Tea Restaurant (Prince Bay Park North Gate Welcome Pavilion Branch),30.227600,120.143830,,restaurant
Zizhen Garden Tea Banquet,30.225658,120.152509,,restaurant
Xiaolu Mansion · Republic Era Private Banquet,30.225240,120.143968,,restaurant
Xiaolu Creative Restaurant (Taiziwan Branch),30.225213,120.143880,,restaurant
Yihu Chun Restaurant,30.257141,120.158020,,restaurant
Green Tea Restaurant (Six Park Branch),30.257779,120.157824,,restaurant
Yixiangyuan Restaurant. Halal Ethnic Cuisine,30.257475,120.159475,,restaurant
Filo Restaurant (Baifu Road Branch),30.256048,120.160868,,restaurant
Sullivan Western Restaurant (WAKE TOWN Commercial Street Branch),30.259038,120.159258,,restaurant
Wanghu Pavilion · Chinese Restaurant,30.259017,120.159309,,restaurant
Corner Restaurant,30.260575,120.153651,,restaurant
Hangzhou Casablanca Music Restaurant & Bar,30.260378,120.157253,,restaurant
Gangji Tea Restaurant · No Pre-made Dishes (Yizhijia City Outlets Branch),30.257225,120.161325,,restaurant
Longjing Courtyard Restaurant,30.214875,120.107925,,restaurant
Paper Kite · Fusion Restaurant · Bistro,30.240719,120.169041,,restaurant
Xiyue · Garden Restaurant,30.239312,120.169339,,restaurant
"MaLaMaLa Garden Restaurant, Coffee & Afternoon Tea",30.239071,120.169689,,restaurant
Haipaihui Restaurant,30.240777,120.170435,,restaurant
Jiujiali · Creative Hangzhou Cuisine (Hefang Street Branch),30.240648,120.171031,,restaurant
Yuting Zhandie (Drum Tower Branch),30.239810,120.171980,,restaurant
Jiang Xiaoxie (Xinjiang Cuisine Restaurant - Hefang Street Branch),30.239330,120.171880,,restaurant
New Zhouji · Jiangnan Flavor in the Alley (Drum Tower Branch),30.237432,120.171040,,restaurant
Pan Fang Chun Pan-Fried Dumplings · Michelin Restaurant (Zhongshan South Road Branch),30.237205,120.171034,,restaurant
New Bailu (West Lake Intime Department Store Branch),30.242989,120.165847,,restaurant
With River Bistro & Canteen Restaurant,30.307864,120.135234,,restaurant
Lulege Cat Garden Restaurant,30.307912,120.136153,,restaurant
Heyixuan · Garden Restaurant,30.308787,120.134207,,restaurant
The 101st Garden Restaurant (Xiaohe Straight Street Branch),30.308955,120.133764,,restaurant
Tengfei Bistro · Artisan Handcrafted · Tea & Wine Restaurant,30.308920,120.133695,,restaurant
New Tengfei Huayu Restaurant (Xiaohe Zhijie Branch),30.308929,120.133698,,restaurant
Ancient Path Lamb Flavor Restaurant,30.307053,120.137177,,restaurant
Yunshuiyao · Yunnan Flavor,30.306812,120.137098,,restaurant
In the Alley (Xiaohe Branch),30.309394,120.133173,,restaurant
Geju Bistro Lounge,30.306462,120.136888,,restaurant
Qianjiang Restaurant,30.259527,120.148472,,restaurant
Leshu Restaurant,30.257025,120.144486,,restaurant
Hangzhou West Lake Dianying Hotel · 1937 Restaurant,30.263206,120.155350,,restaurant
Hangzhou Xinxin Hotel · 1913 Restaurant,30.255994,120.144148,,restaurant
Zhejiang West Lake Villa·Buffet Restaurant,30.256935,120.142147,,restaurant
Lanxuan Restaurant,30.215821,120.117607,,restaurant
Meiling Renjia Restaurant,30.215918,120.117925,,restaurant
Hangzhou West Lake Scenic Area Mountain View Garden Restaurant,30.216137,120.118931,,restaurant
Tea Lan Garden Restaurant (Jiuxi Branch),30.212569,120.117874,,restaurant
Liujia Hotel (Hangzhou West Lake Jiuxi Branch) · Restaurant,30.195991,120.113222,,restaurant
Jiulong Xiangzhang Courtyard Restaurant (Jiuxi Branch),30.193979,120.115111,,restaurant
Jiuxi Lodge · Xunwei Restaurant (Jiuxi Branch),30.193690,120.115651,,restaurant
Millennium Resort Hangzhou - Shixi Restaurant,30.191025,120.115325,,restaurant
Shanghai Railway Qianjiang Hotel - Restaurant,30.190588,120.120679,,restaurant
Molü·Art Space Restaurant,30.158534,120.075665,,restaurant
Yongsheng Tea Restaurant,30.158514,120.075573,,restaurant
Manxi Hotel Restaurant,30.159263,120.075329,,restaurant
Congee King Hong Kong-style Tea Restaurant (Art Academy Branch),30.159634,120.077400,,restaurant
Xinjiang Bilali Restaurant,30.150950,120.078561,,restaurant
Yuanduoduo Restaurant (Seke Bistro),30.152280,120.072100,,restaurant
Jungang Hotel Restaurant,30.161054,120.078568,,restaurant
Little Chili Restaurant (West Street Food City Branch),30.159157,120.070865,,restaurant
Sajiao Chuannian Restaurant (Zhuanjiang Street Branch),30.159292,120.070799,,restaurant
Lava Western Restaurant (Jinjie Meidi Branch),30.148904,120.079300,,restaurant
Grand Courtyard (Xixi Road),30.257620,120.092557,,restaurant
Fudi Restaurant,30.260346,120.095285,,restaurant
Fuyuan Xincun Senior Citizen Restaurant,30.264739,120.094010,,restaurant
Tuhaha Music Restaurant Bar (Taifu Plaza Branch),30.165000,120.285112,,restaurant
Shu Laohei Quzhou Cuisine Self-Service Restaurant (Zhonghe Middle Road Branch),30.254296,120.172149,,restaurant
Cai Ji Nine-Meter Lamb Hot Pot,30.251470,120.170428,,restaurant
Peach Garden BBQ (Xiaoshan MixC Branch),30.182255,120.269208,,restaurant
NEED Creative Korean Cuisine (Xiaoshan MixC Branch),30.181901,120.268864,,restaurant
Pizza Italian Restaurant (Xiaoshan MixC Branch),30.181674,120.269350,,restaurant
Shu Laohei Quzhou Cuisine Self-Service Restaurant (Xicheng Bosi Branch),30.316394,120.074689,,restaurant
Homeland Restaurant (Zhenhua Road Branch),30.313826,120.072720,,restaurant
Tongwang Restaurant (Zhenhua Road Branch),30.313772,120.072586,,restaurant
Liangzhu Quànxuéhuì Restaurant (Quànxuéhuì Branch),30.349325,120.016625,,restaurant
Meet Music Barbecue Bar,30.342725,120.013775,,restaurant
Tasteful Small Restaurant,30.351141,120.021850,,restaurant
Macau Chan Kwong Kee (Xiaoshan International Airport T4 Departure Mezzanine Branch),30.234878,120.431013,,restaurant
Original No. 1 Restaurant,30.228891,120.426744,,restaurant
Quye Restaurant,30.238984,120.446523,,restaurant
RayPub Dim Light (Zhonghe Branch),30.255686,120.172190,,restaurant
Hangzhou Grand Metropark Hotel · Buffet Restaurant (Pinghai Road Branch),30.254637,120.170946,,restaurant
Happiness Restaurant,30.325831,120.081498,,restaurant
Tongren Food Court Chinese Restaurant (Tongren Mall Branch),30.326682,120.077871,,restaurant
Quzhou Stir-Fry Self-Service Restaurant,30.326683,120.077739,,restaurant
Huahuiwei Restaurant,30.469781,119.769475,,restaurant
Xiaozhu River Fresh Restaurant (Xinhu Golden Pond Branch),30.470169,119.768906,,restaurant
Zhongda Langyuan Restaurant,30.470213,119.764273,,restaurant
Shen's Hong Kong-Style Tea Restaurant (Tiancheng Plaza Building 3 Branch),30.289940,120.207477,,restaurant
Guangweixuan Hong Kong Style Tea Restaurant (Hangzhou East Station),30.290107,120.209962,,restaurant
Airy Cloud Restaurant (Dongxi Debi Yiyuan Branch),30.291007,120.217230,,restaurant
Jiafeng Weijia Hotel Yunshui Restaurant (Wanyue City Snail Plaza Branch),30.460295,120.299338,,restaurant
Yihaoyuan · Self-service Restaurant (Canal Branch),30.462277,120.298998,,restaurant
Flavorful Restaurant,30.453525,120.293075,,restaurant
Longchuan Honpo (Gonglian CC Branch),30.254777,120.165028,,restaurant
Hangzhou Yinlonghui Leisure Theme Hotel,30.179290,120.285795,"No. 698, Tonghui Middle Road",hotel
Hangzhou Liangyun Junting Hotel,30.349502,120.012755,"Room 1-1, Shuyun Mingdi, Liangzhu Street, Yuhang District, Hangzhou, Zhejiang Province",hotel
Home Inn Business Travel (Gold Standard) - Hangzhou Lin'an Taihu Source Scenic Area Branch,30.264622,119.604344,"No. 33, Qingxi Street, Taihu Source Town, Lin'an District, Hangzhou, Zhejiang Province, Qingyun Mansion",hotel
Vienna Hotel (5.0 Enhanced Edition Hangzhou Tonglu Fuchun River Branch),29.789091,119.678699,"No. 1108, Chunjiang Road, Chengnan Street",hotel
West Lake Lakeside Yiju Hotel,30.257187,120.159985,"Room 312, No. 58, Changsheng Road, Shangcheng District, Hangzhou, Zhejiang Province",hotel
Hangzhou Xiaoshan Airport Duoya Hotel,30.253662,120.461405,"No. 1629, Hezhuang South Road, Jingjiang Street, Xiaoshan District, Hangzhou",hotel
Manju Hotel (Hangzhou Xindeng Fuchun Port Branch),29.972619,119.737452,"No. 69, Dengcheng North Road, Fuyang District",hotel
Hangzhou Agricultural and Forestry University Qingshan Lake Kaiyuan Mingting Hotel,30.231863,119.731587,"No. 282, Qianwang Street, Jincheng Street",hotel
Qiandao Lake Star Island Impression Resort Hotel,29.600082,119.022247,"No. 88, Menggu Road, Qiandaohu Town, Chun'an County (Diagonally opposite the Qiandao Lake Tourism Resort Administration Committee)",hotel
Jinge Hotel | Tencent Esports Co-branded (West Lake Science Park Flagship Store),30.317964,120.074799,"Building 4, 2nd Floor, Xitou Yunmanli, No. 36, Jiyuan Street, Sandun Town, Hangzhou",hotel
Hangzhou Pujing Garden Hotel,30.326851,120.080749,"No. 283, Houcheng Road, Sandun Town, Xihu District, Hangzhou",hotel
Hangzhou Lin'an Qingshan Lake Radisson Manor,30.234250,119.769275,"No. 1608, Wushan Street, Jincheng Street, Lin'an District, Hangzhou, Zhejiang Province",hotel
Hangzhou Xixi Sheraton Grand Resort Hotel,30.267616,120.088785,"Building 1, Xixi Paradise International Tourism Complex, Zijin Port Road",hotel
Hangzhou West Lake Liuyingli Hotel,30.237986,120.155230,"No. 6, Hexia, Qingbo Bridge, Nanshan Road, Shangcheng District, Hangzhou, near Liulang Wenying",hotel
Ji Hotel Hangzhou West Lake Lakeside Jiefang Road (Formerly West Lake Jiefang Road Branch),30.250838,120.172561,"No. 166, Zhonghe Middle Road (near Jiefang Road, Zhejiang Provincial Public Security Department, Longxiangqiao Metro Station Exit D)",hotel
Hangzhou West Lake Lakeside Intime Atour Hotel,30.255412,120.172154,"No. 228, Zhonghe Middle Road, Jingjin Building",hotel
Hangzhou Lunuo Hilton Garden Inn,30.469522,119.769431,"No. 8, Xunli Street, Lunu Town",hotel
Jinjiang Inn 5.0 (Hangzhou Xiaoshan Vientiane City People's Square Metro Station Branch),30.185737,120.270266,"No. 300, Jinhui Road, Kaichen Building, Xiaoshan District, Hangzhou, Zhejiang Province",hotel
Hanting Hotel Hangzhou Donghu North Road,30.460900,120.297000,"No. 3, Hongda Road, Linping District",hotel
Orange Hotel Hangzhou West Lake,30.256100,120.165000,"No. 5, Puti Temple",hotel
Xiaoshan International Airport,30.234708,120.432413,"No. 1, Airport Road 1",airport
Longjia International Airport,43.997004,125.694951,"No. 3500, Airport Road",airport
Daxing International Airport,39.510561,116.429172,Da'an Road,airport
Dashuibo International Airport,30.254695,120.170739,"No. New 2, Pinghai Road",airport
Penglai Airport,37.659253,120.989481,"No. 1, Konggang Road, Chaoshuizhen",airport
Hangzhou East Station,30.290846,120.212605,"No. 1, Tiancheng Road",train_station
Changchun Station,43.911531,125.324675,"No. 5, Changbai Road",train_station
Shenyang North Station,30.342275,120.166641,"900 meters from the intersection opposite Daqing Gas Station, No. 448, Shenban Road, Banshan Subdistrict, Hangzhou North Station",train_station
Hangzhou West Station,30.260867,120.091014,"No. 357, Tianmushan Road",train_station
Jinan West Station,36.668846,116.891331,"No. 6, Qilu Avenue",train_station
Nanjing South Station,30.172640,120.295589,"No. 328, Zhanqian Road, Xintang Subdistrict",train_station
Changchun West Station,43.876661,125.200895,Zhanqian Street,train_station
Cangzhou West Station,30.297932,119.986781,"320 National Highway, Cangqian Subdistrict (260 meters walking from Exit L of West Railway Station Metro Station)",train_station
Xuzhou East Station,30.290846,120.212605,"No. 1, Tiancheng Road",train_station
Suzhou East Station,30.290846,120.212605,"No. 1, Tiancheng Road",train_station
Tangshan Station,39.625639,118.117914,"No. 160, Zhanqian Road",train_station
Zaozhuang Station,34.780845,117.305928,Qilianshan Road,train_station
Fangyuan Restaurant,30.290550,119.617512,,restaurant
Minyi Restaurant,30.238934,119.668682,,restaurant
Nongkou Restaurant (Changhua Home-Style Cuisine),30.238259,119.669163,,restaurant
Xiyue Restaurant,30.256064,119.675823,,restaurant
Heyuan Restaurant,30.247999,119.530153,,restaurant
Hangzhou Xiaoshan International Airport,30.234708,120.432413,"No. 1, Airport Road 1",airport
Changchun Longjia International Airport,43.997004,125.694951,"No. 3500, Airport Road",airport
Hangzhou Xiaoshan International Airport - No. 3 Restaurant,30.239055,120.446681,,restaurant
Air China Staff Restaurant (Air China Base Branch),30.238608,120.449026,,restaurant
Green Tea Restaurant (Hangzhou East Station MixC Branch),30.293504,120.217725,,restaurant
Minhua Ice Room (Hangzhou East Station MixC Branch),30.294025,120.217615,,restaurant
Mehood Hotel (Changchun Railway Station Guoshang Branch) · Restaurant,43.908487,125.321411,,restaurant
Jiao Ai Spicy Boiled Fish Sichuan Cuisine (Kuancheng Wanda Branch),43.915190,125.322239,,restaurant
Bear Meow Hotpot (Changchun Kuancheng Wanda Branch),43.915572,125.322693,,restaurant
Sun Family Grandma's Cuisine (Wanda Plaza),43.915392,125.321866,,restaurant
Mask Music Barbecue (Changchun Kuancheng Wanda Plaza Branch),43.915494,125.322005,,restaurant
Fish Master Food Mansion · Island Lake View Restaurant,29.599538,119.021846,,restaurant
Yufeng Courtyard Restaurant,29.599695,119.027468,,restaurant
Cuihua Fish Mansion,29.598777,119.028073,,restaurant
Friend Fisherman Restaurant,29.598446,119.028288,,restaurant
Spring Always Restaurant (Qiandao Lake Branch),29.599314,119.028565,,restaurant
Wanfulai Sauerkraut Fish Restaurant,29.788424,119.678718,,restaurant
Longteng Restaurant (Shengtai · Guangyu Apartment Branch),29.787523,119.680390,,restaurant
311 Korean Fusion Cuisine Restaurant,29.788294,119.682401,,restaurant
Hometown Neighbors (Sunshine Branch),29.789018,119.682646,,restaurant
Wangjiawei Restaurant,29.786549,119.682780,,restaurant
Wangchangmen Family Restaurant (Tangwan Mingyuan C District Branch),30.185347,120.278092,,restaurant
Jinlaihui Restaurant,30.181607,120.271366,,restaurant
Aru Restaurant (Yucai Xiyuan East District Branch),30.166872,120.279363,,restaurant
Hangzhou Zhongwei Xiangyi Grand Hotel · Mantingfang Chinese Restaurant,30.250971,120.174770,,restaurant
Kuiyuan Pavilion (Jiefang Road Branch),30.250933,120.170208,,restaurant
Xiaobai Restaurant,30.249204,120.170919,,restaurant
Jiaxuan Restaurant,30.249186,120.170817,,restaurant
Gonglian Food Court,30.255188,120.164276,,restaurant
Dapai Traditional Cuisine (Hubin Branch),30.255784,120.163643,,restaurant
Xita Old Lady Clay Stove Barbecue (Hangzhou First Branch),30.257446,120.164191,,restaurant
Jiangzhe Hui (Hubin Yintai Branch),30.254879,120.163811,,restaurant
Lakeside Residence Restaurant,30.231832,119.764750,,restaurant
Royal Garden Restaurant,30.237180,119.774576,,restaurant
Hangzhou Drunken Lake Residence Farmhouse Restaurant,30.235849,119.762951,,restaurant
A Ping Restaurant,30.236399,119.761933,,restaurant
Zhongdu Qingshan Lakeside Hotel Buffet Restaurant,30.228501,119.764985,,restaurant
Jufu Lai Restaurant,30.261455,120.449273,,restaurant
One Restaurant,30.246525,120.478175,,restaurant
Dubai Hangzhou Flavor Restaurant - Xinjiang Barbecue - Hubin Pedestrian Street Branch,30.257275,120.159338,,restaurant
Hangzhou Xixi Sheraton Resort Chinese Restaurant,30.267651,120.088566,,restaurant
Sheraton Feast Signature Restaurant (Zijingang Road Branch),30.267375,120.088275,,restaurant
Baiyun Restaurant,30.267254,120.087030,,restaurant
Xixi Bieyuan (Xixi Paradise Branch),30.265570,120.089190,,restaurant
Hidden Fresh Workshop · West Joy Restaurant (Xixi Branch),30.265105,120.087535,,restaurant
Yuyu Restaurant (Former Hengfan Small Kitchen),30.232401,119.733129,,restaurant
Changhua Family Restaurant (Gongchen Mountain Community Branch),30.230115,119.730404,,restaurant
Fu Family Flavor Restaurant,30.233800,119.733424,,restaurant
Lin'an Mansion Restaurant·Hangzhou Radisson Blu Hotel,30.230108,119.726766,,restaurant
Impression Nonglin Theme Restaurant,30.236039,119.727243,,restaurant
A Small Dish Chinese Restaurant (Xindeng Branch),29.972920,119.737209,,restaurant
Lin Pang Restaurant,29.974698,119.737549,,restaurant
Your Kitchen,29.974493,119.740403,,restaurant
Orange Restaurant,29.975241,119.735325,,restaurant
Nange Restaurant,29.969604,119.742271,,restaurant
Orange Crystal Hangzhou West Lake Hotel · Crystal Restaurant,30.237953,120.158620,,restaurant
Qinghefang Pedestrian Street,30.240073,120.168923,,attraction
Lingyin Temple,30.240826,120.101406,,attraction
Haihui Pavilion New Jiangnan Vegetarian Noodle Restaurant,30.239004,120.105828,,restaurant
Fayun Aman Western Restaurant,30.237412,120.097724,,restaurant
Dayin Qingxin Vegetarian Buffet Restaurant (Yinshi Branch),30.240622,120.106983,,restaurant
Ru Yi Restaurant,30.238028,120.106488,,restaurant
Beigaofeng Cableway Restaurant,30.243268,120.106763,,restaurant
Luyingji Forest-Themed Restaurant (Lingyin Scenic Area Branch),30.238288,120.106949,,restaurant
Sansheng Xiaowu·Mountain Wild Food Collection (Hangzhou West Lake Lingyin Branch),30.235894,120.105016,,restaurant
Qiantang·Courtyard Restaurant (Lingyin Branch),30.243659,120.107314,,restaurant
Manshu · Tianzhu Li Restaurant,30.235660,120.104613,,restaurant
Qiaoshi Courtyard Restaurant,30.235839,120.105186,,restaurant
Hangzhou Hubin Intime in77 Zone A,30.253160,120.162484,,attraction
Tomacado Flower Kitchen (in77 · Hangzhou Flagship Store),30.253352,120.162044,,restaurant
Manyunli Garden Restaurant (Hubin Yintai in77 D Zone Branch),30.253583,120.163793,,restaurant
Xizi Restaurant (Xizi Qingyan),30.252058,120.163461,,restaurant
Birdsong and Fragrance·West Lake·Lakeview Restaurant (Renhe Branch),30.252050,120.163604,,restaurant
Sisi Pear Brunch & Lounge (Hangzhou Hubin 88 Branch),30.254685,120.162456,,restaurant
Hyatt Regency Hangzhou · Lakefront 28 Chinese Restaurant,30.254843,120.161906,,restaurant
The 101st Garden Restaurant (Hangzhou Hubin 88 Branch),30.254945,120.162473,,restaurant
1921 Restaurant (West Lake Waterfront Branch),30.251796,120.163967,,restaurant
Pang Ge Liang Crab Pot (Lakeside Yintai in77 C2 Zone Branch),30.252520,120.164548,,restaurant
Hangzhou Restaurant (Yan'an Road Branch),30.251744,120.164014,,restaurant
Longjing Village,30.219700,120.113500,,attraction
Spring Dawn at Su Causeway,30.243880,120.137960,,attraction
Xiaolu Creative Restaurant (Quyuan Branch),30.246209,120.132068,,restaurant
Lotus Encounter Garden Restaurant,30.247373,120.131962,,restaurant
Qianyuan · Xinghe Ji (Maojiabu Branch),30.240230,120.126352,,restaurant
Zhejiang Provincial Museum (Solitary Hill Branch),30.251243,120.143778,,attraction
Lotus Encounter Garden Restaurant,30.247373,120.131962,,restaurant
Xiling Seal Engravers' Society,30.250279,120.139948,,attraction
Lotus Encounter Garden Restaurant,30.247373,120.131962,,restaurant
Viewing Fish at Flower Harbor,30.230233,120.139095,,attraction
Jiexiang Lou,30.229459,120.133953,,restaurant
Yunshe Tea Restaurant,30.227673,120.133043,,restaurant
Green Shade Restaurant,30.227666,120.132958,,restaurant
Haina Leisure Restaurant,30.224264,120.137429,,restaurant
Halal Yixiangyuan Restaurant - Roasted Lamb Ribs and Pilaf,30.224122,120.137461,,restaurant
Zheli Benwei,30.224114,120.137490,,restaurant
Halal Yanlan Home. Northwest Cuisine. Team Building Dining (Taiziwan Branch),30.224105,120.137483,,restaurant
