city,attraction_name,attraction_id,description,attraction_type,address,latitude,longitude,rating,opening_time,closing_time,closing_dates,min_visit_hours,max_visit_hours,ticket_price
重庆,山城步道·建兴坡大梯道,B0FFFE4P2C,重庆特色山城步道，体验爬坡上坎的山城生活，城市徒步,休闲体验,,29.551340,106.548454,4.2,00:00,24:00,,0.5,2.0,0
重庆,重庆市人民大礼堂,B00170BPJJ,重庆地标建筑，仿古宫殿式建筑，新中国建筑艺术经典,历史文化,,29.561674,106.553277,4.7,08:00,18:00,,0.0,1.5,8
重庆,山城巷传统风貌区,B0FFK7WOXJ,老重庆记忆的石板巷道，保存完好的传统山城建筑风貌。,历史文化,,29.550114,106.568822,4.8,全天开放,全天开放,,1.0,2.5,0
重庆,重庆十八梯传统风貌区,B0G1XDI8P4,重庆最具代表性的山城街区，展现老重庆市井生活和建筑特色。,历史文化,,29.551015,106.573042,4.8,全天开放,全天开放,,1.0,2.5,0
重庆,磁器口古镇,B00170IFE4,千年古镇，传统巴渝文化，品尝特色小吃，感受老重庆风情,历史文化,,29.581184,106.449705,4.8,00:00,24:00,,2.0,3.5,0
重庆,四川美术学院(黄桷坪校区),B001786TUE,西南地区知名美术学院，校园充满艺术氛围，可参观美术馆。,艺术展览,,29.487559,106.541138,4.5,08:00,17:00,,0.5,2.0,0
重庆,李子坝单轨穿楼观景平台,B0FFLH5QFT,网红打卡地，观看轻轨穿楼奇观，体验重庆魔幻现实主义,城市地标,,29.553629,106.537916,4.8,06:30,23:00,,0.0,1.5,0
重庆,白公馆旧址,B0FFK75W6R,革命历史遗迹，缅怀革命先烈，了解重庆抗战历史,历史文化,,29.576464,106.432065,4.7,09:00,16:30,,0.5,2.0,0
重庆,重庆朝天门广场,B00170L11G,长江和嘉陵江交汇处，重庆的标志性地标和码头。,城市地标,,29.566880,106.587866,4.8,全天开放,全天开放,,1.0,2.5,0
