restaurant_name,city,latitude,longitude,price_per_person,cuisine,opening_time,closing_time,nearby_attraction_name,nearby_attraction_coords,query_latitude,query_longitude,rating,tags
张掌柜鹅堡,郑州,34.870717,113.670712,50.0,餐饮服务;快餐厅;快餐厅,09:30,23:00,黄河博物馆,"113.677764,34.871840",34.871840,113.677764,4.4,户外座位;有等位区
大塘餐厅虾饺专门店(迎宾路店),郑州,34.871556,113.665047,90.0,餐饮服务;中餐厅;特色/地方风味餐厅,17:00,21:30,黄河博物馆,"113.677764,34.871840",34.871840,113.677764,4.5,生日套餐服务
郑州天地丽笙酒店-品自助餐厅,郑州,34.859568,113.678526,208.0,餐饮服务;餐饮相关场所;餐饮相关,11:00,22:00,黄河博物馆,"113.677764,34.871840",34.871840,113.677764,4.1,必吃榜top10;户外座位
郑州师范学院东区静馨园餐厅,郑州,34.863435,113.659282,100.0,餐饮服务;中餐厅;中餐厅,11:00,21:00,黄河博物馆,"113.677764,34.871840",34.871840,113.677764,4.2,有等位区;生日套餐服务
信阳融合餐厅,郑州,34.889033,113.574616,32.0,餐饮服务;中餐厅;中餐厅,11:00,22:00,惠济桥遗址公园,"113.585469,34.892354",34.892354,113.585469,3.8,线上取号排队
便民餐馆,郑州,34.886025,113.569690,100.0,餐饮服务;中餐厅;中餐厅,11:00,21:00,惠济桥遗址公园,"113.585469,34.892354",34.892354,113.585469,2.2,有等位区
肯德基车速取餐厅(江山路DT店),郑州,34.880231,113.572945,100.0,餐饮服务;餐饮相关场所;餐饮相关,11:00,21:00,惠济桥遗址公园,"113.585469,34.892354",34.892354,113.585469,3.7,必吃榜top10;户外座位
河南大学附属郑州第一人民医院·营养餐厅,郑州,34.750370,113.685219,100.0,餐饮服务;中餐厅;中餐厅,11:00,21:00,城隍庙,"113.686977,34.752061",34.752061,113.686977,3.7,户外座位
河南省中医药研究院附属医院餐厅,郑州,34.755083,113.685722,100.0,餐饮服务;中餐厅;中餐厅,17:00,19:30,城隍庙,"113.686977,34.752061",34.752061,113.686977,3.8,有等位区;生日套餐服务
老吴喵馆·猫咖餐厅(新世界百货店),郑州,34.752925,113.682675,28.0,餐饮服务;餐饮相关场所;餐饮相关,09:30,21:30,城隍庙,"113.686977,34.752061",34.752061,113.686977,4.3,必吃榜top10
妈妈餐厅(城东路店),郑州,34.748675,113.691225,15.0,餐饮服务;中餐厅;中餐厅,17:30,21:00,城隍庙,"113.686977,34.752061",34.752061,113.686977,4.4,必吃榜top10;线上取号排队
闽豫中餐厅(金多银多珠宝店),郑州,34.748684,113.681630,90.0,餐饮服务;中餐厅;福建菜,10:00,22:00,城隍庙,"113.686977,34.752061",34.752061,113.686977,4.0,户外座位;生日套餐服务
甄玉川宴会中心,郑州,34.747760,113.691761,100.0,餐饮服务;中餐厅;中餐厅,17:00,21:00,城隍庙,"113.686977,34.752061",34.752061,113.686977,4.7,必吃榜top10
二广餐馆,郑州,34.757454,113.691651,66.0,餐饮服务;中餐厅;清真菜馆,17:30,22:00,城隍庙,"113.686977,34.752061",34.752061,113.686977,4.4,有包间;有等位区
宋老三苏肉羊肉汤老店,郑州,34.751635,113.677244,100.0,餐饮服务;中餐厅;清真菜馆,17:00,21:30,城隍庙,"113.686977,34.752061",34.752061,113.686977,4.4,有等位区
净馨缘餐厅,郑州,34.757702,113.678788,69.0,餐饮服务;中餐厅;中餐厅,10:00,22:00,城隍庙,"113.686977,34.752061",34.752061,113.686977,4.0,必吃榜top10;有包间
方中山胡辣汤(总店),郑州,34.760065,113.682462,15.0,餐饮服务;中餐厅;清真菜馆,05:00,13:30,城隍庙,"113.686977,34.752061",34.752061,113.686977,4.5,有等位区
直三院营养餐厅,郑州,34.767625,113.751240,100.0,餐饮服务;中餐厅;中餐厅,11:00,21:00,郑东新区CBD,"113.753400,34.769100",34.769100,113.753400,3.8,必吃榜top10
至尊强仔(正光北街店),郑州,34.771566,113.754982,80.0,餐饮服务;中餐厅;广东菜(粤菜),17:00,22:00,郑东新区CBD,"113.753400,34.769100",34.769100,113.753400,4.6,有等位区
誉龙轩茶餐厅(豫航中心店),郑州,34.771871,113.755230,100.0,餐饮服务;中餐厅;中餐厅,09:00,22:30,郑东新区CBD,"113.753400,34.769100",34.769100,113.753400,3.6,必吃榜top10
海容大酒店西餐厅,郑州,34.768486,113.749551,60.0,餐饮服务;外国餐厅;西餐厅(综合风味),06:30,22:00,郑东新区CBD,"113.753400,34.769100",34.769100,113.753400,3.8,户外座位
广义信阳毛尖茶餐厅(豫航店),郑州,34.771881,113.755782,100.0,购物服务;专卖店;专营店,11:00,21:00,郑东新区CBD,"113.753400,34.769100",34.769100,113.753400,3.7,必吃榜top10;户外座位
鑫仕麟假日酒店-原素餐厅,郑州,34.771175,113.757935,73.0,餐饮服务;中餐厅;中餐厅,11:00,21:00,郑东新区CBD,"113.753400,34.769100",34.769100,113.753400,4.2,有包间
美盛喜来登大酒店-盛宴标帜餐厅,郑州,34.764000,113.754711,260.0,餐饮服务;外国餐厅;西餐厅(综合风味),17:30,21:30,郑东新区CBD,"113.753400,34.769100",34.769100,113.753400,4.3,生日套餐服务
盛·星廷牛排餐厅,郑州,34.763882,113.754664,100.0,餐饮服务;外国餐厅;西餐厅(综合风味),17:30,21:00,郑东新区CBD,"113.753400,34.769100",34.769100,113.753400,3.8,有等位区
天明坊五味药膳餐厅,郑州,34.772309,113.759111,279.0,餐饮服务;中餐厅;中餐厅,17:30,21:00,郑东新区CBD,"113.753400,34.769100",34.769100,113.753400,4.3,户外座位;线上取号排队
宋风雅宴·宋文化餐厅(尚座中心店),郑州,34.763443,113.756145,212.0,餐饮服务;中餐厅;中餐厅,17:00,21:00,郑东新区CBD,"113.753400,34.769100",34.769100,113.753400,4.6,必吃榜top10
彩丰楼中餐厅(郑州丹尼斯广场洲际酒店),郑州,34.757771,113.665954,227.0,餐饮服务;餐饮相关场所;餐饮相关,17:30,21:30,大卫城购物中心,"113.666031,34.758202",34.758202,113.666031,4.2,必吃榜top10
一绪寿喜烧(丹尼斯·大卫城店),郑州,34.757768,113.665886,159.0,餐饮服务;外国餐厅;日本料理,11:00,22:00,大卫城购物中心,"113.666031,34.758202",34.758202,113.666031,4.6,必吃榜top10;生日套餐服务
The boots泥靴Get holiday(大卫城店),郑州,34.758578,113.666557,117.0,餐饮服务;外国餐厅;西餐厅(综合风味),11:00,22:00,大卫城购物中心,"113.666031,34.758202",34.758202,113.666031,4.8,生日套餐服务;线上取号排队
王品牛排(郑州大卫城店),郑州,34.757501,113.666208,258.0,餐饮服务;外国餐厅;牛扒店(扒房),17:00,21:00,大卫城购物中心,"113.666031,34.758202",34.758202,113.666031,4.4,有等位区;线上取号排队
湘鼎盛臻品餐厅(大卫城店),郑州,34.757365,113.665761,61.0,餐饮服务;中餐厅;中餐厅,11:00,21:00,大卫城购物中心,"113.666031,34.758202",34.758202,113.666031,4.6,必吃榜top10;生日套餐服务
祖母的厨房(丹尼斯·大卫城店),郑州,34.757262,113.666027,136.0,餐饮服务;中餐厅;中餐厅,11:00,21:30,大卫城购物中心,"113.666031,34.758202",34.758202,113.666031,4.5,户外座位;生日套餐服务
德福的印度餐厅(大卫城店),郑州,34.756973,113.665911,83.0,餐饮服务;餐饮相关场所;餐饮相关,10:30,21:30,大卫城购物中心,"113.666031,34.758202",34.758202,113.666031,4.6,有等位区;线上取号排队
曼玉(丹尼斯·大卫城店),郑州,34.756848,113.666241,90.0,购物服务;服装鞋帽皮具店;服装鞋帽皮具店,11:00,21:00,大卫城购物中心,"113.666031,34.758202",34.758202,113.666031,4.7,户外座位
五号公路餐厅石烧牛扒(大卫城店),郑州,34.756777,113.666316,128.0,餐饮服务;快餐厅;快餐厅,11:00,22:00,大卫城购物中心,"113.666031,34.758202",34.758202,113.666031,4.7,有包间
郑州郑百餐厅(郑州百货大楼店),郑州,34.756286,113.668080,100.0,餐饮服务;中餐厅;中餐厅,09:30,21:00,大卫城购物中心,"113.666031,34.758202",34.758202,113.666031,3.9,户外座位;线上取号排队
郑州索菲特国际饭店·圆顶阁西餐厅,郑州,34.761863,113.692708,237.0,餐饮服务;外国餐厅;西餐厅(综合风味),11:00,21:30,郑州商都国家考古遗址公园,"113.690498,34.753775",34.753775,113.690498,4.2,生日套餐服务;线上取号排队
鸿源餐厅,郑州,34.761674,113.693653,100.0,餐饮服务;中餐厅;广东菜(粤菜),17:30,21:30,郑州商都国家考古遗址公园,"113.690498,34.753775",34.753775,113.690498,3.9,必吃榜top10;有包间
索菲特国际饭店(粤唯先中餐厅),郑州,34.761932,113.692486,204.0,餐饮服务;中餐厅;中餐厅,17:30,22:00,郑州商都国家考古遗址公园,"113.690498,34.753775",34.753775,113.690498,4.1,线上取号排队
宇通退休职工餐厅(宇通花园郑汴路42号院店),郑州,34.747100,113.697080,100.0,餐饮服务;中餐厅;中餐厅,11:00,21:00,郑州商都国家考古遗址公园,"113.690498,34.753775",34.753775,113.690498,3.6,户外座位;线上取号排队
银杏树海鲜餐厅(金水路店),郑州,34.763326,113.684358,100.0,餐饮服务;中餐厅;海鲜酒楼,17:00,22:00,紫荆山公园,"113.687708,34.761890",34.761890,113.687708,4.6,生日套餐服务
机关餐厅快餐部,郑州,34.764882,113.689757,100.0,餐饮服务;快餐厅;快餐厅,11:00,21:00,紫荆山公园,"113.687708,34.761890",34.761890,113.687708,3.8,生日套餐服务
堂后可以兴茶宴,郑州,34.764738,113.684978,93.0,餐饮服务;茶艺馆;茶艺馆|购物服务;购物相关场所;购物相关场所,09:30,23:00,紫荆山公园,"113.687708,34.761890",34.761890,113.687708,4.3,户外座位
郑州中州智选假日酒店餐厅,郑州,34.762887,113.692533,100.0,餐饮服务;咖啡厅;咖啡厅,11:00,21:00,紫荆山公园,"113.687708,34.761890",34.761890,113.687708,4.1,户外座位
星璨餐厅,郑州,34.764980,113.691112,100.0,餐饮服务;中餐厅;中餐厅,11:00,21:00,紫荆山公园,"113.687708,34.761890",34.761890,113.687708,2.6,必吃榜top10;户外座位
紫荆山宾馆-餐厅,郑州,34.764942,113.691889,100.0,餐饮服务;中餐厅;中餐厅,07:00,20:00,紫荆山公园,"113.687708,34.761890",34.761890,113.687708,4.0,线上取号排队
妈妈餐厅,郑州,34.745025,113.680175,100.0,餐饮服务;中餐厅;中餐厅,11:00,21:00,郑州文庙,"113.688345,34.748659",34.748659,113.688345,3.6,生日套餐服务
御膳堂·药膳餐厅(御玺大厦店),郑州,34.747991,113.699877,100.0,餐饮服务;中餐厅;中餐厅,11:00,21:00,郑州文庙,"113.688345,34.748659",34.748659,113.688345,3.4,必吃榜top10;户外座位
海御珍品海鲜餐厅,郑州,34.769787,113.726419,39.0,餐饮服务;中餐厅;海鲜酒楼,17:00,23:00,千玺广场（大玉米）,"113.726322,34.769955",34.769955,113.726322,3.8,有包间;生日套餐服务
郑州绿地JW万豪酒店(万豪中餐厅),郑州,34.770905,113.727350,300.0,餐饮服务;中餐厅;中餐厅,17:30,22:30,千玺广场（大玉米）,"113.726322,34.769955",34.769955,113.726322,4.5,必吃榜top10;线上取号排队
千玺云端餐厅(千玺广场店),郑州,34.771075,113.727225,165.0,餐饮服务;中餐厅;中餐厅,09:00,01:00,千玺广场（大玉米）,"113.726322,34.769955",34.769955,113.726322,4.5,户外座位;线上取号排队
郑州大玉米G PLUS空中观景餐厅,郑州,34.770914,113.727493,228.0,餐饮服务;中餐厅;综合酒楼,16:00,05:00,千玺广场（大玉米）,"113.726322,34.769955",34.769955,113.726322,4.2,户外座位
郑州绿地JW万豪酒店·都会尚膳自助餐厅,郑州,34.771054,113.727309,280.0,餐饮服务;外国餐厅;西餐厅(综合风味),17:30,21:30,千玺广场（大玉米）,"113.726322,34.769955",34.769955,113.726322,4.3,有包间;线上取号排队
醉巴鲜烤鱼(千玺广场店),郑州,34.770902,113.727580,62.0,餐饮服务;餐饮相关场所;餐饮相关,10:00,24:00,千玺广场（大玉米）,"113.726322,34.769955",34.769955,113.726322,4.2,户外座位;线上取号排队
豫见茶餐(新澳大厦店),郑州,34.767928,113.723581,100.0,餐饮服务;中餐厅;中餐厅,11:00,21:00,千玺广场（大玉米）,"113.726322,34.769955",34.769955,113.726322,4.1,户外座位;线上取号排队
薪火色(现炒餐厅),郑州,34.767451,113.723530,100.0,餐饮服务;中餐厅;中餐厅,10:00,21:00,千玺广场（大玉米）,"113.726322,34.769955",34.769955,113.726322,3.9,户外座位;有包间
锦悦茶餐厅(河南传媒大厦店),郑州,34.767405,113.722783,76.0,餐饮服务;中餐厅;海鲜酒楼,17:00,02:00,千玺广场（大玉米）,"113.726322,34.769955",34.769955,113.726322,4.2,生日套餐服务;线上取号排队
Two Birds One Stone·一石二鸟(木色店),郑州,34.767030,113.730428,95.0,餐饮服务;餐饮相关场所;餐饮相关,10:00,21:00,千玺广场（大玉米）,"113.726322,34.769955",34.769955,113.726322,4.6,必吃榜top10;线上取号排队
休息室餐厅,郑州,34.754747,113.783314,100.0,餐饮服务;中餐厅;综合酒楼,10:00,22:00,郑州东站,"113.779558,34.759081",34.759081,113.779558,3.7,户外座位;生日套餐服务
郑州合盛怡思得酒店·心邸餐厅(绿地缤纷城店),郑州,34.761864,113.772727,125.0,餐饮服务;中餐厅;中餐厅,06:30,24:00,郑州东站,"113.779558,34.759081",34.759081,113.779558,4.1,户外座位
澜亭叙茶餐厅,郑州,34.753801,113.774832,100.0,餐饮服务;快餐厅;快餐厅,09:00,22:00,郑州东站,"113.779558,34.759081",34.759081,113.779558,4.5,必吃榜top10;线上取号排队
阿香米线(郑州二七杉杉奥莱餐厅),郑州,34.526573,113.855171,31.0,餐饮服务;中餐厅;特色/地方风味餐厅,06:00,22:00,新郑国际机场,"113.856808,34.528476",34.528476,113.856808,3.7,户外座位
郑州机场大酒店中餐厅,郑州,34.528534,113.843450,70.0,餐饮服务;中餐厅;中餐厅,10:00,21:00,新郑国际机场,"113.856808,34.528476",34.528476,113.856808,4.1,必吃榜top10;有包间
广东餐厅(二马路),郑州,34.749825,113.660012,100.0,餐饮服务;中餐厅;广东菜(粤菜),11:00,21:00,郑州站,"113.658097,34.745795",34.745795,113.658097,3.7,线上取号排队
营养健康餐厅,郑州,34.744171,113.652484,100.0,餐饮服务;中餐厅;中餐厅,11:00,21:00,郑州站,"113.658097,34.745795",34.745795,113.658097,3.5,有等位区;线上取号排队
如泰餐厅,郑州,39.156418,117.160338,32.0,餐饮服务;中餐厅;中餐厅,08:00,20:00,天津西站,"117.162943,39.158704",39.158704,117.162943,4.1,有等位区
利德顺小老饭庄(复兴路店),郑州,39.151281,117.160536,100.0,餐饮服务;中餐厅;清真菜馆,16:30,21:00,天津西站,"117.162943,39.158704",39.158704,117.162943,4.1,户外座位
鸿春来餐厅(银泰公寓店),郑州,39.161463,117.152478,11.0,餐饮服务;中餐厅;中餐厅,05:30,21:30,天津西站,"117.162943,39.158704",39.158704,117.162943,3.8,户外座位;线上取号排队
同发号饭庄,郑州,39.149775,117.161625,77.0,餐饮服务;中餐厅;中餐厅,16:30,21:00,天津西站,"117.162943,39.158704",39.158704,117.162943,4.6,生日套餐服务
瑞幸咖啡(鹏欣水游城店),郑州,39.150654,117.168945,18.0,餐饮服务;咖啡厅;咖啡厅,10:00,22:00,天津西站,"117.162943,39.158704",39.158704,117.162943,4.7,有包间;有等位区
天外来物集合餐厅(天津站),郑州,39.132228,117.207993,100.0,餐饮服务;餐饮相关场所;餐饮相关,11:00,21:00,天津站,"117.210089,39.135951",39.135951,117.210089,4.3,线上取号排队
青年餐厅(津湾店),郑州,39.132001,117.207130,100.0,餐饮服务;中餐厅;中餐厅,10:00,23:00,天津站,"117.210089,39.135951",39.135951,117.210089,4.7,有包间;生日套餐服务
清真东伊顺餐厅,郑州,39.136953,117.216094,58.0,餐饮服务;中餐厅;清真菜馆,16:30,21:30,天津站,"117.210089,39.135951",39.135951,117.210089,4.5,有等位区
天津站希尔顿欢朋酒店-欢朋餐厅,郑州,39.132857,117.204190,50.0,餐饮服务;中餐厅;中餐厅,07:00,10:00,天津站,"117.210089,39.135951",39.135951,117.210089,4.4,生日套餐服务
军垦宾馆·新疆风味餐厅,郑州,39.140001,117.214997,74.0,餐饮服务;中餐厅;中餐厅,17:00,21:30,天津站,"117.210089,39.135951",39.135951,117.210089,4.4,有等位区;线上取号排队
雪鹿全日自助餐厅(银基冰雪酒店),郑州,34.481312,113.553247,131.0,餐饮服务;中餐厅;中餐厅,17:30,21:30,新密黄帝宫御温泉度假酒店,"113.550337,34.481991",34.481991,113.550337,4.5,生日套餐服务
雪龙轩中餐厅(银基冰雪酒店),郑州,34.480809,113.553406,140.0,餐饮服务;中餐厅;中餐厅,17:30,21:00,新密黄帝宫御温泉度假酒店,"113.550337,34.481991",34.481991,113.550337,4.2,必吃榜top10
海港餐厅,郑州,34.484514,113.547905,34.0,餐饮服务;餐饮相关场所;餐饮相关,10:00,18:00,新密黄帝宫御温泉度假酒店,"113.550337,34.481991",34.481991,113.550337,4.3,有等位区
蹦蹦音乐餐厅,郑州,34.369146,113.919410,100.0,餐饮服务;中餐厅;中餐厅,09:00,21:00,云缦酒店(郑州港区比亚迪工厂店),"113.919851,34.368782",34.368782,113.919851,3.6,生日套餐服务
新一家(郑州市航空港区)主题餐饮饭店(个体工商户),郑州,34.365406,113.918814,100.0,餐饮服务;中餐厅;中餐厅,08:00,22:00,云缦酒店(郑州港区比亚迪工厂店),"113.919851,34.368782",34.368782,113.919851,3.8,户外座位;有包间
厨邸餐厅一一美食推荐店,郑州,34.774810,113.897450,38.0,餐饮服务;中餐厅;中餐厅,17:30,21:30,凯里酒店(方特店),"113.898716,34.776107",34.776107,113.898716,4.3,有等位区
荷塘悦舍餐厅,郑州,34.783838,113.897397,100.0,餐饮服务;中餐厅;中餐厅,06:00,22:00,凯里酒店(方特店),"113.898716,34.776107",34.776107,113.898716,3.5,有包间
sandwich健康餐厅,郑州,34.786132,113.895445,100.0,餐饮服务;中餐厅;中餐厅,08:00,21:00,凯里酒店(方特店),"113.898716,34.776107",34.776107,113.898716,3.5,线上取号排队
火鸟BBQ美式餐厅,郑州,34.798238,113.300273,70.0,餐饮服务;外国餐厅;外国餐厅,11:00,23:00,郑州上街雅乐轩酒店,"113.310118,34.801647",34.801647,113.310118,3.9,必吃榜top10;线上取号排队
阿晓海鲜饭店,郑州,34.812692,113.311948,100.0,餐饮服务;中餐厅;海鲜酒楼,17:30,22:30,郑州上街雅乐轩酒店,"113.310118,34.801647",34.801647,113.310118,4.3,必吃榜top10;生日套餐服务
觅享客西餐厅,郑州,34.802785,113.295809,100.0,餐饮服务;外国餐厅;西餐厅(综合风味),08:00,22:00,郑州上街雅乐轩酒店,"113.310118,34.801647",34.801647,113.310118,3.9,生日套餐服务;线上取号排队
广味轩茶餐厅,郑州,34.755575,113.709175,100.0,餐饮服务;快餐厅;快餐厅,11:00,21:00,如家-郑州未来路中原国际博览中心店,"113.707762,34.751806",34.751806,113.707762,2.7,户外座位;生日套餐服务
德发财潮汕砂锅粥餐厅(曼哈顿店),郑州,34.755881,113.709081,37.0,餐饮服务;中餐厅;中餐厅,07:00,23:45,如家-郑州未来路中原国际博览中心店,"113.707762,34.751806",34.751806,113.707762,4.4,户外座位
万盛源自助餐厅,郑州,34.751179,113.702047,100.0,餐饮服务;中餐厅;中餐厅,11:00,21:00,如家-郑州未来路中原国际博览中心店,"113.707762,34.751806",34.751806,113.707762,2.4,必吃榜top10
品宜时代融合餐厅(绿都广场店),郑州,34.747855,113.703342,100.0,餐饮服务;中餐厅;中餐厅,11:00,21:00,如家-郑州未来路中原国际博览中心店,"113.707762,34.751806",34.751806,113.707762,4.0,有包间
上餐馆(凤台路店),郑州,34.750079,113.714568,69.0,餐饮服务;中餐厅;中餐厅,11:30,22:00,如家-郑州未来路中原国际博览中心店,"113.707762,34.751806",34.751806,113.707762,4.4,户外座位;线上取号排队
友金生珠宝茶餐厅(伟业象湖苑店),郑州,34.769988,113.864010,100.0,餐饮服务;快餐厅;快餐厅,11:00,21:00,如家商旅-郑州象湖大学城方特绿博园店,"113.863671,34.772125",34.772125,113.863671,3.7,生日套餐服务
鑫瓦库茶餐厅(伟业象湖苑店),郑州,34.769990,113.864126,100.0,餐饮服务;快餐厅;茶餐厅,11:00,21:00,如家商旅-郑州象湖大学城方特绿博园店,"113.863671,34.772125",34.772125,113.863671,3.5,必吃榜top10;户外座位
星空餐厅,郑州,34.776286,113.866757,100.0,餐饮服务;中餐厅;中餐厅,11:00,21:00,如家商旅-郑州象湖大学城方特绿博园店,"113.863671,34.772125",34.772125,113.863671,3.9,必吃榜top10
拾岁火锅餐厅(未来路店),郑州,34.771161,113.707663,100.0,餐饮服务;中餐厅;火锅店,09:30,24:00,全季郑州会展中心未来路酒店,"113.707000,34.772300",34.772300,113.707000,4.6,有等位区
美仑中餐厅(未来路店),郑州,34.773957,113.708770,43.0,餐饮服务;餐饮相关场所;餐饮相关,11:00,21:00,全季郑州会展中心未来路酒店,"113.707000,34.772300",34.772300,113.707000,4.0,必吃榜top10
期货餐厅(未来大厦店),郑州,34.769968,113.708708,100.0,餐饮服务;中餐厅;中餐厅,17:30,21:30,全季郑州会展中心未来路酒店,"113.707000,34.772300",34.772300,113.707000,4.3,户外座位;线上取号排队
未来大酒店·金色未来餐厅,郑州,34.769025,113.707177,162.0,餐饮服务;中餐厅;中餐厅,18:00,21:00,全季郑州会展中心未来路酒店,"113.707000,34.772300",34.772300,113.707000,4.2,线上取号排队
元福元大食堂(金城时代广场店),郑州,34.776707,113.706486,24.0,餐饮服务;中餐厅;中餐厅,11:00,21:00,全季郑州会展中心未来路酒店,"113.707000,34.772300",34.772300,113.707000,4.1,生日套餐服务
焱鱼乐鲜活烤鱼店,郑州,34.761705,113.612585,100.0,餐饮服务;中餐厅;中餐厅,11:00,21:00,杜康大酒店(中原万达五一公园地铁站店),"113.612902,34.758384",34.758384,113.612902,4.0,生日套餐服务
豪客来牛排(郑州锦艺花都餐厅),郑州,34.762755,113.611070,76.0,餐饮服务;外国餐厅;西餐厅(综合风味),10:00,22:00,杜康大酒店(中原万达五一公园地铁站店),"113.612902,34.758384",34.758384,113.612902,4.5,必吃榜top10;户外座位
佬港味港式餐厅(锦艺国际华都·美域店),郑州,34.763075,113.608554,43.0,餐饮服务;中餐厅;广东菜(粤菜),10:30,22:00,杜康大酒店(中原万达五一公园地铁站店),"113.612902,34.758384",34.758384,113.612902,4.4,生日套餐服务
四厂网红烤包子,郑州,34.755958,113.621102,11.0,餐饮服务;中餐厅;清真菜馆,10:00,22:00,杜康大酒店(中原万达五一公园地铁站店),"113.612902,34.758384",34.758384,113.612902,4.6,有等位区;线上取号排队
北角秀味港式茶餐厅(锦艺城C区店),郑州,34.763426,113.606488,62.0,餐饮服务;快餐厅;茶餐厅,10:00,22:00,杜康大酒店(中原万达五一公园地铁站店),"113.612902,34.758384",34.758384,113.612902,4.3,线上取号排队
七一三所职工餐厅,郑州,34.720756,113.654589,100.0,餐饮服务;餐饮相关场所;餐饮相关,11:00,21:00,锦江之星（郑州二七万达京广南路地铁站店）,"113.653960,34.720634",34.720634,113.653960,4.2,户外座位;有包间
胥佳烧鸡公牛肉面馆(服装中心家属院店),郑州,34.723499,113.657702,100.0,餐饮服务;中餐厅;中餐厅,06:30,22:00,锦江之星（郑州二七万达京广南路地铁站店）,"113.653960,34.720634",34.720634,113.653960,4.5,有等位区
周记特色羊杂汤(京广快速路店),郑州,34.725565,113.656808,15.0,餐饮服务;中餐厅;中餐厅,05:30,22:00,锦江之星（郑州二七万达京广南路地铁站店）,"113.653960,34.720634",34.720634,113.653960,4.5,生日套餐服务
郑州概念餐厅,郑州,34.763862,113.693297,100.0,餐饮服务;中餐厅;中餐厅,11:00,21:00,全季郑州金水路酒店,"113.693000,34.763800",34.763800,113.693000,3.7,有包间
同膳堂体验餐厅,郑州,34.764509,113.745962,100.0,餐饮服务;中餐厅;中餐厅,08:00,21:00,辰玺酒店(郑州会展中心店),"113.745222,34.764990",34.764990,113.745222,3.8,生日套餐服务
清院茶餐厅,郑州,34.765092,113.744012,100.0,餐饮服务;快餐厅;茶餐厅,11:00,21:00,辰玺酒店(郑州会展中心店),"113.745222,34.764990",34.764990,113.745222,3.7,户外座位
楚境餐厅(省政府店),郑州,34.767275,113.746025,138.0,餐饮服务;中餐厅;中餐厅,17:00,21:30,辰玺酒店(郑州会展中心店),"113.745222,34.764990",34.764990,113.745222,4.7,户外座位;有等位区
惠民餐厅(关虎屯生活广场店),郑州,34.782608,113.677926,100.0,餐饮服务;中餐厅;中餐厅,11:00,21:00,郑州省博物院花园路亚朵酒店,"113.677554,34.784188",34.784188,113.677554,2.0,户外座位
曼玉小馆(国贸店),郑州,34.784425,113.679525,80.0,餐饮服务;中餐厅;中餐厅,10:00,22:00,郑州省博物院花园路亚朵酒店,"113.677554,34.784188",34.784188,113.677554,4.5,必吃榜top10
冒张张油卤串串(国贸360店),郑州,34.783597,113.675687,100.0,餐饮服务;餐饮相关场所;餐饮相关,11:00,23:00,郑州省博物院花园路亚朵酒店,"113.677554,34.784188",34.784188,113.677554,4.7,线上取号排队
即途雅宴,郑州,34.701940,113.851107,50.0,餐饮服务;快餐厅;茶餐厅,17:00,21:00,艺龙瑞云酒店(郑州南三环投控智慧物流产业园区店),"113.851048,34.702123",34.702123,113.851048,4.5,户外座位;有包间
好日子餐馆,郑州,34.712158,113.844010,100.0,餐饮服务;中餐厅;中餐厅,11:00,21:00,艺龙瑞云酒店(郑州南三环投控智慧物流产业园区店),"113.851048,34.702123",34.702123,113.851048,3.5,有包间;生日套餐服务
和园餐厅,郑州,34.693283,113.860558,100.0,餐饮服务;中餐厅;中餐厅,11:00,21:00,艺龙瑞云酒店(郑州南三环投控智慧物流产业园区店),"113.851048,34.702123",34.702123,113.851048,3.9,生日套餐服务;线上取号排队
怡园餐厅,郑州,34.694581,113.866988,100.0,餐饮服务;中餐厅;中餐厅,11:00,21:00,艺龙瑞云酒店(郑州南三环投控智慧物流产业园区店),"113.851048,34.702123",34.702123,113.851048,3.9,户外座位;线上取号排队
佳园餐厅,郑州,34.690245,113.867122,100.0,餐饮服务;中餐厅;中餐厅,11:00,21:00,艺龙瑞云酒店(郑州南三环投控智慧物流产业园区店),"113.851048,34.702123",34.702123,113.851048,3.9,户外座位;线上取号排队
湖光悦色餐厅,郑州,34.812680,113.480604,118.0,餐饮服务;餐饮相关场所;餐饮相关,17:00,21:30,郑州高新假日酒店,"113.484180,34.819372",34.819372,113.484180,4.1,户外座位;生日套餐服务
肯德基车速取餐厅(科学大道中石油DT),郑州,34.807940,113.489790,100.0,餐饮服务;餐饮相关场所;餐饮相关,11:00,21:00,郑州高新假日酒店,"113.484180,34.819372",34.819372,113.484180,3.6,有包间
小猪·噜噜儿童辅食餐厅,郑州,34.816074,113.501214,14.0,餐饮服务;餐饮相关场所;餐饮相关,09:00,20:30,郑州高新假日酒店,"113.484180,34.819372",34.819372,113.484180,4.1,有包间;有等位区
食客百惠中式快餐厅,郑州,34.802844,113.492636,100.0,餐饮服务;快餐厅;快餐厅,11:00,21:00,郑州高新假日酒店,"113.484180,34.819372",34.819372,113.484180,4.3,生日套餐服务;线上取号排队
源味餐厅,郑州,34.789442,113.801597,100.0,餐饮服务;中餐厅;中餐厅,11:00,21:00,全季郑州龙子湖高校区酒店,"113.800906,34.790156",34.790156,113.800906,3.8,必吃榜top10;有等位区
龙子湖仟那元熙酒店-东和中餐厅,郑州,34.789033,113.801807,114.0,餐饮服务;中餐厅;中餐厅,17:30,21:00,全季郑州龙子湖高校区酒店,"113.800906,34.790156",34.790156,113.800906,4.6,有等位区;线上取号排队
行山Omakase日料,郑州,34.788855,113.801999,301.0,餐饮服务;外国餐厅;日本料理,17:30,22:00,全季郑州龙子湖高校区酒店,"113.800906,34.790156",34.790156,113.800906,4.4,有等位区
河南牧业经济学院北林路校区第二学生餐厅,郑州,34.805001,113.686201,100.0,餐饮服务;中餐厅;中餐厅,06:00,22:00,郑州汉风商务酒店,"113.682103,34.802514",34.802514,113.682103,3.9,必吃榜top10;户外座位
黔妹儿豫贵州酸汤豆米火锅,郑州,34.800082,113.675372,60.0,餐饮服务;中餐厅;火锅店,17:00,23:00,郑州汉风商务酒店,"113.682103,34.802514",34.802514,113.682103,4.4,必吃榜top10
郑州市公安局公安交通管理局交警十二支队餐厅,郑州,34.715080,113.765103,100.0,餐饮服务;中餐厅;中餐厅,11:00,21:00,汉庭郑州东站八大街酒店,"113.767825,34.712978",34.712978,113.767825,3.3,户外座位;有等位区
食尚餐厅(肥牛饭),郑州,34.718823,113.770208,15.0,餐饮服务;中餐厅;综合酒楼,11:00,21:00,汉庭郑州东站八大街酒店,"113.767825,34.712978",34.712978,113.767825,4.2,必吃榜top10;生日套餐服务
南边风车格尔国际饭店中餐厅,郑州,34.719198,113.764169,100.0,餐饮服务;中餐厅;中餐厅,17:30,09:30,汉庭郑州东站八大街酒店,"113.767825,34.712978",34.712978,113.767825,4.1,有包间
厨邸餐厅一一美食推荐店,郑州,34.774810,113.897450,38.0,餐饮服务;中餐厅;中餐厅,17:30,21:30,全季酒店(郑州中牟绿博大道方特旅游度假区店),"113.890748,34.760072",34.760072,113.890748,4.3,必吃榜top10;生日套餐服务
千度音乐餐厅,郑州,34.741199,113.878040,100.0,餐饮服务;中餐厅;中餐厅,13:00,03:00,全季酒店(郑州中牟绿博大道方特旅游度假区店),"113.890748,34.760072",34.760072,113.890748,4.5,户外座位;有包间
鑫瓦库茶餐厅(伟业象湖苑店),郑州,34.769990,113.864126,100.0,餐饮服务;快餐厅;茶餐厅,11:00,21:00,全季酒店(郑州中牟绿博大道方特旅游度假区店),"113.890748,34.760072",34.760072,113.890748,3.5,有包间;生日套餐服务
友金生珠宝茶餐厅(伟业象湖苑店),郑州,34.769988,113.864010,100.0,餐饮服务;快餐厅;快餐厅,11:00,21:00,全季酒店(郑州中牟绿博大道方特旅游度假区店),"113.890748,34.760072",34.760072,113.890748,3.7,有等位区;线上取号排队
韩风源烧烤涮自助餐厅(白沙店),郑州,34.736560,113.897986,59.0,购物服务;购物相关场所;购物相关场所,11:00,21:00,全季酒店(郑州中牟绿博大道方特旅游度假区店),"113.890748,34.760072",34.760072,113.890748,4.3,有包间;生日套餐服务
广义信阳毛尖茶餐厅(豫航店),郑州,34.771881,113.755782,100.0,购物服务;专卖店;专营店,11:00,21:00,桔子郑州省政府万象城酒店,"113.755528,34.771074",34.771074,113.755528,3.7,户外座位
誉龙轩茶餐厅(豫航中心店),郑州,34.771871,113.755230,100.0,餐饮服务;中餐厅;中餐厅,09:00,22:30,桔子郑州省政府万象城酒店,"113.755528,34.771074",34.771074,113.755528,3.6,有包间;有等位区
鑫仕麟假日酒店-原素餐厅,郑州,34.771175,113.757935,73.0,餐饮服务;中餐厅;中餐厅,11:00,21:00,桔子郑州省政府万象城酒店,"113.755528,34.771074",34.771074,113.755528,4.2,必吃榜top10
天明坊五味药膳餐厅,郑州,34.772309,113.759111,279.0,餐饮服务;中餐厅;中餐厅,17:30,21:00,桔子郑州省政府万象城酒店,"113.755528,34.771074",34.771074,113.755528,4.3,户外座位
鼎盛时尚餐厅(东方·鼎盛中心店),郑州,34.773840,113.759296,15.0,餐饮服务;中餐厅;中餐厅,07:30,21:00,桔子郑州省政府万象城酒店,"113.755528,34.771074",34.771074,113.755528,3.9,生日套餐服务
西部餐厅,郑州,34.768817,113.933939,100.0,餐饮服务;中餐厅;中餐厅,11:00,21:00,郑州中牟智璞酒店（（只有河南电影小镇店））,"113.955310,34.786329",34.786329,113.955310,3.8,有包间;有等位区
奥特曼主题餐厅怪兽店,郑州,34.789259,113.986234,63.0,餐饮服务;中餐厅;中餐厅,11:00,18:00,郑州中牟智璞酒店（（只有河南电影小镇店））,"113.955310,34.786329",34.786329,113.955310,3.9,线上取号排队
奥特曼主题餐厅-英雄店,郑州,34.786826,113.988821,86.0,餐饮服务;中餐厅;中餐厅,11:00,21:00,郑州中牟智璞酒店（（只有河南电影小镇店））,"113.955310,34.786329",34.786329,113.955310,4.0,有等位区;线上取号排队
中牟杨记大盘鸡小餐馆,郑州,34.756800,113.944461,100.0,餐饮服务;中餐厅;中餐厅,08:00,23:15,郑州中牟智璞酒店（（只有河南电影小镇店））,"113.955310,34.786329",34.786329,113.955310,3.7,户外座位;线上取号排队
兄弟美食小餐馆,郑州,34.805008,113.919082,100.0,餐饮服务;中餐厅;中餐厅,08:00,23:00,郑州中牟智璞酒店（（只有河南电影小镇店））,"113.955310,34.786329",34.786329,113.955310,3.6,线上取号排队
宴秋高尔夫餐厅,郑州,34.923788,113.514385,100.0,餐饮服务;中餐厅;中餐厅,09:00,20:30,郑州黄河文化公园,"113.512589,34.953667",34.953667,113.512589,4.1,有包间
思念果岭大年农庄餐厅,郑州,34.919063,113.515391,100.0,餐饮服务;中餐厅;中餐厅,17:30,20:30,郑州黄河文化公园,"113.512589,34.953667",34.953667,113.512589,4.3,有等位区
思念果岭湖畔花房餐厅,郑州,34.914813,113.516550,85.0,餐饮服务;餐饮相关场所;餐饮相关,10:00,22:00,郑州黄河文化公园,"113.512589,34.953667",34.953667,113.512589,4.5,户外座位
第二业主餐厅,郑州,34.912985,113.515865,100.0,餐饮服务;中餐厅;中餐厅,08:00,20:30,郑州黄河文化公园,"113.512589,34.953667",34.953667,113.512589,3.8,必吃榜top10;有等位区
郑州商专餐厅,郑州,34.918067,113.537293,100.0,餐饮服务;中餐厅;中餐厅,06:00,22:00,郑州黄河文化公园,"113.512589,34.953667",34.953667,113.512589,3.9,户外座位
稻本稻无人餐厅(升龙城店),郑州,34.721237,113.632227,100.0,餐饮服务;中餐厅;中餐厅,09:30,21:00,郑州博物馆(嵩山路馆),"113.632600,34.723400",34.723400,113.632600,3.5,必吃榜top10
音乐餐吧,郑州,34.725040,113.629748,100.0,餐饮服务;中餐厅;中餐厅,11:00,21:00,郑州博物馆(嵩山路馆),"113.632600,34.723400",34.723400,113.632600,3.5,有包间
小青荷餐厅,郑州,34.721666,113.636146,100.0,餐饮服务;中餐厅;中餐厅,08:00,22:00,郑州博物馆(嵩山路馆),"113.632600,34.723400",34.723400,113.632600,3.9,户外座位
赞巴啦花卉市场二楼餐厅,郑州,34.726575,113.626975,100.0,餐饮服务;中餐厅;中餐厅,11:00,21:00,郑州博物馆(嵩山路馆),"113.632600,34.723400",34.723400,113.632600,3.6,有等位区
昆仑乐居商务酒店中餐厅(淮河路店),郑州,34.729111,113.631083,155.0,餐饮服务;餐饮相关场所;餐饮相关,11:00,21:00,郑州博物馆(嵩山路馆),"113.632600,34.723400",34.723400,113.632600,4.1,有等位区
米皮记清真餐厅(淮南街),郑州,34.728594,113.636312,11.0,餐饮服务;中餐厅;清真菜馆,10:00,22:00,郑州博物馆(嵩山路馆),"113.632600,34.723400",34.723400,113.632600,4.3,有包间;生日套餐服务
郑州市第二人民医院院本部营养餐厅(连心里店),郑州,34.721965,113.639981,100.0,餐饮服务;中餐厅;中餐厅,11:00,21:00,郑州博物馆(嵩山路馆),"113.632600,34.723400",34.723400,113.632600,3.9,有包间;生日套餐服务
撞吧音乐餐厅,郑州,34.726061,113.640451,100.0,体育休闲服务;娱乐场所;酒吧,11:00,21:00,郑州博物馆(嵩山路馆),"113.632600,34.723400",34.723400,113.632600,3.9,有等位区
画上音乐餐吧,郑州,34.717961,113.626270,29.0,餐饮服务;中餐厅;中餐厅,16:00,02:00,郑州博物馆(嵩山路馆),"113.632600,34.723400",34.723400,113.632600,4.8,线上取号排队
素颐香素食自助餐厅,郑州,34.725310,113.641557,24.0,餐饮服务;餐饮相关场所;餐饮相关,17:30,19:30,郑州博物馆(嵩山路馆),"113.632600,34.723400",34.723400,113.632600,4.4,有包间
韩风源烧烤涮自助餐厅(亚细亚卓悦城店),郑州,34.751785,113.667704,80.0,餐饮服务;中餐厅;中餐厅,11:00,23:30,二七广场,"113.666451,34.751860",34.751860,113.666451,4.7,户外座位
粤海酒店璇宫西餐厅(二七广场),郑州,34.749629,113.667658,111.0,餐饮服务;外国餐厅;西餐厅(综合风味),10:00,23:00,二七广场,"113.666451,34.751860",34.751860,113.666451,3.9,必吃榜top10
粤海酒店-粤海轩中餐厅,郑州,34.749142,113.667796,100.0,餐饮服务;中餐厅;中餐厅,11:00,21:00,二七广场,"113.666451,34.751860",34.751860,113.666451,3.9,有等位区;线上取号排队
虎丫炒鸡(河南郑州二七万象城店),郑州,34.754815,113.662798,55.0,餐饮服务;中餐厅;中餐厅,10:00,22:00,二七广场,"113.666451,34.751860",34.751860,113.666451,4.6,户外座位
几许民谣烧烤馆(郑州光彩店),郑州,34.755287,113.669676,72.0,餐饮服务;中餐厅;中餐厅,18:00,02:30,二七广场,"113.666451,34.751860",34.751860,113.666451,4.6,必吃榜top10;户外座位
绿茶餐厅(郑州万象城店),郑州,34.754667,113.662403,100.0,餐饮服务;中餐厅;中餐厅,11:00,21:00,二七广场,"113.666451,34.751860",34.751860,113.666451,4.6,有包间
大同宾馆餐厅,郑州,34.747498,113.663838,31.0,餐饮服务;中餐厅;中餐厅,17:00,21:00,二七广场,"113.666451,34.751860",34.751860,113.666451,3.8,有等位区;生日套餐服务
鼎苑自助餐厅,郑州,34.786308,113.672932,100.0,餐饮服务;中餐厅;中餐厅,11:00,21:00,河南博物院,"113.672097,34.788263",34.788263,113.672097,2.5,必吃榜top10;有包间
享舍茶餐厅(世纪星大楼店),郑州,34.786292,113.671079,100.0,餐饮服务;快餐厅;茶餐厅,17:00,21:30,河南博物院,"113.672097,34.788263",34.788263,113.672097,3.8,必吃榜top10;线上取号排队
世纪星花园餐厅,郑州,34.786256,113.671176,100.0,餐饮服务;中餐厅;中餐厅,11:00,21:00,河南博物院,"113.672097,34.788263",34.788263,113.672097,4.1,户外座位
美食餐厅(郑州时代国际广场70栋店),郑州,34.786608,113.670287,100.0,餐饮服务;中餐厅;中餐厅,11:00,21:00,河南博物院,"113.672097,34.788263",34.788263,113.672097,3.5,必吃榜top10;有包间
农大家园教工餐厅(文化路52号院店),郑州,34.785268,113.668041,100.0,餐饮服务;中餐厅;中餐厅,06:00,22:00,河南博物院,"113.672097,34.788263",34.788263,113.672097,3.9,生日套餐服务
农大家园教职工餐厅,郑州,34.784879,113.666814,100.0,餐饮服务;中餐厅;中餐厅,08:00,22:00,河南博物院,"113.672097,34.788263",34.788263,113.672097,4.0,必吃榜top10;户外座位
冒张张油卤串串(国贸360店),郑州,34.783597,113.675687,100.0,餐饮服务;餐饮相关场所;餐饮相关,11:00,23:00,河南博物院,"113.672097,34.788263",34.788263,113.672097,4.7,线上取号排队
虹盐RED SALT新派印巴餐厅,郑州,34.793421,113.677088,69.0,餐饮服务;中餐厅;中餐厅,11:00,21:00,河南博物院,"113.672097,34.788263",34.788263,113.672097,4.5,必吃榜top10
文通冰室(国贸360店),郑州,34.784943,113.679565,39.0,餐饮服务;冷饮店;冷饮店,10:30,22:00,河南博物院,"113.672097,34.788263",34.788263,113.672097,4.7,户外座位;生日套餐服务
万达文华酒店品珍中餐厅,郑州,34.792621,113.678848,246.0,餐饮服务;餐饮相关场所;餐饮相关,17:30,21:30,河南博物院,"113.672097,34.788263",34.788263,113.672097,4.4,生日套餐服务
罗山渔家乐餐厅,郑州,34.903556,113.670261,63.0,餐饮服务;中餐厅;中餐厅,10:00,23:00,黄河花园口旅游区,"113.676636,34.903629",34.903629,113.676636,4.3,必吃榜top10;生日套餐服务
旺旺小餐馆,郑州,34.901524,113.668069,100.0,餐饮服务;中餐厅;中餐厅,11:00,21:00,黄河花园口旅游区,"113.676636,34.903629",34.903629,113.676636,2.4,线上取号排队
千玺云端餐厅(千玺广场店),郑州,34.771075,113.727225,165.0,餐饮服务;中餐厅;中餐厅,09:00,01:00,如意湖景区,"113.724204,34.772895",34.772895,113.724204,4.5,户外座位;有包间
郑州绿地JW万豪酒店·都会尚膳自助餐厅,郑州,34.771054,113.727309,280.0,餐饮服务;外国餐厅;西餐厅(综合风味),17:30,21:30,如意湖景区,"113.724204,34.772895",34.772895,113.724204,4.3,有包间
郑州绿地JW万豪酒店(万豪中餐厅),郑州,34.770905,113.727350,300.0,餐饮服务;中餐厅;中餐厅,17:30,22:30,如意湖景区,"113.724204,34.772895",34.772895,113.724204,4.5,有包间
郑州大玉米G PLUS空中观景餐厅,郑州,34.770914,113.727493,228.0,餐饮服务;中餐厅;综合酒楼,16:00,05:00,如意湖景区,"113.724204,34.772895",34.772895,113.724204,4.2,有包间
醉巴鲜烤鱼(千玺广场店),郑州,34.770902,113.727580,62.0,餐饮服务;餐饮相关场所;餐饮相关,10:00,24:00,如意湖景区,"113.724204,34.772895",34.772895,113.724204,4.2,有等位区
海御珍品海鲜餐厅,郑州,34.769787,113.726419,39.0,餐饮服务;中餐厅;海鲜酒楼,17:00,23:00,如意湖景区,"113.724204,34.772895",34.772895,113.724204,3.8,必吃榜top10
五号餐厅(河南国际商会大厦店),郑州,34.770632,113.719294,18.0,餐饮服务;中餐厅;中餐厅,11:00,21:00,如意湖景区,"113.724204,34.772895",34.772895,113.724204,4.2,有等位区
豫见茶餐(新澳大厦店),郑州,34.767928,113.723581,100.0,餐饮服务;中餐厅;中餐厅,11:00,21:00,如意湖景区,"113.724204,34.772895",34.772895,113.724204,4.1,线上取号排队
华豫川餐厅(丹尼斯.七天地店),郑州,34.777780,113.722674,100.0,餐饮服务;中餐厅;中餐厅,11:00,21:00,如意湖景区,"113.724204,34.772895",34.772895,113.724204,4.7,必吃榜top10;线上取号排队
得闲之间·茶馆·生态信阳菜(CBD店),郑州,34.774628,113.718260,88.0,生活服务;生活服务场所;生活服务场所,11:00,21:00,如意湖景区,"113.724204,34.772895",34.772895,113.724204,4.6,有包间;生日套餐服务
双生四季甜品融合餐厅(姚桥社区北院店),郑州,34.813115,113.795071,27.0,餐饮服务;甜品店;甜品店,11:00,22:00,北龙湖湿地公园,"113.789100,34.812300",34.812300,113.789100,4.4,户外座位
炫歌音乐餐吧,郑州,34.809266,113.793947,100.0,餐饮服务;中餐厅;中餐厅,11:00,21:00,北龙湖湿地公园,"113.789100,34.812300",34.812300,113.789100,3.9,线上取号排队
石见里融合餐厅,郑州,34.818459,113.794111,100.0,餐饮服务;餐饮相关场所;餐饮相关,11:00,21:00,北龙湖湿地公园,"113.789100,34.812300",34.812300,113.789100,3.8,生日套餐服务;线上取号排队
湖畔餐厅,郑州,34.803494,113.786967,100.0,餐饮服务;中餐厅;中餐厅,11:00,21:00,北龙湖湿地公园,"113.789100,34.812300",34.812300,113.789100,3.5,有等位区;生日套餐服务
粗粮小厨羊肉大串鲜炒鸡,郑州,34.809780,113.800337,53.0,餐饮服务;中餐厅;综合酒楼,10:00,23:00,北龙湖湿地公园,"113.789100,34.812300",34.812300,113.789100,4.1,有包间;线上取号排队
享百味尚上锅29元火锅自助餐厅(时埂社区店)(暂停营业),郑州,34.808834,113.797840,31.0,餐饮服务;餐饮相关场所;餐饮相关,10:00,23:30,北龙湖湿地公园,"113.789100,34.812300",34.812300,113.789100,4.2,必吃榜top10
一苇山房素食餐厅(嵩山少林景区官方店),郑州,34.513012,112.952106,33.0,餐饮服务;中餐厅;中餐厅,09:30,21:00,三皇寨,"112.952063,34.473496",34.473496,112.952063,3.9,有包间
少林服务区快捷餐厅,郑州,34.427016,112.929723,100.0,餐饮服务;快餐厅;快餐厅,11:00,21:00,三皇寨,"112.952063,34.473496",34.473496,112.952063,3.7,有包间;生日套餐服务
禅武大酒店-中餐厅,郑州,34.471305,113.017117,136.0,餐饮服务;中餐厅;中餐厅,08:30,22:00,三皇寨,"112.952063,34.473496",34.473496,112.952063,4.4,有包间;线上取号排队
嵩山不一般水席文化餐厅,郑州,34.449754,113.018493,91.0,餐饮服务;中餐厅;中餐厅,17:00,21:00,三皇寨,"112.952063,34.473496",34.473496,112.952063,4.4,户外座位
雲舍茶餐厅,郑州,34.468766,113.028504,113.0,餐饮服务;快餐厅;茶餐厅,10:00,23:00,三皇寨,"112.952063,34.473496",34.473496,112.952063,4.4,生日套餐服务;线上取号排队
小滋味餐厅,郑州,34.740996,113.539988,100.0,餐饮服务;中餐厅;中餐厅,11:00,21:00,郑州博物馆新馆,"113.546720,34.739600",34.739600,113.546720,3.6,有包间
郑州奥体建国饭店-海鲜自助餐厅,郑州,34.739770,113.537534,100.0,餐饮服务;中餐厅;中餐厅,17:00,21:00,郑州博物馆新馆,"113.546720,34.739600",34.739600,113.546720,4.0,生日套餐服务
郑地奥体建国饭店全日制餐厅,郑州,34.740659,113.537609,100.0,餐饮服务;餐饮相关场所;餐饮相关,17:30,21:00,郑州博物馆新馆,"113.546720,34.739600",34.739600,113.546720,4.2,户外座位;线上取号排队
酒巭餐厅,郑州,34.739579,113.561973,100.0,餐饮服务;中餐厅;中餐厅,11:00,21:00,郑州博物馆新馆,"113.546720,34.739600",34.739600,113.546720,3.6,有等位区
牡丹餐厅(翊尔酒管公司),郑州,34.739995,113.562140,100.0,餐饮服务;中餐厅;中餐厅,07:30,15:00,郑州博物馆新馆,"113.546720,34.739600",34.739600,113.546720,4.1,必吃榜top10;生日套餐服务
M艺术餐厅七德胜·牛肉面,郑州,34.739800,113.563173,100.0,餐饮服务;中餐厅;中餐厅,11:00,21:00,郑州博物馆新馆,"113.546720,34.739600",34.739600,113.546720,4.0,户外座位
瓦库50号(凯旋路店),郑州,34.740377,113.563327,100.0,餐饮服务;餐饮相关场所;餐饮相关,09:00,23:00,郑州博物馆新馆,"113.546720,34.739600",34.739600,113.546720,4.7,有包间;有等位区
