restaurant_name,city,latitude,longitude,price_per_person,cuisine,opening_time,closing_time,nearby_attraction_name,nearby_attraction_coords,query_latitude,query_longitude,rating,tags
JSL Three Pepper Restaurant,Shanghai,31.228150,121.451818,47.0,Chinese Restaurant;Chinese Restaurant,11:00,21:00,Shanghai Natural History Museum,"121.451944,31.229167",31.229167,121.451944,4.4,Birthday Package
KLAY Modern Indian Restaurant (Beijing West Road 1110 Lane Community Branch),Shanghai,31.229796,121.453432,253.0,Foreign Restaurant;Indian Cuisine,11:30,22:00,Shanghai Natural History Museum,"121.451944,31.229167",31.229167,121.451944,4.7,Must-Eat Top 10
Rongfu Banquet (Nanyang Road Branch),Shanghai,31.228155,121.450517,1789.0,Chinese Restaurant;Jiangsu Cuisine,17:30,21:00,Shanghai Natural History Museum,"121.451944,31.229167",31.229167,121.451944,4.6,Birthday Package
Portman's Restaurant (Nanjing West Road Branch),Shanghai,31.227361,121.452182,411.0,Foreign Restaurant;Western Restaurant,06:30,22:30,Shanghai Natural History Museum,"121.451944,31.229167",31.229167,121.451944,4.4,Waiting Area;Birthday Package
gaga (Plaza 66 Branch),Shanghai,31.227553,121.453419,114.0,Foreign Restaurant;Western Restaurant,10:00,21:30,Shanghai Natural History Museum,"121.451944,31.229167",31.229167,121.451944,4.6,Private Room
Shang Niu Society Beef & Liberty (Shanghai Centre Branch),Shanghai,31.226513,121.451680,124.0,Foreign Restaurant;American Cuisine,11:00,22:00,Shanghai Natural History Museum,"121.451944,31.229167",31.229167,121.451944,4.8,Outdoor Seating;Birthday Package
bluefrog (Shanghai Golden Eagle International Shopping Center Branch),Shanghai,31.228598,121.455042,135.0,Foreign Restaurant;Western Restaurant,10:00,22:00,Shanghai Natural History Museum,"121.451944,31.229167",31.229167,121.451944,4.6,Birthday Package;Online Queue
New Zhenjiang Express Restaurant Xiaolongbao House,Shanghai,31.231440,121.449851,42.0,Chinese Restaurant;Chinese Restaurant,06:00,21:00,Shanghai Natural History Museum,"121.451944,31.229167",31.229167,121.451944,3.9,Private Room
Deer Garden MOOSE (Jing'an Branch),Shanghai,31.226759,121.453859,482.0,Chinese Restaurant;上海菜,17:00,21:00,Shanghai Natural History Museum,"121.451944,31.229167",31.229167,121.451944,4.5,Waiting Area;Birthday Package
TSOO · Western Korean Creative Cuisine (Jincang Wenhua Plaza Branch),Shanghai,31.227018,121.454325,100.0,Food Service Related;Food Service Related,10:00,22:00,Shanghai Natural History Museum,"121.451944,31.229167",31.229167,121.451944,4.6,Online Queue
Little Garden (West Bund Riverside Branch),Shanghai,31.181555,121.463961,175.0,Foreign Restaurant;Foreign Restaurant,11:00,22:00,Xuhui Riverside Green Space,"121.463869,31.180766",31.180766,121.463869,4.6,Must-Eat Top 10
Volcano-Genic Ice Room (Shanghai Bay Luxury Garden Phase 2 & 3 Branch),Shanghai,31.181229,121.463052,82.0,Cold Beverage Shop;Cold Beverage Shop,11:00,20:00,Xuhui Riverside Green Space,"121.463869,31.180766",31.180766,121.463869,4.2,Outdoor Seating;Birthday Package
Sketch Yard Art Restaurant (Shanghai Bay Luxury Courtyard Phase 3 Branch),Shanghai,31.181458,121.462410,144.0,Chinese Restaurant;Chinese Restaurant,10:00,21:00,Xuhui Riverside Green Space,"121.463869,31.180766",31.180766,121.463869,4.1,Must-Eat Top 10;Outdoor Seating
Dragon · Restaurant,Shanghai,31.183863,121.464298,342.0,Chinese Restaurant;Chinese Restaurant,11:00,20:00,Xuhui Riverside Green Space,"121.463869,31.180766",31.180766,121.463869,4.1,Waiting Area
One Foot Garden (Expo Cultural Park Branch),Shanghai,31.180059,121.469599,69.0,花鸟鱼虫市场;花卉市场|Cafe;Cafe,10:00,20:00,Xuhui Riverside Green Space,"121.463869,31.180766",31.180766,121.463869,4.6,Private Room
Fresh Delight Seafood Bistro (Greenland Colorful City Branch),Shanghai,31.183239,121.456289,143.0,Chinese Restaurant;Seafood Restaurant,11:00,21:00,Xuhui Riverside Green Space,"121.463869,31.180766",31.180766,121.463869,4.3,Must-Eat Top 10
Entrecôte French Steakhouse (Poly · Time Lane Branch),Shanghai,31.181835,121.455849,219.0,Foreign Restaurant;牛扒店(扒房),11:00,22:00,Xuhui Riverside Green Space,"121.463869,31.180766",31.180766,121.463869,4.6,Outdoor Seating;Private Room
Orange Restaurant,Shanghai,31.183471,121.456304,100.0,Chinese Restaurant;Chinese Restaurant,11:00,21:00,Xuhui Riverside Green Space,"121.463869,31.180766",31.180766,121.463869,4.0,Waiting Area;Birthday Package
Warehouse No. 3 · Creative Chinese Cuisine (Xuhui Greenland Colorful City Branch),Shanghai,31.183955,121.456515,134.0,Chinese Restaurant;Chinese Restaurant,16:30,21:30,Xuhui Riverside Green Space,"121.463869,31.180766",31.180766,121.463869,4.7,Outdoor Seating;Online Queue
Cool Taste Smart Choice Restaurant (Longhua Middle Road Branch),Shanghai,31.184273,121.456668,28.0,Chinese Restaurant;Chinese Restaurant,10:00,22:00,Xuhui Riverside Green Space,"121.463869,31.180766",31.180766,121.463869,4.1,Waiting Area;Online Queue
New Australia Hong Kong-Style Restaurant (Yan'an West Road Branch),Shanghai,31.209294,121.423404,59.0,Chinese Restaurant;Chinese Restaurant|Cold Beverage Shop;Cold Beverage Shop,11:00,21:00,Liu Haisu Art Museum,"121.419424,31.209504",31.209504,121.419424,4.2,Must-Eat Top 10;Waiting Area
Fengyan Restaurant,Shanghai,31.210937,121.423222,100.0,Chinese Restaurant;Chinese Restaurant,11:00,21:00,Liu Haisu Art Museum,"121.419424,31.209504",31.209504,121.419424,4.2,Waiting Area;Online Queue
Shangzhengyi Steam Seafood (Shanghai Flagship Store),Shanghai,31.209011,121.423635,213.0,Chinese Restaurant;Seafood Restaurant,11:00,04:00,Liu Haisu Art Museum,"121.419424,31.209504",31.209504,121.419424,4.7,Waiting Area
Xianqi Half Step Tipsy Bistro (Dingxi Road Branch),Shanghai,31.208756,121.423945,99.0,Chinese Restaurant;Sichuan Cuisine,10:30,23:00,Liu Haisu Art Museum,"121.419424,31.209504",31.209504,121.419424,4.4,Outdoor Seating
Shang Zheng Yi Steam Seafood (Fu 1999 · Dingxi Road No. 2 Branch),Shanghai,31.208706,121.423959,302.0,Chinese Restaurant;Seafood Restaurant,11:00,24:00,Liu Haisu Art Museum,"121.419424,31.209504",31.209504,121.419424,4.8,Must-Eat Top 10
Kowloon City · Claypot Porridge Stir-Fry BBQ Oysters,Shanghai,31.208650,121.423980,130.0,Chinese Restaurant;Chinese Restaurant,16:00,03:00,Liu Haisu Art Museum,"121.419424,31.209504",31.209504,121.419424,4.3,Must-Eat Top 10
Yangji Qiqihar Barbecue (Dingxi Road Branch),Shanghai,31.207847,121.423854,100.0,Chinese Restaurant;Local Specialty Restaurant,11:00,03:30,Liu Haisu Art Museum,"121.419424,31.209504",31.209504,121.419424,4.5,Waiting Area
Backyard Shanghai Cuisine & Fusion Dishes (Dingxi Road Branch),Shanghai,31.207835,121.423884,233.0,Chinese Restaurant;Hot Pot,16:30,01:00,Liu Haisu Art Museum,"121.419424,31.209504",31.209504,121.419424,4.4,Online Queue
Huxi Old Alley Noodle House,Shanghai,31.206976,121.423453,41.0,Chinese Restaurant;Local Specialty Restaurant,15:30,20:30,Liu Haisu Art Museum,"121.419424,31.209504",31.209504,121.419424,4.7,Birthday Package
"Little George Café (Lane 1782, West Yan'an Road, Community Branch)",Shanghai,31.207429,121.414777,92.0,Cafe;Cafe,11:00,21:00,Liu Haisu Art Museum,"121.419424,31.209504",31.209504,121.419424,4.6,Private Room;Birthday Package
Xin Rong Ji (BFC Bund Financial Center Branch),Shanghai,31.227300,121.497666,781.0,Chinese Restaurant;Zhejiang Cuisine,17:30,20:30,Huangpu River Cruise,"121.498369,31.227636",31.227636,121.498369,4.6,Private Room
Shanghai Bund Restaurant (BFC Bund Financial Center Branch),Shanghai,31.227219,121.497657,714.0,Chinese Restaurant;Zhejiang Cuisine,17:00,21:00,Huangpu River Cruise,"121.498369,31.227636",31.227636,121.498369,4.8,Online Queue
DA VITTORIO SHANGHAI,Shanghai,31.227327,121.497532,2315.0,Foreign Restaurant;Western Restaurant,18:00,21:30,Huangpu River Cruise,"121.498369,31.227636",31.227636,121.498369,4.6,Birthday Package
Dong Fa Dao Tea Ice Hall (BFC Bund Financial Center Branch),Shanghai,31.227591,121.497309,66.0,Chinese Restaurant;Cantonese Cuisine,10:30,21:00,Huangpu River Cruise,"121.498369,31.227636",31.227636,121.498369,4.5,Waiting Area
Encounter Bund (BFC Bund Financial Center Branch),Shanghai,31.226455,121.498458,759.0,Chinese Restaurant;Fujian Cuisine,17:30,21:00,Huangpu River Cruise,"121.498369,31.227636",31.227636,121.498369,4.6,Waiting Area
PUTIEN (Bund Financial Center Branch),Shanghai,31.226065,121.497799,100.0,Chinese Restaurant;Fujian Cuisine|Accommodation Related;Accommodation Related,17:00,21:30,Huangpu River Cruise,"121.498369,31.227636",31.227636,121.498369,4.4,Must-Eat Top 10
MOON N BACK Farm Restaurant,Shanghai,31.225721,121.498254,171.0,Foreign Restaurant;Foreign Restaurant,11:30,22:00,Huangpu River Cruise,"121.498369,31.227636",31.227636,121.498369,4.6,Birthday Package
Shanghai Bund Indigo Hotel · Quay Riverside Restaurant (Zhongshan East Second Road Branch),Shanghai,31.226183,121.500038,200.0,Food Service Related;Food Service Related,06:30,22:30,Huangpu River Cruise,"121.498369,31.227636",31.227636,121.498369,4.3,Must-Eat Top 10
Shanghai Bund Indigo Hotel · Char Restaurant,Shanghai,31.226125,121.500094,701.0,Chinese Restaurant;Chinese Restaurant,11:00,21:00,Huangpu River Cruise,"121.498369,31.227636",31.227636,121.498369,3.9,Must-Eat Top 10;Online Queue
Pier 16 No. 3 Cruise Terminal Water Buffet Restaurant,Shanghai,31.225600,121.501144,283.0,Chinese Restaurant;Chinese Restaurant,07:30,23:30,Huangpu River Cruise,"121.498369,31.227636",31.227636,121.498369,3.9,Must-Eat Top 10;Online Queue
Yingzhu Pavilion Baozi (Lu Xun Park Branch),Shanghai,31.270692,121.482935,67.0,Fast Food Restaurant;Tea Restaurant,17:00,22:00,Shanghai Lu Xun Park,"121.483535,31.271766",31.271766,121.483535,4.5,Must-Eat Top 10;Online Queue
Pike Restaurant (Sichuan North Road Branch),Shanghai,31.269057,121.480570,60.0,Fast Food Restaurant;Fast Food Restaurant,11:00,21:00,Shanghai Lu Xun Park,"121.483535,31.271766",31.271766,121.483535,4.3,Must-Eat Top 10;Private Room
Green Tea Restaurant (CapitaLand Dragon Dream Branch),Shanghai,31.270400,121.478663,75.0,Chinese Restaurant;Chinese Restaurant,11:00,21:30,Shanghai Lu Xun Park,"121.483535,31.271766",31.271766,121.483535,3.8,Waiting Area
Tai Shan Nanyang Tea Restaurant (Hongkou Dragon Dream Branch),Shanghai,31.270999,121.477838,70.0,Fast Food Restaurant;Tea Restaurant,10:00,22:00,Shanghai Lu Xun Park,"121.483535,31.271766",31.271766,121.483535,4.2,Must-Eat Top 10
Third Brother Guangdong Rice Noodle Roll King (Park Square Branch),Shanghai,31.272576,121.477559,27.0,Chinese Restaurant;Chinese Restaurant,07:00,24:00,Shanghai Lu Xun Park,"121.483535,31.271766",31.271766,121.483535,4.2,Must-Eat Top 10;Outdoor Seating
Saizeriya Italian Restaurant (CapitaLand Dragon Dream Building B Branch),Shanghai,31.271114,121.477253,100.0,Food Service Related;Food Service Related,10:00,21:30,Shanghai Lu Xun Park,"121.483535,31.271766",31.271766,121.483535,4.1,Must-Eat Top 10;Private Room
Wanshouzhai (Shanyin Road Branch),Shanghai,31.265945,121.484810,15.0,Chinese Restaurant;Chinese Restaurant,04:30,21:00,Shanghai Lu Xun Park,"121.483535,31.271766",31.271766,121.483535,4.5,Private Room
Mirror Garden · Yunwei Jiangnan,Shanghai,31.267051,121.478912,297.0,Chinese Restaurant;Chinese Restaurant,17:00,22:00,Shanghai Lu Xun Park,"121.483535,31.271766",31.271766,121.483535,4.4,Must-Eat Top 10;Waiting Area
Yini Xinjiang Halal Flavor Grand Restaurant (Minde Fang Branch),Shanghai,31.265964,121.480308,50.0,Chinese Restaurant;Halal Restaurant,06:30,23:00,Shanghai Lu Xun Park,"121.483535,31.271766",31.271766,121.483535,4.3,Waiting Area;Online Queue
Taifeng Canteen Community Neighbor Restaurant,Shanghai,31.266685,121.478444,100.0,Chinese Restaurant;Chinese Restaurant,09:00,21:00,Shanghai Lu Xun Park,"121.483535,31.271766",31.271766,121.483535,4.2,Private Room
Tahar (Longhua Club Branch),Shanghai,31.174036,121.453855,91.0,Chinese Restaurant;Halal Restaurant|Cold Beverage Shop;Cold Beverage Shop,10:00,21:30,Longhua Temple,"121.451842,31.175174",31.175174,121.451842,4.3,Online Queue
Xi Yue Vietnamese Restaurant (Longhua Club Branch),Shanghai,31.173470,121.453463,88.0,Foreign Restaurant;泰国/越南菜品餐厅,10:00,21:30,Longhua Temple,"121.451842,31.175174",31.175174,121.451842,4.4,Must-Eat Top 10
Big Rooster Bistro (Longhua Club Branch),Shanghai,31.173113,121.453820,182.0,Chinese Restaurant;Chinese Restaurant,11:00,24:00,Longhua Temple,"121.451842,31.175174",31.175174,121.451842,4.5,Waiting Area
Yongwei Family Restaurant (Shanghai Civil Aviation Vocational and Technical College Xuhui Campus Branch),Shanghai,31.171923,121.455039,100.0,Chinese Restaurant;Chinese Restaurant,11:00,21:00,Longhua Temple,"121.451842,31.175174",31.175174,121.451842,2.7,Must-Eat Top 10;Private Room
Shanghai Citadines Xujiahui Apartment Hotel · First Floor Restaurant,Shanghai,31.175915,121.443250,100.0,Food Service Related;Food Service Related,11:00,21:00,Longhua Temple,"121.451842,31.175174",31.175174,121.451842,4.2,Birthday Package;Online Queue
Hong Kong Dragon Wharf Crab King (Poly Time Mall Branch),Shanghai,31.182022,121.455405,450.0,Chinese Restaurant;Seafood Restaurant,10:00,22:00,Longhua Temple,"121.451842,31.175174",31.175174,121.451842,4.6,Birthday Package
4251 Fa Nan Home,Shanghai,31.168996,121.457576,166.0,Foreign Restaurant;French Restaurant,11:00,21:00,Longhua Temple,"121.451842,31.175174",31.175174,121.451842,4.5,Outdoor Seating;Waiting Area
Hu Yu Yi Spoon Fresh Restaurant,Shanghai,31.170954,121.443764,57.0,Chinese Restaurant;Chinese Restaurant,16:00,02:00,Longhua Temple,"121.451842,31.175174",31.175174,121.451842,4.3,Must-Eat Top 10;Waiting Area
Silk Road Xinjiang Barbecue Restaurant,Shanghai,31.184052,121.451357,42.0,Chinese Restaurant;Local Specialty Restaurant,11:00,02:00,Longhua Temple,"121.451842,31.175174",31.175174,121.451842,4.6,Must-Eat Top 10;Outdoor Seating
Diechun Restaurant,Shanghai,31.223436,121.473585,118.0,Food Service Related;Food Service Related,11:00,21:00,Shanghai K11 Art Mall,"121.473582,31.223433",31.223433,121.473582,4.3,Must-Eat Top 10;Online Queue
Awolo Japanese Cuisine (K11 Art Center Branch),Shanghai,31.223248,121.473393,200.0,Foreign Restaurant;Japanese Cuisine,11:30,14:00,Shanghai K11 Art Mall,"121.473582,31.223433",31.223433,121.473582,4.6,Must-Eat Top 10;Waiting Area
Currify · Black Salt · Creative Indian Cuisine (K11 Branch),Shanghai,31.223287,121.473898,106.0,Chinese Restaurant;Chinese Restaurant,11:00,21:30,Shanghai K11 Art Mall,"121.473582,31.223433",31.223433,121.473582,4.6,Private Room;Online Queue
Genesis Restaurant (Hong Kong Plaza Shopping Center North District Branch),Shanghai,31.223804,121.474396,361.0,Foreign Restaurant;韩国料理,11:00,22:00,Shanghai K11 Art Mall,"121.473582,31.223433",31.223433,121.473582,4.4,Birthday Package
DOPASTTA Pasado (Xintiandi Plaza Branch),Shanghai,31.222675,121.473864,83.0,Food Service Related;Food Service Related,16:00,20:30,Shanghai K11 Art Mall,"121.473582,31.223433",31.223433,121.473582,4.6,Must-Eat Top 10;Private Room
Thai Yao Restaurant,Shanghai,31.222554,121.474117,100.0,Foreign Restaurant;Foreign Restaurant,10:00,22:00,Shanghai K11 Art Mall,"121.473582,31.223433",31.223433,121.473582,3.9,Private Room;Waiting Area
Jingjie Ice Room (Xintiandi Branch),Shanghai,31.222634,121.474314,57.0,Fast Food Restaurant;Tea Restaurant,10:00,21:30,Shanghai K11 Art Mall,"121.473582,31.223433",31.223433,121.473582,4.5,Must-Eat Top 10
Xin Wang Tea Restaurant (Hong Kong Plaza Branch),Shanghai,31.223895,121.474866,79.0,Fast Food Restaurant;Tea Restaurant,08:00,22:00,Shanghai K11 Art Mall,"121.473582,31.223433",31.223433,121.473582,4.5,Must-Eat Top 10;Online Queue
OTF California Restaurant (Xintiandi Plaza Branch),Shanghai,31.222271,121.473965,114.0,Foreign Restaurant;Western Restaurant,11:00,21:00,Shanghai K11 Art Mall,"121.473582,31.223433",31.223433,121.473582,4.6,Private Room;Online Queue
Haohai Flaming Cloud Dai Cuisine (Xintiandi Plaza Branch),Shanghai,31.222148,121.473930,116.0,Chinese Restaurant;云贵菜,11:00,22:00,Shanghai K11 Art Mall,"121.473582,31.223433",31.223433,121.473582,4.7,Must-Eat Top 10
Starbucks (Wukang Road Branch),Shanghai,31.204474,121.437837,100.0,Cafe;星巴克咖啡,06:30,22:00,Wukang Mansion,"121.438278,31.204430",31.204430,121.438278,4.6,Waiting Area
Rose Hall Shanghai Cuisine (Xingguo Road Branch),Shanghai,31.205133,121.437315,250.0,Chinese Restaurant;Chinese Restaurant,17:00,21:30,Wukang Mansion,"121.438278,31.204430",31.204430,121.438278,4.6,Outdoor Seating
Old Jesse Restaurant (Tianping Road Branch),Shanghai,31.203146,121.437969,176.0,Chinese Restaurant;Chinese Restaurant,17:00,21:30,Wukang Mansion,"121.438278,31.204430",31.204430,121.438278,4.4,Private Room;Birthday Package
Wukang Wutong Western Restaurant LE VERRE à vin by MIG,Shanghai,31.206543,121.439076,280.0,Foreign Restaurant;Western Restaurant,11:00,21:00,Wukang Mansion,"121.438278,31.204430",31.204430,121.438278,4.8,Outdoor Seating;Online Queue
The Cue Brunch&Bistro,Shanghai,31.206375,121.441325,178.0,Chinese Restaurant;Chinese Restaurant,11:00,22:00,Wukang Mansion,"121.438278,31.204430",31.204430,121.438278,4.6,Birthday Package;Online Queue
Spring Breeze Noodles · Local Noodle House (Wuxing Road Branch),Shanghai,31.205680,121.441912,50.0,Chinese Restaurant;Chinese Restaurant,10:00,20:00,Wukang Mansion,"121.438278,31.204430",31.204430,121.438278,4.4,Waiting Area
Shepherd Restaurant,Shanghai,31.199855,121.437051,52.0,Chinese Restaurant;上海菜,17:00,21:00,Wukang Mansion,"121.438278,31.204430",31.204430,121.438278,4.5,Private Room
Shanghai Jiao Tong University Xuhui Campus Teacher Activity Center Hotel Buffet Restaurant,Shanghai,31.199527,121.435735,77.0,Chinese Restaurant;Chinese Restaurant,11:00,21:00,Wukang Mansion,"121.438278,31.204430",31.204430,121.438278,4.1,Private Room;Birthday Package
Hengshan Garden Hotel - Baihuayuan Chinese Restaurant,Shanghai,31.201680,121.443830,174.0,Food Service Related;Food Service Related,11:00,21:00,Wukang Mansion,"121.438278,31.204430",31.204430,121.438278,4.5,Must-Eat Top 10;Waiting Area
AnThai · Taiwanese Bistro (Huashan Road Branch),Shanghai,31.205216,121.431549,132.0,Chinese Restaurant;Chinese Restaurant,17:30,01:00,Wukang Mansion,"121.438278,31.204430",31.204430,121.438278,4.1,Waiting Area;Online Queue
Shanghai Museum Restaurant,Shanghai,31.228350,121.476185,51.0,Chinese Restaurant;Chinese Restaurant,09:00,17:00,Shanghai Museum (People's Square Branch),"121.475497,31.228234",31.228234,121.475497,4.4,Must-Eat Top 10;Waiting Area
New Bella Italian Restaurant (Dimei Plaza Branch),Shanghai,31.227746,121.472522,100.0,Foreign Restaurant;Foreign Restaurant,11:00,21:00,Shanghai Museum (People's Square Branch),"121.475497,31.228234",31.228234,121.475497,3.7,Must-Eat Top 10
VIVANT French Restaurant,Shanghai,31.230323,121.477751,2557.0,Chinese Restaurant;Chinese Restaurant,18:00,22:30,Shanghai Museum (People's Square Branch),"121.475497,31.228234",31.228234,121.475497,4.4,Waiting Area
TAGSIU · Bistro American Craft Beer Restaurant,Shanghai,31.228070,121.479030,151.0,Foreign Restaurant;Western Restaurant,10:30,02:00,Shanghai Museum (People's Square Branch),"121.475497,31.228234",31.228234,121.475497,4.6,Birthday Package;Online Queue
Shantek Southeast Asian Restaurant (Huaihai Middle Road Branch),Shanghai,31.225186,121.477877,111.0,Foreign Restaurant;Foreign Restaurant,11:00,22:00,Shanghai Museum (People's Square Branch),"121.475497,31.228234",31.228234,121.475497,4.7,Private Room;Waiting Area
Mingmen Feast Seafood (Shanghai Flagship),Shanghai,31.225699,121.478956,438.0,Chinese Restaurant;Seafood Restaurant,17:30,21:00,Shanghai Museum (People's Square Branch),"121.475497,31.228234",31.228234,121.475497,4.7,Birthday Package
Yuan Yuan (Huaihai Road Branch),Shanghai,31.224328,121.475477,180.0,商务住宅;住宅区;住宅小区|Chinese Restaurant;Chinese Restaurant,17:00,21:30,Shanghai Museum (People's Square Branch),"121.475497,31.228234",31.228234,121.475497,4.6,Private Room;Waiting Area
Fu Wan Vietnamese Restaurant (Lippo Plaza Branch),Shanghai,31.224208,121.475689,100.0,Foreign Restaurant;Foreign Restaurant,10:00,21:00,Shanghai Museum (People's Square Branch),"121.475497,31.228234",31.228234,121.475497,4.5,Online Queue
Shui Qing Tai Rong · Thai Garden Restaurant,Shanghai,31.232164,121.476698,95.0,Foreign Restaurant;Foreign Restaurant,17:00,21:00,Shanghai Museum (People's Square Branch),"121.475497,31.228234",31.228234,121.475497,4.3,Birthday Package
Man Wah Ice Cafe (Shanghai Raffles City Branch),Shanghai,31.232148,121.477124,60.0,Fast Food Restaurant;Tea Restaurant,10:00,21:00,Shanghai Museum (People's Square Branch),"121.475497,31.228234",31.228234,121.475497,4.4,Waiting Area
Minhua Ice Hall (Shanghai Sun Moon Light Branch),Shanghai,31.207343,121.468409,71.0,Cold Beverage Shop;Cold Beverage Shop,10:00,21:00,Shanghai Tianzifang,"121.468662,31.208197",31.208197,121.468662,4.5,Must-Eat Top 10
Guiyang Xiao Xiao Restaurant (Qinle Village Branch),Shanghai,31.207464,121.467627,18.0,Chinese Restaurant;Chinese Restaurant,06:00,20:30,Shanghai Tianzifang,"121.468662,31.208197",31.208197,121.468662,4.2,Must-Eat Top 10;Online Queue
Dongji Hong Kong-style Roasted Meat Restaurant (Sun Moon Light Center West Zone),Shanghai,31.206916,121.468207,57.0,Chinese Restaurant;Cantonese Cuisine,10:00,22:00,Shanghai Tianzifang,"121.468662,31.208197",31.208197,121.468662,4.4,Must-Eat Top 10;Birthday Package
Linggu Blossom · Astonishing Cuisine (Riyueguang Branch),Shanghai,31.206667,121.468935,123.0,Foreign Restaurant;韩国料理,16:30,22:30,Shanghai Tianzifang,"121.468662,31.208197",31.208197,121.468662,4.6,Waiting Area
FIAMA Italian Mediterranean Restaurant,Shanghai,31.207917,121.466655,194.0,Chinese Restaurant;Chinese Restaurant,11:30,22:30,Shanghai Tianzifang,"121.468662,31.208197",31.208197,121.468662,4.4,Online Queue
Cooperland Day and Night,Shanghai,31.207774,121.466600,232.0,Entertainment Venue;Entertainment Venue,11:00,21:00,Shanghai Tianzifang,"121.468662,31.208197",31.208197,121.468662,4.7,Waiting Area
Next Door Mom · National Tea Restaurant (Dapuqiao Raffles City Branch),Shanghai,31.206283,121.468839,41.0,Fast Food Restaurant;Fast Food Restaurant,10:30,21:00,Shanghai Tianzifang,"121.468662,31.208197",31.208197,121.468662,4.5,Private Room
Tsinghua Restaurant,Shanghai,31.206710,121.466989,100.0,Chinese Restaurant;Chinese Restaurant,07:00,22:00,Shanghai Tianzifang,"121.468662,31.208197",31.208197,121.468662,3.9,Private Room;Waiting Area
Kowloon Ice Room (Dapu Bridge Sun Moon Light Branch),Shanghai,31.205939,121.468663,46.0,Fast Food Restaurant;Tea Restaurant,10:00,22:00,Shanghai Tianzifang,"121.468662,31.208197",31.208197,121.468662,4.2,Private Room;Online Queue
Guangyu Dian · Cantonese Handmade Dim Sum (Riyueguang Branch),Shanghai,31.206088,121.467707,90.0,Chinese Restaurant;Chinese Restaurant,10:00,21:00,Shanghai Tianzifang,"121.468662,31.208197",31.208197,121.468662,4.5,Must-Eat Top 10;Birthday Package
West Joy Station Restaurant (Hongqiao Tiandi North District Branch),Shanghai,31.194861,121.316269,245.0,Chinese Restaurant;Chinese Restaurant,06:30,22:00,Shanghai Hongqiao Station,"121.320081,31.193964",31.193964,121.320081,4.0,Must-Eat Top 10;Outdoor Seating
Ming Court (Hongqiao Tiandi Branch),Shanghai,31.195153,121.316308,800.0,Chinese Restaurant;Chinese Restaurant,11:00,22:00,Shanghai Hongqiao Station,"121.320081,31.193964",31.193964,121.320081,4.3,Must-Eat Top 10;Waiting Area
JIU · JIU Restaurant,Shanghai,31.195051,121.315775,217.0,Chinese Restaurant;Chinese Restaurant,17:00,21:30,Shanghai Hongqiao Station,"121.320081,31.193964",31.193964,121.320081,4.5,Private Room
Loulan Story · Xinjiang Barbecue Restaurant (Shilong Road Branch),Shanghai,31.149609,121.431772,100.0,Chinese Restaurant;Halal Restaurant,11:00,24:00,Shanghai South Station,"121.429462,31.153127",31.153127,121.429462,3.6,Online Queue
Four Seasons Restaurant (Zhengnan Huayuan Branch),Shanghai,31.149225,121.430716,100.0,Chinese Restaurant;Chinese Restaurant,11:00,21:00,Shanghai South Station,"121.429462,31.153127",31.153127,121.429462,4.1,Outdoor Seating
Yili Xiang Restaurant (Zhengnan Huayuan Branch),Shanghai,31.148940,121.430402,100.0,Chinese Restaurant;Chinese Restaurant,11:00,21:00,Shanghai South Station,"121.429462,31.153127",31.153127,121.429462,3.8,Private Room
Shanghai Railway Mansion Hotel Restaurant,Shanghai,31.249888,121.452571,100.0,Chinese Restaurant;Chinese Restaurant,11:00,21:00,Shanghai Station,"121.455768,31.249650",31.249650,121.455768,4.1,Must-Eat Top 10;Waiting Area
Xiaozhu Restaurant (Shanghai Shanghai Post and Telecommunications Mansion Transit Building Branch),Shanghai,31.248964,121.452404,100.0,Chinese Restaurant;Chinese Restaurant,11:00,21:00,Shanghai Station,"121.455768,31.249650",31.249650,121.455768,3.7,Waiting Area
Panlu Western Restaurant at Pullman Shanghai Jing'an Hotel (Pullman Shanghai Jing'an Hotel),Shanghai,31.246420,121.456690,159.0,Food Service Related;Food Service Related,06:30,22:30,Shanghai Station,"121.455768,31.249650",31.249650,121.455768,4.1,Outdoor Seating;Waiting Area
Ming Ji · Hong Kong-Style Roasted Meat Tea Restaurant,Shanghai,22.013366,113.376433,100.0,Fast Food Restaurant;Fast Food Restaurant,08:00,23:00,Jinwan Airport,"113.380780,22.007696",22.007696,113.380780,3.6,Private Room
Yue Hao Yue Delicious Seafood Restaurant,Shanghai,22.013689,113.375864,100.0,Chinese Restaurant;Seafood Restaurant,09:00,21:00,Jinwan Airport,"113.380780,22.007696",22.007696,113.380780,3.8,Private Room
Lotte Cantonese Food Hub,Shanghai,22.013375,113.374306,100.0,Chinese Restaurant;Chinese Restaurant,07:00,21:00,Jinwan Airport,"113.380780,22.007696",22.007696,113.380780,3.5,Must-Eat Top 10
Old Soldier Restaurant,Shanghai,22.010297,113.372098,100.0,Chinese Restaurant;Chinese Restaurant,11:00,21:00,Jinwan Airport,"113.380780,22.007696",22.007696,113.380780,3.8,Outdoor Seating;Waiting Area
Xinyuan Taste Pavilion Restaurant,Shanghai,22.016380,113.381496,55.0,Chinese Restaurant;Chinese Restaurant,17:00,21:00,Jinwan Airport,"113.380780,22.007696",22.007696,113.380780,4.1,Waiting Area;Online Queue
Saizeriya Italian Restaurant (257 Zhuhai Mingzhu Station Bilecheng Branch),Shanghai,22.267928,113.514842,39.0,Foreign Restaurant;Italian Restaurant,10:00,21:00,Mingzhu Station,"113.515572,22.268481",22.268481,113.515572,4.5,Outdoor Seating
Jinda Yang Ji Seafood Restaurant (Shangbao Garden Branch),Shanghai,22.267749,113.516897,75.0,Chinese Restaurant;Seafood Restaurant,11:00,24:00,Mingzhu Station,"113.515572,22.268481",22.268481,113.515572,4.0,Must-Eat Top 10;Waiting Area
Tianji Tea Restaurant (Palm Holiday Branch),Shanghai,22.268238,113.511327,32.0,Fast Food Restaurant;Tea Restaurant,10:30,20:30,Mingzhu Station,"113.515572,22.268481",22.268481,113.515572,4.2,Online Queue
Sichuan Flavor Hunan Restaurant (Regal Garden Branch),Shanghai,22.266914,113.520097,100.0,Chinese Restaurant;Chinese Restaurant,10:00,22:30,Mingzhu Station,"113.515572,22.268481",22.268481,113.515572,4.0,Must-Eat Top 10
Meixing Technology Park Smart Restaurant,Shanghai,22.262879,113.517415,160.0,Chinese Restaurant;Chinese Restaurant,11:00,21:00,Mingzhu Station,"113.515572,22.268481",22.268481,113.515572,3.8,Must-Eat Top 10;Private Room
Xin Wang Tea Restaurant (Hongqiao Airport Branch),Shanghai,31.194382,121.346885,64.0,Fast Food Restaurant;Fast Food Restaurant,07:00,21:00,Hongqiao International Airport,"121.339775,31.196029",31.196029,121.339775,4.4,Must-Eat Top 10;Birthday Package
Staff Restaurant,Shanghai,31.196204,121.350793,21.0,Chinese Restaurant;Chinese Restaurant,11:00,21:00,Hongqiao International Airport,"121.339775,31.196029",31.196029,121.339775,3.7,Birthday Package
Baixiang Garden Hotel · Yuyuan Restaurant,Shanghai,31.192950,121.351000,100.0,Chinese Restaurant;Chinese Restaurant,17:30,20:30,Hongqiao International Airport,"121.339775,31.196029",31.196029,121.339775,4.1,Outdoor Seating;Birthday Package
Nanlai Bei Wang Supermarket Restaurant,Shanghai,30.893541,121.089075,100.0,Food Service Related;Food Service Related,11:00,21:00,Jinshan North Station,"121.089517,30.894305",30.894305,121.089517,3.9,Outdoor Seating;Birthday Package
Star Zero Boundary · LEGO Viewing Spot · Family Fun Park · Restaurant,Shanghai,30.885066,121.095476,100.0,Chinese Restaurant;Chinese Restaurant,11:00,21:00,Jinshan North Station,"121.089517,30.894305",30.894305,121.089517,3.3,Must-Eat Top 10;Birthday Package
Multi-Habitat Museum Restaurant (Shanghai Aegean Place · Colorful Lane Branch),Shanghai,30.884630,121.095451,106.0,Chinese Restaurant;Chinese Restaurant,10:00,22:00,Jinshan North Station,"121.089517,30.894305",30.894305,121.089517,4.4,Waiting Area;Online Queue
Halal Lanzhou Muqiaowei Beef Noodles (Zhuhai Station),Shanghai,22.216553,113.549793,100.0,Fast Food Restaurant;Fast Food Restaurant,08:00,00:30,Zhuhai Station,"113.549572,22.215378",22.215378,113.549572,3.8,Online Queue
Saizeriya Italian Restaurant (Charm Port City Branch),Shanghai,22.215176,113.550900,47.0,Foreign Restaurant;Foreign Restaurant,10:00,22:00,Zhuhai Station,"113.549572,22.215378",22.215378,113.549572,4.6,Outdoor Seating;Private Room
Tsui Wah Restaurant (Lai Meili Port City Branch),Shanghai,22.214949,113.550915,58.0,Fast Food Restaurant;Tea Restaurant,08:00,20:30,Zhuhai Station,"113.549572,22.215378",22.215378,113.549572,4.7,Waiting Area
Yu Ji Tea Restaurant (Changsheng Garden Branch),Shanghai,22.216966,113.549919,100.0,Fast Food Restaurant;Tea Restaurant,11:00,21:30,Zhuhai Station,"113.549572,22.215378",22.215378,113.549572,4.7,Private Room
Xinhexing Restaurant (Gongbei Port Branch),Shanghai,22.216761,113.550750,118.0,Chinese Restaurant;Chinese Restaurant,10:00,02:00,Zhuhai Station,"113.549572,22.215378",22.215378,113.549572,4.5,Birthday Package
Trace All-Day Dining (Shanghai Pudong International Airport Branch),Shanghai,31.146964,121.806694,98.0,Food Service Related;Food Service Related,11:00,21:00,Pudong International Airport,"121.808682,31.142267",31.142267,121.808682,4.1,Must-Eat Top 10;Private Room
He Pu Restaurant (Shanghai Pudong International Airport Branch),Shanghai,31.145856,121.812901,74.0,Chinese Restaurant;Chinese Restaurant,11:00,21:00,Pudong International Airport,"121.808682,31.142267",31.142267,121.808682,3.7,Waiting Area;Online Queue
Halal Restaurant · Hui Xiang Mai Ke,Shanghai,31.150616,121.809878,78.0,Chinese Restaurant;Halal Restaurant,07:30,22:00,Pudong International Airport,"121.808682,31.142267",31.142267,121.808682,4.3,Private Room;Birthday Package
Baoduobao Hong Kong-Style Tea Restaurant (MOHO Mall Branch),Shanghai,31.238748,121.448262,100.0,Fast Food Restaurant;Fast Food Restaurant,11:00,21:00,Hanting Hotel Shanghai Jing'an Temple Jiangning Road,"121.448000,31.238900",31.238900,121.448000,1.6,Must-Eat Top 10
Taiwan Railway Bento (MOHO Mall Branch),Shanghai,31.237659,121.448196,100.0,Fast Food Restaurant;Fast Food Restaurant,11:00,20:30,Hanting Hotel Shanghai Jing'an Temple Jiangning Road,"121.448000,31.238900",31.238900,121.448000,3.8,Waiting Area;Birthday Package
Parlay Restaurant & Sports Bar (Jing'an Branch),Shanghai,31.236014,121.449615,116.0,体育休闲服务场所;体育休闲服务场所,11:00,21:00,Hanting Hotel Shanghai Jing'an Temple Jiangning Road,"121.448000,31.238900",31.238900,121.448000,4.5,Birthday Package
Shanghai Qiuzhu Hotel · Shangzuo Restaurant,Shanghai,31.029327,121.654650,116.0,Food Service Related;Food Service Related,11:00,21:00,Shanghai Qiuzhu Hotel,"121.654712,31.029478",31.029478,121.654712,4.3,Outdoor Seating;Online Queue
Marriott City Center - Marriott Chinese Restaurant,Shanghai,31.030161,121.663000,260.0,Chinese Restaurant;Chinese Restaurant,11:00,21:00,Shanghai Qiuzhu Hotel,"121.654712,31.029478",31.029478,121.654712,3.9,Online Queue
Chen's Family Feast (Rainbow Shishunli Branch),Shanghai,31.023849,121.647810,64.0,Chinese Restaurant;General Restaurant,09:00,21:00,Shanghai Qiuzhu Hotel,"121.654712,31.029478",31.029478,121.654712,4.4,Birthday Package
Congee King Hong Kong-Style Tea Restaurant,Shanghai,31.068037,121.391474,100.0,Fast Food Restaurant;Fast Food Restaurant,11:00,21:00,Hanting Hotel (Shanghai Zhuanqiao Guanghua Road Branch),"121.385243,31.068132",31.068132,121.385243,3.5,Online Queue
Yanxi Pavilion,Shanghai,31.065200,121.391229,64.0,Chinese Restaurant;Chinese Restaurant,16:20,22:00,Hanting Hotel (Shanghai Zhuanqiao Guanghua Road Branch),"121.385243,31.068132",31.068132,121.385243,4.4,Private Room
North Shore Music Bistro (Jiuyu Business Huijie Center Branch),Shanghai,31.071713,121.398506,81.0,Chinese Restaurant;Chinese Restaurant,20:30,02:00,Hanting Hotel (Shanghai Zhuanqiao Guanghua Road Branch),"121.385243,31.068132",31.068132,121.385243,4.2,Must-Eat Top 10;Outdoor Seating
Junji Restaurant (Xianxia Dajun Branch),Shanghai,31.210069,121.376520,33.0,Chinese Restaurant;Local Specialty Restaurant,09:30,21:30,Atour Hotel Shanghai Hongqiao National Exhibition Center Beixinjing Metro Station,"121.373111,31.216722",31.216722,121.373111,3.9,Outdoor Seating
Big Rooster Bistro · Modern Restaurant (Bailian West Suburb Shopping Center Branch),Shanghai,31.208912,121.371465,100.0,Chinese Restaurant;Chinese Restaurant,11:00,22:00,Atour Hotel Shanghai Hongqiao National Exhibition Center Beixinjing Metro Station,"121.373111,31.216722",31.216722,121.373111,4.1,Outdoor Seating;Birthday Package
Saizeriya Italian Restaurant (Bailian Xijiao Shopping Center Branch),Shanghai,31.208694,121.371272,47.0,糕饼店;糕饼店,10:00,21:00,Atour Hotel Shanghai Hongqiao National Exhibition Center Beixinjing Metro Station,"121.373111,31.216722",31.216722,121.373111,4.4,Private Room;Online Queue
Osteria Garden Oyster Garden Restaurant (Baoqing Road Branch),Shanghai,31.210866,121.449616,375.0,Chinese Restaurant;Chinese Restaurant,11:00,02:00,Orange Hotel Shanghai Huaihai Middle Road No.10 Residence,"121.449795,31.210859",31.210859,121.449795,4.4,Outdoor Seating;Private Room
Osteria Garden Oyster & Seafood Restaurant,Shanghai,31.210863,121.449607,100.0,Chinese Restaurant;Seafood Restaurant,11:00,02:00,Orange Hotel Shanghai Huaihai Middle Road No.10 Residence,"121.449795,31.210859",31.210859,121.449795,4.4,Must-Eat Top 10
Banshan Niu Guizhou Yellow Beef Hotpot (Guizhou Intangible Cultural Heritage Art Restaurant Shanghai Flagship),Shanghai,31.212049,121.449537,192.0,Chinese Restaurant;Hot Pot,10:30,02:00,Orange Hotel Shanghai Huaihai Middle Road No.10 Residence,"121.449795,31.210859",31.210859,121.449795,4.6,Must-Eat Top 10
Wei Dao Restaurant,Shanghai,31.219464,121.688713,73.0,Chinese Restaurant;General Restaurant,16:30,24:00,Xinmi International Hotel (Shanghai Pudong International Airport Tourism Resort Gaoke East Road Branch),"121.687173,31.219381",31.219381,121.687173,4.0,Birthday Package;Online Queue
E Family Restaurant,Shanghai,31.219480,121.688715,50.0,Chinese Restaurant;Chinese Restaurant,08:00,22:00,Xinmi International Hotel (Shanghai Pudong International Airport Tourism Resort Gaoke East Road Branch),"121.687173,31.219381",31.219381,121.687173,4.2,Waiting Area
Long Time No See Music Restaurant & Bar,Shanghai,31.209489,121.693819,100.0,Chinese Restaurant;Chinese Restaurant,19:30,03:00,Xinmi International Hotel (Shanghai Pudong International Airport Tourism Resort Gaoke East Road Branch),"121.687173,31.219381",31.219381,121.687173,4.3,Private Room;Birthday Package
Aolong Juicy Small Seafood (Cangyuan Road Branch),Shanghai,31.015663,121.428224,100.0,Chinese Restaurant;Seafood Restaurant,10:00,03:00,Ji Hotel Shanghai Jiao Tong University Dongchuan Road,"121.423339,31.014462",31.014462,121.423339,3.8,Must-Eat Top 10
Shanghai Rong Ji Restaurant,Shanghai,31.015848,121.415978,100.0,Food Service Related;Food Service Related,16:30,20:00,Ji Hotel Shanghai Jiao Tong University Dongchuan Road,"121.423339,31.014462",31.014462,121.423339,3.6,Birthday Package
Yuan Yuan Yuan Fashion Tea Restaurant (Minhang Jiaotong University Branch),Shanghai,31.012171,121.433123,56.0,Food Service Related;Food Service Related,08:00,24:00,Ji Hotel Shanghai Jiao Tong University Dongchuan Road,"121.423339,31.014462",31.014462,121.423339,4.2,Must-Eat Top 10
Sassoon Garden,Shanghai,31.189100,121.360540,182.0,Foreign Restaurant;Foreign Restaurant,06:30,10:00,Hanting Hotel Shanghai Hongqiao Airport,"121.356692,31.183236",31.183236,121.356692,3.9,Online Queue
China Eastern Airlines Logistics Staff Restaurant,Shanghai,31.183005,121.347901,9.0,Chinese Restaurant;Chinese Restaurant,07:00,20:00,Hanting Hotel Shanghai Hongqiao Airport,"121.356692,31.183236",31.183236,121.356692,4.3,Private Room
Ya Zhi Xu Coffee Restaurant,Shanghai,31.174048,121.355237,141.0,Cafe;Cafe,09:30,24:00,Hanting Hotel Shanghai Hongqiao Airport,"121.356692,31.183236",31.183236,121.356692,4.4,Must-Eat Top 10;Private Room
Old Shanghai Memory Bowl Noodle Restaurant,Shanghai,31.004100,121.424550,54.0,Food Service Related;Food Service Related,17:00,21:00,Hanting Hotel Shanghai Jiaotong University Jiangchuan Road Metro Station New Branch,"121.424664,31.004012",31.004012,121.424664,4.2,Online Queue
Dongtan Bistro · Self-Selected Dishes Restaurant,Shanghai,31.003681,121.430372,100.0,Chinese Restaurant;Chinese Restaurant,11:00,21:00,Hanting Hotel Shanghai Jiaotong University Jiangchuan Road Metro Station New Branch,"121.424664,31.004012",31.004012,121.424664,3.7,Private Room;Birthday Package
Lao Fat Cat (Old Minhang Branch),Shanghai,31.010562,121.433338,84.0,Chinese Restaurant;Chinese Restaurant,10:30,21:00,Hanting Hotel Shanghai Jiaotong University Jiangchuan Road Metro Station New Branch,"121.424664,31.004012",31.004012,121.424664,4.6,Private Room
Sheraton Grand Shanghai Pudong Hotel · Feast Signature Restaurant,Shanghai,31.209130,121.518360,222.0,Foreign Restaurant;Western Restaurant,06:30,22:30,Sheraton Grand Shanghai Pudong Hotel & Residences,"121.517912,31.209306",31.209306,121.517912,4.2,Outdoor Seating
Four Heavenly Kings Tea Restaurant (Pujian Paris Spring Branch),Shanghai,31.208664,121.519539,100.0,Fast Food Restaurant;Fast Food Restaurant,11:00,21:00,Sheraton Grand Shanghai Pudong Hotel & Residences,"121.517912,31.209306",31.209306,121.517912,4.0,Must-Eat Top 10;Private Room
Zhu Yan Ji Hong Kong-Style Roasted Meat Specialty Store (Tangqiao Branch),Shanghai,31.210755,121.516858,45.0,Chinese Restaurant;Chinese Restaurant,09:00,22:00,Sheraton Grand Shanghai Pudong Hotel & Residences,"121.517912,31.209306",31.209306,121.517912,4.2,Private Room;Online Queue
Jinhui Longfor Restaurant (Longfor Shanghai Jinhui Paradise Walk Branch),Shanghai,30.968325,121.511925,100.0,Chinese Restaurant;Chinese Restaurant,10:00,22:00,Jinjiang Inn (Shanghai Fengxian Jinhui Longhu Tianjie Branch),"121.508332,30.965551",30.965551,121.508332,3.9,Private Room
Flower-Cutting Lady (Shanghai Longfor Jinhui Tianjie Restaurant),Shanghai,30.968457,121.512014,34.0,Chinese Restaurant;Chinese Restaurant|生活服务;美容美发店;美容美发店,10:00,21:30,Jinjiang Inn (Shanghai Fengxian Jinhui Longhu Tianjie Branch),"121.508332,30.965551",30.965551,121.508332,4.1,Must-Eat Top 10
Bao Hua Marriott Hotel (Marriott Chinese Restaurant),Shanghai,31.279870,121.445982,100.0,Chinese Restaurant;Chinese Restaurant,11:30,22:30,Shanghai Marriott Hotel Parkview,"121.446340,31.279310",31.279310,121.446340,4.5,Outdoor Seating
Saizeriya Italian Restaurant (Daning Music Plaza Branch),Shanghai,31.279733,121.444051,40.0,Foreign Restaurant;Italian Restaurant,10:00,21:30,Shanghai Marriott Hotel Parkview,"121.446340,31.279310",31.279310,121.446340,4.2,Outdoor Seating;Private Room
Thai Bake Southeast Asian Restaurant (Daning Music Plaza Branch),Shanghai,31.280751,121.444017,96.0,Foreign Restaurant;Foreign Restaurant,17:00,21:00,Shanghai Marriott Hotel Parkview,"121.446340,31.279310",31.279310,121.446340,4.2,Outdoor Seating;Birthday Package
Starry Sky Illy Terrace Western Restaurant,Shanghai,31.227525,121.487825,392.0,Foreign Restaurant;Foreign Restaurant,16:00,24:00,Shanghai Yuyuan Renaissance Hotel,"121.487980,31.227537",31.227537,121.487980,4.5,Online Queue
Yuyuan Renaissance Yu Café Western Restaurant,Shanghai,31.227406,121.487800,160.0,Foreign Restaurant;Western Restaurant,06:00,24:00,Shanghai Yuyuan Renaissance Hotel,"121.487980,31.227537",31.227537,121.487980,4.2,Birthday Package
Hua Kungfu Restaurant (New Shanghai City Plaza Branch),Shanghai,31.229302,121.487250,109.0,Chinese Restaurant;Chinese Restaurant,10:00,21:30,Shanghai Yuyuan Renaissance Hotel,"121.487980,31.227537",31.227537,121.487980,4.1,Birthday Package
Kaiyuan Mingdu Grand Hotel · Jinyuan Chinese Restaurant,Shanghai,31.037330,121.220517,276.0,Chinese Restaurant;Chinese Restaurant,06:30,10:30,Shanghai Huaximei Shi Hotel (Songjiang New City Renmin North Road Branch),"121.220685,31.033968",31.033968,121.220685,4.3,Private Room;Birthday Package
Tuna Love Rice (Kaiyuan Mediterranean Commercial Plaza Branch),Shanghai,31.037704,121.219915,92.0,Foreign Restaurant;韩国料理,10:00,22:00,Shanghai Huaximei Shi Hotel (Songjiang New City Renmin North Road Branch),"121.220685,31.033968",31.033968,121.220685,4.0,Must-Eat Top 10
Xin Bailu (Kaiyuan Mediterranean Commercial Plaza Branch),Shanghai,31.037744,121.221157,60.0,Chinese Restaurant;Chinese Restaurant|Cold Beverage Shop;Cold Beverage Shop,16:30,21:00,Shanghai Huaximei Shi Hotel (Songjiang New City Renmin North Road Branch),"121.220685,31.033968",31.033968,121.220685,4.7,Online Queue
Xinghe Ji Taizhou Seafood House,Shanghai,31.350474,121.260307,140.0,Chinese Restaurant;Seafood Restaurant,10:00,02:00,Ji Hotel Shanghai Jiading New City Yuanxiang Lake,"121.262203,31.350903",31.350903,121.262203,4.2,Outdoor Seating;Online Queue
Petite Lulu Restaurant & Bar (Shanghai TSF Shopping Center Branch),Shanghai,31.352843,121.263825,206.0,Foreign Restaurant;Western Restaurant,16:30,21:30,Ji Hotel Shanghai Jiading New City Yuanxiang Lake,"121.262203,31.350903",31.350903,121.262203,4.1,Online Queue
Hey Stone Red Box Barbecue Restaurant,Shanghai,31.350329,121.265220,93.0,Chinese Restaurant;Chinese Restaurant,10:00,22:00,Ji Hotel Shanghai Jiading New City Yuanxiang Lake,"121.262203,31.350903",31.350903,121.262203,4.4,Outdoor Seating
Ruby Restaurant,Shanghai,31.166747,121.355369,44.0,Cafe;Cafe,09:00,20:00,Ji Hotel Shanghai Hongqiao Railway Station Hangzhong Road Metro Station,"121.354281,31.168227",31.168227,121.354281,4.4,Online Queue
Daoxiangqing Fashion Smart Choice Restaurant (Shangkun Center Branch),Shanghai,31.163582,121.354995,29.0,Chinese Restaurant;Chinese Restaurant,16:30,20:30,Ji Hotel Shanghai Hongqiao Railway Station Hangzhong Road Metro Station,"121.354281,31.168227",31.168227,121.354281,4.2,Must-Eat Top 10;Birthday Package
Sifanghui Restaurant · Townsquare Bistro (Artyzen Habitat Hotel Taopu Branch),Shanghai,31.269870,121.376110,134.0,Food Service Related;Food Service Related,06:30,22:00,Shanghai Zhichuang TOP Talent Apartment,"121.376283,31.269425",31.269425,121.376283,4.7,Waiting Area
THE GARDEN · Qingyu Time Valley,Shanghai,31.274715,121.372021,100.0,Food Service Related;Food Service Related|Accommodation Related;Accommodation Related,11:00,20:00,Shanghai Zhichuang TOP Talent Apartment,"121.376283,31.269425",31.269425,121.376283,4.6,Private Room
Kettangjian Local Cuisine Restaurant (Liziyuan Park Branch),Shanghai,31.273870,121.383173,34.0,Food Service Related;Food Service Related,11:00,21:00,Shanghai Zhichuang TOP Talent Apartment,"121.376283,31.269425",31.269425,121.376283,3.8,Private Room;Online Queue
Community Neighbor Restaurant,Shanghai,31.137675,121.603373,100.0,Chinese Restaurant;Chinese Restaurant,11:00,21:00,Home Inn - Shanghai Pudong International Tourism Resort Xiuyan Road Metro Station Branch,"121.602126,31.137198",31.137198,121.602126,3.4,Birthday Package
Lianwei Yin Grill Bar,Shanghai,31.137740,121.604451,100.0,Chinese Restaurant;Chinese Restaurant,11:00,21:00,Home Inn - Shanghai Pudong International Tourism Resort Xiuyan Road Metro Station Branch,"121.602126,31.137198",31.137198,121.602126,3.4,Waiting Area;Online Queue
Drive-Thru Restaurant,Shanghai,31.137280,121.605170,100.0,Fast Food Restaurant;Fast Food Restaurant,11:00,21:00,Home Inn - Shanghai Pudong International Tourism Resort Xiuyan Road Metro Station Branch,"121.602126,31.137198",31.137198,121.602126,3.7,Outdoor Seating;Birthday Package
Shanghai Renaissance Zhongshan Park Hotel Zu Lan Restaurant,Shanghai,31.218766,121.417068,129.0,Foreign Restaurant;其它亚洲菜,06:00,10:00,Shanghai Renaissance Zhongshan Park Hotel,"121.417159,31.218752",31.218752,121.417159,4.1,Outdoor Seating
Dim Dou Dak (Dragon Dream Branch),Shanghai,31.218847,121.417045,88.0,Fast Food Restaurant;Fast Food Restaurant,09:30,21:30,Shanghai Renaissance Zhongshan Park Hotel,"121.417159,31.218752",31.218752,121.417159,4.5,Outdoor Seating;Online Queue
Thai Extreme Thai Restaurant (Shanghai Longemont Tower Branch),Shanghai,31.218866,121.416997,116.0,Foreign Restaurant;泰国/越南菜品餐厅,11:00,22:00,Shanghai Renaissance Zhongshan Park Hotel,"121.417159,31.218752",31.218752,121.417159,3.6,Birthday Package;Online Queue
Huhua Seafood Grand Restaurant (Hunan Road Branch),Shanghai,31.036063,121.715201,141.0,Chinese Restaurant;Seafood Restaurant,08:00,22:00,Shanghai Guyiju Hotel,"121.703796,31.022984",31.022984,121.703796,4.5,Birthday Package
Nine Flavors Hunan Restaurant,Shanghai,31.036731,121.693321,107.0,Chinese Restaurant;Hunan Cuisine,11:00,21:00,Shanghai Guyiju Hotel,"121.703796,31.022984",31.022984,121.703796,4.0,Private Room
Yifuli Cafe Restaurant (Huizhan International Business Center Branch),Shanghai,31.036582,121.715489,100.0,Food Service Related;Food Service Related,09:00,22:00,Shanghai Guyiju Hotel,"121.703796,31.022984",31.022984,121.703796,4.2,Birthday Package;Online Queue
