restaurant_name,city,latitude,longitude,price_per_person,cuisine,opening_time,closing_time,nearby_attraction_name,nearby_attraction_coords,query_latitude,query_longitude,rating,tags
Shanxi Beijing Office Restaurant,Beijing,39.927321,116.393306,100.0,Food Service Related;Food Service Related,11:00,21:00,Beihai Park,"116.391802,39.928775",39.928775,116.391802,3.9,Outdoor Seating;Birthday Package
Jinfu Hotel Restaurant,Beijing,39.927334,116.393352,100.0,Chinese Restaurant;Chinese Restaurant,11:00,21:00,Beihai Park,"116.391802,39.928775",39.928775,116.391802,3.4,Waiting Area;Birthday Package
Eatalia Carpe Diem Italian Restaurant,Beijing,39.933060,116.395723,169.0,Foreign Restaurant;Italian Restaurant,11:00,22:00,Beihai Park,"116.391802,39.928775",39.928775,116.391802,4.5,Outdoor Seating;Private Room
Neighbor's Delight Restaurant,Beijing,39.934005,116.388577,100.0,Chinese Restaurant;Chinese Restaurant,11:00,21:00,Beihai Park,"116.391802,39.928775",39.928775,116.391802,3.6,Must-Eat Top 10;Private Room
Long Hong Restaurant,Beijing,39.933970,116.388425,34.0,Chinese Restaurant;Chinese Restaurant,11:00,21:00,Beihai Park,"116.391802,39.928775",39.928775,116.391802,4.3,Must-Eat Top 10;Waiting Area
Wangchun Food Pavilion,Beijing,39.927349,116.400152,100.0,Chinese Restaurant;Chinese Restaurant,17:00,20:00,Beihai Park,"116.391802,39.928775",39.928775,116.391802,4.3,Private Room;Online Queue
Ancient Copper Courtyard Copper Pot Hotpot · Halal (Dianmen Branch),Beijing,39.934360,116.396446,85.0,Chinese Restaurant;Halal Restaurant|Chinese Restaurant;Hot Pot,11:00,22:00,Beihai Park,"116.391802,39.928775",39.928775,116.391802,4.7,Private Room;Online Queue
Courtyard (Dianmen Branch),Beijing,39.933384,116.384409,97.0,Chinese Restaurant;Chinese Restaurant,11:00,21:00,Beihai Park,"116.391802,39.928775",39.928775,116.391802,4.4,Outdoor Seating
Camellia Girl Yunnan Restaurant (Di'anmen Branch),Beijing,39.935500,116.396060,67.0,Chinese Restaurant;云贵菜,10:00,22:30,Beihai Park,"116.391802,39.928775",39.928775,116.391802,4.6,Must-Eat Top 10
Chengdu Beijing Office Restaurant (Shudu Hotel Branch),Beijing,39.925170,116.400666,100.0,Food Service Related;Food Service Related,11:00,21:00,Beihai Park,"116.391802,39.928775",39.928775,116.391802,4.4,Private Room;Birthday Package
Yifeng Restaurant (Gulou Branch),Beijing,39.943748,116.388507,100.0,Chinese Restaurant;Halal Restaurant,05:30,22:00,Shichahai,"116.385121,39.941893",39.941893,116.385121,4.5,Outdoor Seating;Online Queue
DAddario Italian Restaurant (Houhai Branch),Beijing,39.939364,116.388671,136.0,Foreign Restaurant;Foreign Restaurant,11:30,21:30,Shichahai,"116.385121,39.941893",39.941893,116.385121,4.7,Waiting Area
Mount Everest Restaurant,Beijing,39.945551,116.386140,88.0,Chinese Restaurant;Chinese Restaurant,17:00,20:00,Shichahai,"116.385121,39.941893",39.941893,116.385121,4.5,Waiting Area
Capital Courtyard Hutong Cuisine Terrace Bistro,Beijing,39.938065,116.379287,82.0,Chinese Restaurant;Chinese Restaurant,11:00,22:00,Shichahai,"116.385121,39.941893",39.941893,116.385121,4.6,Must-Eat Top 10
Huluwa Beef Tendon Hot Pot (Drum Tower Branch),Beijing,39.946717,116.389982,74.0,Chinese Restaurant;Hot Pot,10:30,22:00,Shichahai,"116.385121,39.941893",39.941893,116.385121,4.7,Waiting Area;Online Queue
Zhong Restaurant (Gulou West Street Branch),Beijing,39.940920,116.393099,153.0,Foreign Restaurant;Foreign Restaurant,17:00,21:00,Shichahai,"116.385121,39.941893",39.941893,116.385121,4.5,Online Queue
Dingxiangrun,Beijing,39.947191,116.380111,66.0,Chinese Restaurant;北京菜,11:00,21:30,Shichahai,"116.385121,39.941893",39.941893,116.385121,4.6,Must-Eat Top 10
RAJ Indian Music Restaurant,Beijing,39.940937,116.393636,122.0,Foreign Restaurant;Indian Cuisine,11:00,02:00,Shichahai,"116.385121,39.941893",39.941893,116.385121,4.7,Outdoor Seating;Birthday Package
Papà Danilo Uncle Danilo·Italian Pasta (Gulou Branch),Beijing,39.942844,116.393822,153.0,Foreign Restaurant;Italian Restaurant,11:00,21:00,Shichahai,"116.385121,39.941893",39.941893,116.385121,4.5,Outdoor Seating;Online Queue
Old Yang Restaurant,Beijing,39.942450,116.376358,100.0,Chinese Restaurant;Chinese Restaurant,11:00,21:00,Shichahai,"116.385121,39.941893",39.941893,116.385121,3.8,Waiting Area;Online Queue
Wanchun Golden Fortune Afternoon Tea,Beijing,39.921094,116.397019,72.0,Food Service Related;Food Service Related,09:30,16:00,Jingshan Park,"116.396551,39.925875",39.925875,116.396551,4.9,Online Queue
East Courtyard Restaurant of Kunning Palace,Beijing,39.921089,116.397327,100.0,Chinese Restaurant;Chinese Restaurant,08:00,16:30,Jingshan Park,"116.396551,39.925875",39.925875,116.396551,4.4,Private Room;Birthday Package
Beach Restaurant,Beijing,39.925352,116.403318,31.0,Chinese Restaurant;Chinese Restaurant,07:00,22:00,Jingshan Park,"116.396551,39.925875",39.925875,116.396551,4.2,Private Room;Birthday Package
Jingyunmen Forbidden City Restaurant,Beijing,39.918509,116.398455,56.0,Chinese Restaurant;Chinese Restaurant,08:30,15:30,Jingshan Park,"116.396551,39.925875",39.925875,116.396551,3.9,Private Room;Online Queue
Icehouse Restaurant,Beijing,39.917514,116.395284,80.0,Chinese Restaurant;Chinese Restaurant,10:30,15:00,Jingshan Park,"116.396551,39.925875",39.925875,116.396551,3.9,Outdoor Seating;Birthday Package
Beijing Olympic Tower Sky Restaurant,Beijing,40.007949,116.394113,485.0,Chinese Restaurant;Chinese Restaurant,11:00,21:30,Beijing Olympic Park,"116.393096,40.009926",40.009926,116.393096,4.3,Online Queue
Brauhaus Happy Family Restaurant,Beijing,40.012851,116.394914,199.0,Chinese Restaurant;Chinese Restaurant,10:00,20:00,Beijing Olympic Park,"116.393096,40.009926",40.009926,116.393096,4.1,Must-Eat Top 10;Outdoor Seating
Home Meal Restaurant (Asia Financial Tower Branch),Beijing,40.007486,116.389677,31.0,Food Service Related;Food Service Related,07:30,19:30,Beijing Olympic Park,"116.393096,40.009926",40.009926,116.393096,3.9,Birthday Package;Online Queue
China Science and Technology Museum - Visitor Restaurant,Beijing,40.006021,116.398478,43.0,Chinese Restaurant;Chinese Restaurant,11:00,21:00,Beijing Olympic Park,"116.393096,40.009926",40.009926,116.393096,4.1,Outdoor Seating;Online Queue
Goose Island Craft Beer Restaurant Goose Island Taproom (Beichenhui Branch),Beijing,40.004480,116.387388,126.0,Entertainment Venue;Bar,11:00,21:00,Beijing Olympic Park,"116.393096,40.009926",40.009926,116.393096,4.5,Online Queue
Joyful Curry Restaurant (Beichenhui Branch),Beijing,40.003699,116.387849,79.0,Chinese Restaurant;Chinese Restaurant,10:00,22:00,Beijing Olympic Park,"116.393096,40.009926",40.009926,116.393096,4.3,Must-Eat Top 10
Aobei Restaurant,Beijing,40.006525,116.384075,100.0,Chinese Restaurant;Chinese Restaurant,11:00,21:00,Beijing Olympic Park,"116.393096,40.009926",40.009926,116.393096,3.2,Must-Eat Top 10;Online Queue
Orange Castle Mediterranean Restaurant,Beijing,40.003303,116.387743,146.0,Chinese Restaurant;Chinese Restaurant,10:00,22:00,Beijing Olympic Park,"116.393096,40.009926",40.009926,116.393096,4.4,Private Room
Cool Car Trendy American Restaurant (Beitou New World Shopping Center Branch),Beijing,40.001815,116.394743,86.0,Entertainment Venue;Entertainment Venue|Chinese Restaurant;Chinese Restaurant,10:00,22:00,Beijing Olympic Park,"116.393096,40.009926",40.009926,116.393096,4.2,Must-Eat Top 10
Saizeriya Italian Restaurant (Beitou New Ao Shopping Center Branch),Beijing,40.001730,116.396090,100.0,Chinese Restaurant;Chinese Restaurant,10:00,22:00,Beijing Olympic Park,"116.393096,40.009926",40.009926,116.393096,4.6,Must-Eat Top 10
Tsinghua University Jia Suo Restaurant,Beijing,40.001088,116.322559,100.0,Chinese Restaurant;Chinese Restaurant,17:00,20:30,Tsinghua University,"116.325899,40.003220",40.003220,116.325899,4.9,Must-Eat Top 10
Tsinghua University Xichunyuan Restaurant,Beijing,40.002051,116.321323,91.0,Chinese Restaurant;Chinese Restaurant,17:00,20:00,Tsinghua University,"116.325899,40.003220",40.003220,116.325899,4.3,Waiting Area
Tsinghua University Heyuan Restaurant,Beijing,40.002773,116.321093,20.0,Chinese Restaurant;Chinese Restaurant,17:00,19:00,Tsinghua University,"116.325899,40.003220",40.003220,116.325899,4.6,Private Room
Tsinghua University Qingqing Fast Food Restaurant,Beijing,40.006939,116.328559,28.0,Chinese Restaurant;Chinese Restaurant,11:00,21:00,Tsinghua University,"116.325899,40.003220",40.003220,116.325899,4.6,Must-Eat Top 10
Tsinghua University Guanchouyuan (Restaurant),Beijing,40.006900,116.322438,48.0,Food Service Related;Food Service Related,17:00,20:30,Tsinghua University,"116.325899,40.003220",40.003220,116.325899,4.4,Private Room
Tsinghua University Lanyuan Faculty Restaurant,Beijing,39.998575,116.325267,33.0,Chinese Restaurant;Chinese Restaurant,11:00,21:00,Tsinghua University,"116.325899,40.003220",40.003220,116.325899,4.6,Outdoor Seating
Yuyuan Faculty Restaurant,Beijing,39.998357,116.319091,17.0,Chinese Restaurant;Chinese Restaurant,17:00,19:00,Tsinghua University,"116.325899,40.003220",40.003220,116.325899,4.5,Outdoor Seating;Online Queue
Tsinghua University Nanyuan Restaurant,Beijing,39.995864,116.327299,12.0,Chinese Restaurant;Chinese Restaurant,17:00,19:30,Tsinghua University,"116.325899,40.003220",40.003220,116.325899,4.5,Must-Eat Top 10;Online Queue
Tsinghua University Taoli Garden Restaurant,Beijing,40.010939,116.326059,100.0,Chinese Restaurant;Chinese Restaurant,17:00,21:00,Tsinghua University,"116.325899,40.003220",40.003220,116.325899,4.8,Must-Eat Top 10
Huaqing Yongsheng Restaurant (Innovation Building Branch),Beijing,39.995580,116.330193,100.0,Chinese Restaurant;Chinese Restaurant,11:00,21:00,Tsinghua University,"116.325899,40.003220",40.003220,116.325899,4.2,Outdoor Seating
Jinmanshan Qianmen Hot Pot (Qianmen Main Branch),Beijing,39.899557,116.400132,100.0,Chinese Restaurant;Hot Pot,10:00,22:30,Tiananmen Square,"116.397755,39.903182",39.903182,116.397755,4.4,Must-Eat Top 10
Huguosi Snacks (Roushi Street Branch),Beijing,39.898374,116.398690,32.0,Fast Food Restaurant;Fast Food Restaurant,05:30,21:30,Tiananmen Square,"116.397755,39.903182",39.903182,116.397755,4.3,Must-Eat Top 10;Outdoor Seating
Golden Bean Restaurant,Beijing,39.899020,116.393858,47.0,Chinese Restaurant;Chinese Restaurant,10:00,22:00,Tiananmen Square,"116.397755,39.903182",39.903182,116.397755,4.4,Private Room
Beiping Garden (Tiananmen Branch),Beijing,39.898039,116.395566,291.0,商务住宅;住宅区;住宅小区|Foreign Restaurant;Foreign Restaurant,11:00,23:00,Tiananmen Square,"116.397755,39.903182",39.903182,116.397755,4.5,Outdoor Seating;Waiting Area
Juqi (Qianmen Branch),Beijing,39.897718,116.397016,84.0,Chinese Restaurant;Chinese Restaurant,11:00,21:00,Tiananmen Square,"116.397755,39.903182",39.903182,116.397755,4.6,Outdoor Seating
Jiang·Restaurant PEKING LIANG (Qianmen Branch),Beijing,39.897387,116.397002,102.0,Chinese Restaurant;Chinese Restaurant,11:00,22:00,Tiananmen Square,"116.397755,39.903182",39.903182,116.397755,4.7,Private Room;Online Queue
Wanchun Golden Fortune Afternoon Tea (Qianmen Branch),Beijing,39.897225,116.397475,48.0,Food Service Related;Food Service Related,09:00,22:00,Tiananmen Square,"116.397755,39.903182",39.903182,116.397755,4.6,Birthday Package
Admiral · TIDU (Beijing Fun Branch),Beijing,39.897546,116.394922,177.0,Chinese Restaurant;北京菜,17:00,21:00,Tiananmen Square,"116.397755,39.903182",39.903182,116.397755,4.6,Private Room;Waiting Area
Forbidden City Qianmen Icehouse Restaurant,Beijing,39.896963,116.398256,100.0,Chinese Restaurant;Chinese Restaurant,11:00,21:00,Tiananmen Square,"116.397755,39.903182",39.903182,116.397755,4.0,Outdoor Seating;Birthday Package
National Centre for the Performing Arts Western Restaurant,Beijing,39.904765,116.389734,221.0,Foreign Restaurant;Western Restaurant,17:30,20:00,Tiananmen Square,"116.397755,39.903182",39.903182,116.397755,4.0,Outdoor Seating
BROWNSTONE Spanish Restaurant (Sanlitun Taikoo Li South District Branch),Beijing,39.934810,116.454541,188.0,Foreign Restaurant;Foreign Restaurant,11:00,24:00,Sanlitun Taikoo Li,"116.454406,39.934862",39.934862,116.454406,4.6,Must-Eat Top 10
Bacardi Club CASA BACARDI (Sanlitun Taikoo Li South District Branch),Beijing,39.934825,116.454725,172.0,Food Service Related;Food Service Related,18:00,05:00,Sanlitun Taikoo Li,"116.454406,39.934862",39.934862,116.454406,4.8,Birthday Package
COMMUNE·X Illusionist (Sanlitun Taikoo Li South District Branch),Beijing,39.934918,116.454906,170.0,Entertainment Venue;Bar|Foreign Restaurant;Western Restaurant,11:00,03:00,Sanlitun Taikoo Li,"116.454406,39.934862",39.934862,116.454406,4.8,Waiting Area;Online Queue
gaga (Sanlitun Taikoo Li South District Branch),Beijing,39.935060,116.453830,159.0,Foreign Restaurant;Western Restaurant|Casual Dining;Casual Dining,10:00,22:30,Sanlitun Taikoo Li,"116.454406,39.934862",39.934862,116.454406,4.6,Must-Eat Top 10;Private Room
Tairyo · Guan Yan Teppanyaki,Beijing,39.935220,116.455056,277.0,Foreign Restaurant;Japanese Cuisine,17:00,24:00,Sanlitun Taikoo Li,"116.454406,39.934862",39.934862,116.454406,4.5,Must-Eat Top 10;Birthday Package
bluefrog Blue Frog (Sanlitun Taikoo Li South District Branch),Beijing,39.935677,116.454238,136.0,Foreign Restaurant;Western Restaurant,10:30,23:00,Sanlitun Taikoo Li,"116.454406,39.934862",39.934862,116.454406,4.7,Outdoor Seating;Private Room
Zhudi Canteen (Sanlitun First Branch),Beijing,39.932974,116.453603,150.0,Foreign Restaurant;Japanese Cuisine,11:00,22:00,Sanlitun Taikoo Li,"116.454406,39.934862",39.934862,116.454406,4.5,Must-Eat Top 10;Private Room
Xiaoxiang Pavilion (Sanlitun SOHO Branch),Beijing,39.933111,116.452867,84.0,Chinese Restaurant;Hunan Cuisine,10:30,21:30,Sanlitun Taikoo Li,"116.454406,39.934862",39.934862,116.454406,4.8,Outdoor Seating
Alkhaleej Mandi Kitchen Gulf Mandi Restaurant,Beijing,39.932837,116.453202,139.0,Foreign Restaurant;Foreign Restaurant,10:00,24:00,Sanlitun Taikoo Li,"116.454406,39.934862",39.934862,116.454406,4.4,Outdoor Seating
Yueshe Restaurant (T+MALL Branch),Beijing,39.932637,116.454007,114.0,Foreign Restaurant;泰国/越南菜品餐厅,10:00,22:00,Sanlitun Taikoo Li,"116.454406,39.934862",39.934862,116.454406,4.2,Outdoor Seating;Private Room
Jingyi Restaurant (Liulichang Cultural Street Branch),Beijing,39.895208,116.389337,90.0,Chinese Restaurant;湖北菜(鄂菜),17:00,20:30,Yangmeizhu Xiejie,"116.390844,39.895280",39.895280,116.390844,4.5,Birthday Package;Online Queue
Jingfu Restaurant (Dashilan West Street Commercial Branch),Beijing,39.893896,116.390485,55.0,Chinese Restaurant;Chinese Restaurant,06:30,22:30,Yangmeizhu Xiejie,"116.390844,39.895280",39.895280,116.390844,4.5,Outdoor Seating;Private Room
ZENG Restaurant Theater Branch (Qianmen Branch),Beijing,39.897474,116.390897,88.0,Chinese Restaurant;Chinese Restaurant,10:30,21:00,Yangmeizhu Xiejie,"116.390844,39.895280",39.895280,116.390844,4.7,Outdoor Seating
Suzuki Dining Hall (Yangmeizhu Branch),Beijing,39.895977,116.393610,73.0,Foreign Restaurant;Japanese Cuisine,11:30,21:30,Yangmeizhu Xiejie,"116.390844,39.895280",39.895280,116.390844,4.7,Must-Eat Top 10;Birthday Package
Golden Spoon (Qianmen Branch),Beijing,39.893417,116.388955,70.0,Chinese Restaurant;东北菜,10:00,22:00,Yangmeizhu Xiejie,"116.390844,39.895280",39.895280,116.390844,4.3,Must-Eat Top 10
Hemu THE HOME · Hutong,Beijing,39.893584,116.388388,100.0,Accommodation Related;Accommodation Related,10:00,21:30,Yangmeizhu Xiejie,"116.390844,39.895280",39.895280,116.390844,4.5,Must-Eat Top 10;Waiting Area
Deyuelou,Beijing,39.895540,116.394553,57.0,Chinese Restaurant;Chinese Restaurant,10:00,23:00,Yangmeizhu Xiejie,"116.390844,39.895280",39.895280,116.390844,4.0,Private Room;Online Queue
Taste Restaurant,Beijing,39.896782,116.394354,34.0,Chinese Restaurant;Chinese Restaurant,11:00,21:00,Yangmeizhu Xiejie,"116.390844,39.895280",39.895280,116.390844,4.0,Must-Eat Top 10
Jing B·Dongli Craft Beer Music Restaurant,Beijing,39.896192,116.394755,85.0,Chinese Restaurant;Chinese Restaurant,16:30,03:00,Yangmeizhu Xiejie,"116.390844,39.895280",39.895280,116.390844,4.5,Must-Eat Top 10
Yi De Le Halal Restaurant,Beijing,39.893453,116.394739,24.0,Chinese Restaurant;Chinese Restaurant,10:30,21:30,Yangmeizhu Xiejie,"116.390844,39.895280",39.895280,116.390844,4.3,Waiting Area
Hidden Alley Night · Music Skewer Bar · liveHouse,Beijing,39.896375,116.395958,103.0,Fast Food Restaurant;Fast Food Restaurant,17:00,02:00,Deyunshe Guangde Building,"116.395000,39.895856",39.895856,116.395000,4.5,Must-Eat Top 10
Sixth Master Door Frame Century-old Braised Delicacies (Dashilan West Street Commercial Branch),Beijing,39.896964,116.395585,100.0,Chinese Restaurant;北京菜,10:00,21:30,Deyunshe Guangde Building,"116.395000,39.895856",39.895856,116.395000,4.4,Must-Eat Top 10;Private Room
Capital Jiumenxuan Roast Duck Restaurant (Qianmen Branch),Beijing,39.895127,116.397562,78.0,Chinese Restaurant;Local Specialty Restaurant,10:30,21:30,Deyunshe Guangde Building,"116.395000,39.895856",39.895856,116.395000,4.7,Private Room;Waiting Area
Noah Restaurant,Beijing,39.895318,116.397724,48.0,Chinese Restaurant;Chinese Restaurant,11:00,21:00,Deyunshe Guangde Building,"116.395000,39.895856",39.895856,116.395000,4.2,Must-Eat Top 10
Bamboo Forest Town Theme Restaurant,Beijing,39.941927,116.339046,39.0,Food Service Related;Food Service Related,11:00,21:00,Beijing Zoo,"116.336701,39.942105",39.942105,116.336701,4.2,Birthday Package
Swan Lake Restaurant,Beijing,39.941829,116.340678,44.0,Chinese Restaurant;Chinese Restaurant,09:00,16:00,Beijing Zoo,"116.336701,39.942105",39.942105,116.336701,4.6,Outdoor Seating;Online Queue
Moscow Restaurant (Beizhan Ximalu Branch),Beijing,39.940184,116.343000,314.0,Foreign Restaurant;俄国菜,17:00,21:00,Beijing Zoo,"116.336701,39.942105",39.942105,116.336701,4.6,Outdoor Seating
Xiao Mo Restaurant,Beijing,39.939919,116.342998,263.0,Foreign Restaurant;Western Restaurant,17:00,21:00,Beijing Zoo,"116.336701,39.942105",39.942105,116.336701,4.4,Waiting Area
Mododo Restaurant,Beijing,39.938950,116.342777,100.0,Chinese Restaurant;Chinese Restaurant,11:00,19:00,Beijing Zoo,"116.336701,39.942105",39.942105,116.336701,4.2,Must-Eat Top 10;Outdoor Seating
Zijin Cloud Top Revolving Restaurant (26th Floor of Xiyuan Hotel),Beijing,39.937305,116.332252,227.0,Foreign Restaurant;Foreign Restaurant,17:30,21:30,Beijing Zoo,"116.336701,39.942105",39.942105,116.336701,4.2,Birthday Package
Yixiu Fang Restaurant·Cantonese Cuisine·Roast Duck (Xizhimen Branch),Beijing,39.937059,116.340791,221.0,Chinese Restaurant;Chinese Restaurant,17:30,21:00,Beijing Zoo,"116.336701,39.942105",39.942105,116.336701,4.5,Private Room
China Meteorological Administration Community South District Staff Restaurant (Meteorological Bureau South District Branch),Beijing,39.945087,116.328218,100.0,Chinese Restaurant;Chinese Restaurant,11:00,21:00,Beijing Zoo,"116.336701,39.942105",39.942105,116.336701,4.3,Outdoor Seating;Private Room
Moscow Restaurant & Bakery (Beizhan Branch),Beijing,39.939088,116.345522,78.0,糕饼店;糕饼店,09:30,21:00,Beijing Zoo,"116.336701,39.942105",39.942105,116.336701,4.6,Birthday Package
Volga Western Restaurant,Beijing,39.941626,116.346788,203.0,Foreign Restaurant;Western Restaurant,17:00,21:00,Beijing Zoo,"116.336701,39.942105",39.942105,116.336701,4.4,Must-Eat Top 10
China Eastern Airlines Preferred Restaurant (China Eastern Airlines Shift Dormitory Branch),Beijing,39.526675,116.421725,32.0,Chinese Restaurant;Chinese Restaurant,11:00,21:00,Daxing International Airport,"116.429172,39.510561",39.510561,116.429172,3.7,Outdoor Seating;Private Room
Inner Mongolia Civil Aviation Airport Group Staff Restaurant,Beijing,40.856724,111.826663,100.0,Chinese Restaurant;Chinese Restaurant,11:00,21:00,Baita International Airport,"111.826401,40.853491",40.853491,111.826401,3.9,Waiting Area
Hudemon Style Restaurant (West Station Street Xima Road Branch),Beijing,40.827925,111.662475,100.0,Chinese Restaurant;Chinese Restaurant,11:00,21:00,Hohhot Station,"111.665480,40.831275",40.831275,111.665480,3.7,Must-Eat Top 10
Moji Mexican Restaurant (Xizhimen CapitaMall Branch),Beijing,39.941570,116.352722,131.0,Foreign Restaurant;Foreign Restaurant,11:00,21:30,Beijing North Station,"116.353464,39.944699",39.944699,116.353464,4.4,Private Room;Birthday Package
get pizza Italian Restaurant (CapitaMall Branch),Beijing,39.941014,116.352570,85.0,Foreign Restaurant;Foreign Restaurant,10:30,21:00,Beijing North Station,"116.353464,39.944699",39.944699,116.353464,4.2,Birthday Package
Lanzhou Hotel Restaurant (Jinhui Jiayuan Branch),Beijing,39.946472,116.358384,100.0,Chinese Restaurant;西北菜,17:00,21:00,Beijing North Station,"116.353464,39.944699",39.944699,116.353464,4.3,Outdoor Seating;Waiting Area
Fengrui Hotel Restaurant,Beijing,39.946511,116.358863,49.0,Chinese Restaurant;Chinese Restaurant,17:00,21:00,Beijing North Station,"116.353464,39.944699",39.944699,116.353464,4.2,Outdoor Seating;Birthday Package
Chaoyang Fang Chinese Restaurant,Beijing,39.941541,116.346980,76.0,Chinese Restaurant;Chinese Restaurant,17:30,21:00,Beijing North Station,"116.353464,39.944699",39.944699,116.353464,4.1,Outdoor Seating;Birthday Package
Ocean Sail Restaurant,Beijing,40.037939,116.312997,100.0,Chinese Restaurant;Chinese Restaurant,11:00,21:00,Qinghe Station,"116.314619,40.041059",40.041059,116.314619,2.1,Must-Eat Top 10
Nantian Restaurant (Shangdi Nantian Building Branch),Beijing,40.042187,116.308439,100.0,Chinese Restaurant;Chinese Restaurant,11:30,14:00,Qinghe Station,"116.314619,40.041059",40.041059,116.314619,3.7,Must-Eat Top 10;Waiting Area
Deshi Building Restaurant,Beijing,40.045260,116.308040,100.0,Chinese Restaurant;Chinese Restaurant,08:00,20:00,Qinghe Station,"116.314619,40.041059",40.041059,116.314619,3.8,Birthday Package;Online Queue
Inner Mongolia Wan Hao Grand Hotel - Chinese Restaurant,Beijing,40.851661,111.757430,100.0,Chinese Restaurant;Chinese Restaurant,11:00,21:00,Hohhot East Station,"111.765256,40.851074",40.851074,111.765256,4.2,Online Queue
Huishang Star · Restaurant (Haidong No. 1 Community Branch),Beijing,40.857243,111.764983,100.0,Chinese Restaurant;Chinese Restaurant,11:00,21:00,Hohhot East Station,"111.765256,40.851074",40.851074,111.765256,3.9,Outdoor Seating
Wangfujing Outlet KFC Restaurant (Wangfujing Outlet Ruyi Town Branch),Beijing,40.844692,111.766605,36.0,Fast Food Restaurant;Fast Food Restaurant,10:00,23:00,Hohhot East Station,"111.765256,40.851074",40.851074,111.765256,4.1,Private Room;Online Queue
Holiday Inn Express - Chinese Restaurant,Beijing,40.842104,111.776739,100.0,Chinese Restaurant;Chinese Restaurant,11:00,21:00,Hohhot East Station,"111.765256,40.851074",40.851074,111.765256,4.0,Waiting Area
Chengdu Sichuan Cuisine Restaurant (Binshui Xincun Branch),Beijing,40.854646,111.747514,49.0,Chinese Restaurant;Sichuan Cuisine,09:00,23:30,Hohhot East Station,"111.765256,40.851074",40.851074,111.765256,4.4,Must-Eat Top 10;Online Queue
Zhonghua Ma's Restaurant,Beijing,39.851353,116.309616,55.0,Chinese Restaurant;Halal Restaurant,11:00,21:00,Beijing Fengtai Station,"116.301463,39.850889",39.850889,116.301463,4.0,Waiting Area
Beijing West International Trade Grand Hotel - Yipinxuan Chinese Restaurant,Beijing,39.855510,116.309066,100.0,Chinese Restaurant;Hunan Cuisine,17:00,21:00,Beijing Fengtai Station,"116.301463,39.850889",39.850889,116.301463,4.2,Private Room;Birthday Package
Kandan Red Restaurant,Beijing,39.843323,116.300269,100.0,Chinese Restaurant;Chinese Restaurant,10:00,21:00,Beijing Fengtai Station,"116.301463,39.850889",39.850889,116.301463,4.4,Birthday Package;Online Queue
Mishe Restaurant Club,Beijing,40.234059,116.229663,100.0,Chinese Restaurant;Chinese Restaurant,11:00,21:00,Changping North Station,"116.231525,40.231452",40.231452,116.231525,3.4,Private Room
Yuxiang Restaurant,Beijing,40.233338,116.235909,100.0,Chinese Restaurant;Chinese Restaurant,09:00,23:00,Changping North Station,"116.231525,40.231452",40.231452,116.231525,3.7,Online Queue
Yuanhui Food Mansion (Haoheng Building Branch),Beijing,40.227267,116.226898,62.0,Chinese Restaurant;Chinese Restaurant,17:00,21:00,Changping North Station,"116.231525,40.231452",40.231452,116.231525,4.6,Outdoor Seating;Private Room
Xi Dajie Restaurant (Xihuanli Branch),Beijing,40.227601,116.226285,61.0,Chinese Restaurant;Chinese Restaurant,17:00,21:00,Changping North Station,"116.231525,40.231452",40.231452,116.231525,4.2,Private Room;Birthday Package
Mr. Tian's Braised Pork (Changping Third Branch),Beijing,40.225779,116.226545,17.0,Fast Food Restaurant;Fast Food Restaurant,07:00,21:00,Changping North Station,"116.231525,40.231452",40.231452,116.231525,4.6,Must-Eat Top 10
Huixuan Pavilion Restaurant (Hunan Cuisine),Beijing,40.071405,116.593500,29.0,Chinese Restaurant;Hunan Cuisine,10:30,21:30,Capital International Airport,"116.602545,40.080213",40.080213,116.602545,4.1,Outdoor Seating;Birthday Package
Lanxiangjing Restaurant,Beijing,39.992459,116.201693,100.0,Chinese Restaurant;Chinese Restaurant,11:00,21:00,Beijing Empark Xiangshan Business Hotel,"116.202953,39.991396",39.991396,116.202953,3.9,Outdoor Seating
70s Red Restaurant (Fragrant Hills Branch),Beijing,39.993887,116.205060,90.0,Chinese Restaurant;Seafood Restaurant,06:00,20:30,Beijing Empark Xiangshan Business Hotel,"116.202953,39.991396",39.991396,116.202953,4.3,Birthday Package
Huahuiqi Restaurant,Beijing,39.994846,116.202771,100.0,Chinese Restaurant;Chinese Restaurant,11:00,21:00,Beijing Empark Xiangshan Business Hotel,"116.202953,39.991396",39.991396,116.202953,3.9,Outdoor Seating
Tianlun Songhe Grand Hotel - Buffet Restaurant,Beijing,39.918132,116.413396,100.0,Chinese Restaurant;Chinese Restaurant,10:00,22:00,Jinjiang Inn Beijing Wangfujing Pedestrian Street Hotel,"116.412248,39.918908",39.918908,116.412248,4.0,Online Queue
Green Tea Restaurant (Beijing Yintai IN88 Branch),Beijing,39.916285,116.411819,74.0,Chinese Restaurant;Chinese Restaurant,11:00,21:30,Jinjiang Inn Beijing Wangfujing Pedestrian Street Hotel,"116.412248,39.918908",39.918908,116.412248,4.6,Waiting Area;Online Queue
Beijing Jinmao Renaissance Hotel · Rán Restaurant,Beijing,39.921203,116.410088,171.0,Foreign Restaurant;Western Restaurant,12:00,14:30,Jinjiang Inn Beijing Wangfujing Pedestrian Street Hotel,"116.412248,39.918908",39.918908,116.412248,4.5,Must-Eat Top 10
Radisson Hotel · Li Xuan Chinese Restaurant (Daxing Airport Branch),Beijing,39.525847,116.412720,105.0,Chinese Restaurant;Chinese Restaurant,10:00,22:00,Radisson Hotel Beijing Daxing Airport,"116.413190,39.525658",39.525658,116.413190,4.5,Private Room
Hilton Garden Inn - Huahuiwei Restaurant,Beijing,39.526497,116.412931,79.0,Chinese Restaurant;Chinese Restaurant,06:30,21:30,Radisson Hotel Beijing Daxing Airport,"116.413190,39.525658",39.525658,116.413190,4.1,Waiting Area
Little Chef's Buffet Restaurant (Daxing International Airport Branch),Beijing,39.525610,116.410822,100.0,Chinese Restaurant;Chinese Restaurant,11:00,21:00,Radisson Hotel Beijing Daxing Airport,"116.413190,39.525658",39.525658,116.413190,3.8,Outdoor Seating
Greedy Cat Skewer Bar & BBQ Tavern (Daxing Airport Branch),Beijing,39.525582,116.410627,90.0,Chinese Restaurant;Chinese Restaurant,11:00,21:00,Radisson Hotel Beijing Daxing Airport,"116.413190,39.525658",39.525658,116.413190,4.3,Must-Eat Top 10
Xana Hotel Yu Jia Restaurant,Beijing,39.527666,116.413005,100.0,Chinese Restaurant;Chinese Restaurant,10:00,21:00,Radisson Hotel Beijing Daxing Airport,"116.413190,39.525658",39.525658,116.413190,4.0,Birthday Package
Mr. Zui · Barbecue · Hotpot · Party Music Restaurant (Joy City Branch),Beijing,39.916544,116.514526,103.0,Chinese Restaurant;Local Specialty Restaurant|Chinese Restaurant;Hot Pot,16:00,02:00,Atour Hotel Beijing Guomao Chaoyang Joy City,"116.513625,39.918994",39.918994,116.513625,4.4,Must-Eat Top 10;Private Room
Little Diner Big Chef,Beijing,39.916647,116.515442,61.0,Chinese Restaurant;Chinese Restaurant,09:00,24:00,Atour Hotel Beijing Guomao Chaoyang Joy City,"116.513625,39.918994",39.918994,116.513625,4.8,Waiting Area;Online Queue
Nenniu House Chaoshan Beef Hot Pot (Qingnian Road Branch),Beijing,39.921881,116.517298,86.0,Chinese Restaurant;Hot Pot,10:30,04:00,Atour Hotel Beijing Guomao Chaoyang Joy City,"116.513625,39.918994",39.918994,116.513625,4.9,Birthday Package
Yita Italian Restaurant (Songzhuang Branch),Beijing,39.947272,116.719994,98.0,Foreign Restaurant;Foreign Restaurant,11:00,22:00,Home Inn Selected Beijing Universal Resort Songzhuang,"116.723803,39.943503",39.943503,116.723803,4.6,Must-Eat Top 10;Online Queue
Garden Flavor Art Restaurant,Beijing,39.947648,116.719949,98.0,Chinese Restaurant;Chinese Restaurant,04:30,21:30,Home Inn Selected Beijing Universal Resort Songzhuang,"116.723803,39.943503",39.943503,116.723803,3.9,Must-Eat Top 10
Little Flower Fragrance Art Restaurant,Beijing,39.947811,116.719919,80.0,Chinese Restaurant;Hunan Cuisine|Chinese Restaurant;Sichuan Cuisine,16:30,22:00,Home Inn Selected Beijing Universal Resort Songzhuang,"116.723803,39.943503",39.943503,116.723803,4.4,Waiting Area
Hilton Home2 Suites Dynamic Restaurant (Taipingqiao Dongli Community Branch),Beijing,39.888792,116.321718,103.0,Food Service Related;Food Service Related,11:00,21:00,Hilton Garden Inn Beijing West Railway Station,"116.321479,39.888859",39.888859,116.321479,4.3,Outdoor Seating;Private Room
Century Lotus Hotel Chinese Restaurant,Beijing,39.890867,116.319906,47.0,Food Service Related;Food Service Related,17:00,21:00,Hilton Garden Inn Beijing West Railway Station,"116.321479,39.888859",39.888859,116.321479,4.2,Private Room;Online Queue
Good Luck Tea Restaurant (CITIC Wealth Plaza Branch),Beijing,39.890723,116.323527,100.0,Fast Food Restaurant;Fast Food Restaurant,11:00,21:00,Hilton Garden Inn Beijing West Railway Station,"116.321479,39.888859",39.888859,116.321479,3.2,Outdoor Seating
Lavande Hotel Restaurant,Beijing,39.905440,116.425014,100.0,Chinese Restaurant;Chinese Restaurant,11:00,21:00,Home Inn · Neo - Beijing Chang'an Street Beijing Station,"116.426321,39.905582",39.905582,116.426321,3.8,Waiting Area
Hunan Mansion · Shou Xiang Yuan Chinese Restaurant,Beijing,39.906824,116.426484,176.0,Chinese Restaurant;Hunan Cuisine,17:00,21:00,Home Inn · Neo - Beijing Chang'an Street Beijing Station,"116.426321,39.905582",39.905582,116.426321,4.0,Private Room;Birthday Package
KFC (Beijing Station Square Second Branch),Beijing,39.903999,116.426524,37.0,Fast Food Restaurant;肯德基,08:00,20:00,Home Inn · Neo - Beijing Chang'an Street Beijing Station,"116.426321,39.905582",39.905582,116.426321,4.1,Private Room;Birthday Package
Mo Jie Restaurant Sichuan and Hunan Cuisine,Beijing,39.877240,116.701404,36.0,Chinese Restaurant;Chinese Restaurant,10:00,23:00,Beijing Harry Potter Origami Homestay,"116.697119,39.875934",39.875934,116.697119,3.8,Must-Eat Top 10
Hong Kong Kowloon Top Fragrance House · Hong Kong-Style Tea Restaurant,Beijing,39.872449,116.698081,100.0,Fast Food Restaurant;Fast Food Restaurant,11:00,21:00,Beijing Harry Potter Origami Homestay,"116.697119,39.875934",39.875934,116.697119,3.9,Birthday Package
Xiangjiu Roast Goose Head (Tuqiao Branch),Beijing,39.871212,116.696165,134.0,Chinese Restaurant;Chinese Restaurant,11:00,24:00,Beijing Harry Potter Origami Homestay,"116.697119,39.875934",39.875934,116.697119,4.3,Private Room
Xiluoyuan Senior Restaurant (Xiluoyuan Fourth Community Branch),Beijing,39.863266,116.389969,30.0,Chinese Restaurant;Chinese Restaurant,17:00,22:00,Orange Hotel Beijing South Railway Station,"116.385804,39.863783",39.863783,116.385804,4.4,Private Room;Birthday Package
Zhiyiwei Tea Restaurant,Beijing,39.864813,116.380005,62.0,Fast Food Restaurant;Tea Restaurant,06:00,21:00,Orange Hotel Beijing South Railway Station,"116.385804,39.863783",39.863783,116.385804,3.8,Birthday Package
Shanxi Mansion Jinlian Hotel Restaurant,Beijing,39.857868,116.382764,125.0,Chinese Restaurant;Chinese Restaurant,08:00,21:30,Orange Hotel Beijing South Railway Station,"116.385804,39.863783",39.863783,116.385804,4.2,Private Room;Waiting Area
Nanfengrui Taxi Restaurant (Yangqiao Xili Community Branch),Beijing,39.859706,116.379230,100.0,Chinese Restaurant;Chinese Restaurant,07:00,22:00,Orange Hotel Beijing South Railway Station,"116.385804,39.863783",39.863783,116.385804,4.4,Waiting Area;Online Queue
LILYSWORLD (Zhonghai Real Estate Plaza West Tower Branch),Beijing,39.870550,116.389176,169.0,Food Service Related;Food Service Related,09:00,21:30,Orange Hotel Beijing South Railway Station,"116.385804,39.863783",39.863783,116.385804,4.7,Outdoor Seating
Patara · Thai Restaurant (Jianguomen No. 6 Branch),Beijing,39.906989,116.444714,134.0,Foreign Restaurant;Foreign Restaurant,16:30,22:00,Yitel Premium Hotel - Beijing Jianguomen,"116.443966,39.907091",39.907091,116.443966,4.4,Must-Eat Top 10;Birthday Package
Shanhetun Iron Pot Stew (Jianguomen Branch),Beijing,39.906452,116.442370,89.0,Chinese Restaurant;Chinese Restaurant,10:30,22:30,Yitel Premium Hotel - Beijing Jianguomen,"116.443966,39.907091",39.907091,116.443966,4.7,Outdoor Seating
Taihe Wanwu Vegetarian Restaurant,Beijing,39.907635,116.441992,239.0,Chinese Restaurant;Chinese Restaurant,16:30,21:30,Yitel Premium Hotel - Beijing Jianguomen,"116.443966,39.907091",39.907091,116.443966,4.5,Outdoor Seating;Online Queue
Luo Xiaochu Restaurant (Yiling Building Branch),Beijing,39.893148,116.406727,100.0,Chinese Restaurant;Chinese Restaurant,11:00,21:00,Ji Hotel Beijing Qianmen Courtyard,"116.407000,39.894600",39.894600,116.407000,4.0,Must-Eat Top 10;Online Queue
VICINI Restaurant,Beijing,39.896008,116.408975,100.0,Foreign Restaurant;Italian Restaurant,11:00,21:00,Ji Hotel Beijing Qianmen Courtyard,"116.407000,39.894600",39.894600,116.407000,3.8,Private Room;Waiting Area
Qingyun Twenty-three · Lan Banquet,Beijing,39.895212,116.404402,100.0,Food Service Related;Food Service Related,10:00,21:00,Ji Hotel Beijing Qianmen Courtyard,"116.407000,39.894600",39.894600,116.407000,4.4,Online Queue
106 Restaurant (Shilihe Branch),Beijing,39.867752,116.462913,120.0,Chinese Restaurant;山东菜(鲁菜),11:00,22:00,Ji Hotel Beijing Shilihe,"116.458000,39.867700",39.867700,116.458000,4.7,Waiting Area;Birthday Package
Yifu Western Restaurant (Beijing Hilton DoubleTree Hotel East Third Ring),Beijing,39.871974,116.458017,88.0,Foreign Restaurant;Western Restaurant,06:00,23:00,Ji Hotel Beijing Shilihe,"116.458000,39.867700",39.867700,116.458000,3.7,Outdoor Seating
Lijiang Banquet (Hongshan Jiayuan K Zone Branch),Beijing,39.869101,116.451242,75.0,Chinese Restaurant;Chinese Restaurant,17:00,21:00,Ji Hotel Beijing Shilihe,"116.458000,39.867700",39.867700,116.458000,4.1,Outdoor Seating
Hilton Hotel Qin Tang Chinese Restaurant (Wangfujing Branch),Beijing,39.914647,116.413364,486.0,Foreign Restaurant;牛扒店(扒房),17:30,22:00,Hilton Beijing Wangfujing Hotel,"116.413536,39.914538",39.914538,116.413536,4.4,Private Room;Birthday Package
THE WOODS Restaurant (Wangfujing Macau Center Branch),Beijing,39.915041,116.413588,131.0,Foreign Restaurant;Western Restaurant|Cafe;Cafe|Casual Dining;Casual Dining,10:00,21:30,Hilton Beijing Wangfujing Hotel,"116.413536,39.914538",39.914538,116.413536,4.6,Must-Eat Top 10;Outdoor Seating
Fuwan Vietnamese Restaurant (Beijing apm Branch),Beijing,39.914674,116.412005,93.0,Foreign Restaurant;Foreign Restaurant,11:00,21:00,Hilton Beijing Wangfujing Hotel,"116.413536,39.914538",39.914538,116.413536,4.4,Outdoor Seating;Online Queue
Zhecha Tea Restaurant (Beijing apm Branch),Beijing,39.914339,116.411941,97.0,Chinese Restaurant;Cantonese Cuisine,17:00,21:30,Hilton Beijing Wangfujing Hotel,"116.413536,39.914538",39.914538,116.413536,4.4,Outdoor Seating;Online Queue
Tongren Four Seasons Coconut Chicken (Beijing apm Branch),Beijing,39.915237,116.412169,141.0,Food Service Related;Food Service Related,11:00,22:00,Hilton Beijing Wangfujing Hotel,"116.413536,39.914538",39.914538,116.413536,4.8,Private Room
Jinjiang Inn Restaurant,Beijing,39.898192,116.438538,100.0,Chinese Restaurant;Chinese Restaurant,11:00,21:00,Jinjiang Inn (Beijing Station Guangqumen Inner Subway Station),"116.438324,39.898026",39.898026,116.438324,3.7,Waiting Area
Adasi Xinjiang Flavor Restaurant (Baiqiao Branch),Beijing,39.896053,116.439543,51.0,Chinese Restaurant;Halal Restaurant,10:00,03:00,Jinjiang Inn (Beijing Station Guangqumen Inner Subway Station),"116.438324,39.898026",39.898026,116.438324,4.5,Outdoor Seating
Li Ji Baishui Lamb Head (Baiqiao Street Branch),Beijing,39.895961,116.439560,74.0,Chinese Restaurant;Halal Restaurant,10:30,22:00,Jinjiang Inn (Beijing Station Guangqumen Inner Subway Station),"116.438324,39.898026",39.898026,116.438324,4.5,Must-Eat Top 10
CITIC Jinling Hotel - Western Restaurant,Beijing,40.311242,117.101849,196.0,Foreign Restaurant;Foreign Restaurant,17:30,21:00,Beijing CITIC Jinling Hotel,"117.101383,40.311076",40.311076,117.101383,4.2,Outdoor Seating
Spring Water Banquet Restaurant,Beijing,40.300809,117.084312,85.0,Chinese Restaurant;Chinese Restaurant,16:00,20:00,Beijing CITIC Jinling Hotel,"117.101383,40.311076",40.311076,117.101383,4.3,Online Queue
Beijing Shengxin Folk Restaurant,Beijing,40.300263,117.083659,100.0,Food Service Related;Food Service Related,09:00,21:00,Beijing CITIC Jinling Hotel,"117.101383,40.311076",40.311076,117.101383,3.8,Birthday Package
Manxin Hotel Restaurant (TBD Yunji Center Branch),Beijing,40.099325,116.366525,100.0,Food Service Related;Food Service Related,11:00,21:00,Qiuguo Hotel Express (Beijing Beiqijia Wendu Shuicheng),"116.366817,40.100075",40.100075,116.366817,3.7,Private Room;Online Queue
Daoxiang Restaurant,Beijing,40.104433,116.367345,100.0,Food Service Related;Food Service Related,08:00,22:00,Qiuguo Hotel Express (Beijing Beiqijia Wendu Shuicheng),"116.366817,40.100075",40.100075,116.366817,4.2,Must-Eat Top 10;Outdoor Seating
Wufu Xiangmanlou,Beijing,40.101095,116.373587,66.0,Chinese Restaurant;Chinese Restaurant,16:30,22:00,Qiuguo Hotel Express (Beijing Beiqijia Wendu Shuicheng),"116.366817,40.100075",40.100075,116.366817,4.2,Waiting Area
Beijing Leduogang Marriott Hotel - Marriott Chinese Restaurant,Beijing,40.232883,116.188934,256.0,Food Service Related;Food Service Related,17:30,21:00,Beijing Marriott Hotel Changping Ludao Port,"116.188641,40.232499",40.232499,116.188641,4.4,Outdoor Seating;Private Room
Baifu Tower Restaurant,Beijing,40.238260,116.190910,100.0,Chinese Restaurant;Chinese Restaurant,10:00,22:00,Beijing Marriott Hotel Changping Ludao Port,"116.188641,40.232499",40.232499,116.188641,3.5,Private Room;Birthday Package
Penglai Pavilion Chinese Restaurant,Beijing,39.901513,116.416821,119.0,Chinese Restaurant;Chinese Restaurant,17:30,21:30,Beijing New World Hotel,"116.416885,39.901455",39.901455,116.416885,4.4,Private Room;Birthday Package
Xinqiao Hotel · Chunxiao Restaurant,Beijing,39.901641,116.416817,168.0,Chinese Restaurant;Chinese Restaurant,17:30,21:30,Beijing New World Hotel,"116.416885,39.901455",39.901455,116.416885,4.2,Waiting Area;Online Queue
Xinqiao Sanbao Western Restaurant (Chongwenmen Head Office),Beijing,39.901814,116.417746,100.0,Foreign Restaurant;Western Restaurant,11:00,21:00,Beijing New World Hotel,"116.416885,39.901455",39.901455,116.416885,4.5,Private Room;Online Queue
Deyuelou,Beijing,39.895540,116.394553,57.0,Chinese Restaurant;Chinese Restaurant,10:00,23:00,Orange Hotel Beijing Tiananmen Dashilan,"116.394075,39.895744",39.895744,116.394075,4.0,Private Room;Waiting Area
Suzuki Dining Hall (Yangmeizhu Branch),Beijing,39.895977,116.393610,73.0,Foreign Restaurant;Japanese Cuisine,11:00,20:00,Orange Hotel Beijing Tiananmen Dashilan,"116.394075,39.895744",39.895744,116.394075,4.7,Must-Eat Top 10
Taste Restaurant,Beijing,39.896782,116.394354,34.0,Chinese Restaurant;Chinese Restaurant,11:00,21:00,Orange Hotel Beijing Tiananmen Dashilan,"116.394075,39.895744",39.895744,116.394075,4.0,Waiting Area;Birthday Package
Menkuang Hutong Century-Old Braised Pork Head Office,Beijing,39.896624,116.395911,19.0,Chinese Restaurant;北京菜,10:30,22:00,Orange Hotel Beijing Tiananmen Dashilan,"116.394075,39.895744",39.895744,116.394075,4.4,Birthday Package
Admiral · TIDU (Beijing Fun Branch),Beijing,39.897546,116.394922,177.0,Chinese Restaurant;北京菜,17:00,21:00,Orange Hotel Beijing Tiananmen Dashilan,"116.394075,39.895744",39.895744,116.394075,4.6,Online Queue
McDonald's Wujie Street Restaurant (Fatou Cuicheng Xinyuan Branch),Beijing,39.855338,116.507562,32.0,Food Service Related;Food Service Related,07:00,22:00,Meipeng Light Luxury Hotel (Beijing Fatou Subway Station),"116.514365,39.857450",39.857450,116.514365,4.6,Outdoor Seating
Chuan Le Hui Music Restaurant · Liquor Supermarket (Happy Valley Branch),Beijing,39.864816,116.514847,100.0,Chinese Restaurant;Sichuan Cuisine,13:00,03:00,Meipeng Light Luxury Hotel (Beijing Fatou Subway Station),"116.514365,39.857450",39.857450,116.514365,4.3,Online Queue
Tou Niu BBQ Music Restaurant,Beijing,39.865390,116.514886,100.0,Food Service Related;Food Service Related,11:00,24:00,Meipeng Light Luxury Hotel (Beijing Fatou Subway Station),"116.514365,39.857450",39.857450,116.514365,4.1,Waiting Area
Jude Yuan Restaurant,Beijing,39.866051,116.510065,11.0,Chinese Restaurant;Halal Restaurant,10:30,21:00,Meipeng Light Luxury Hotel (Beijing Fatou Subway Station),"116.514365,39.857450",39.857450,116.514365,4.4,Waiting Area
Zhongjian Restaurant (Beijing Happy Valley Branch),Beijing,39.869084,116.509490,69.0,Chinese Restaurant;Sichuan Cuisine,17:00,21:00,Meipeng Light Luxury Hotel (Beijing Fatou Subway Station),"116.514365,39.857450",39.857450,116.514365,4.6,Online Queue
Songtang Fast Food Restaurant,Beijing,40.001225,116.274375,114.0,Food Service Related;Food Service Related,11:00,21:00,Summer Palace,"116.275179,39.999617",39.999617,116.275179,4.0,Waiting Area;Birthday Package
Light and Shadow Restaurant (Summer Palace Branch),Beijing,40.003150,116.277638,173.0,Chinese Restaurant;Zhejiang Cuisine,10:00,22:00,Summer Palace,"116.275179,39.999617",39.999617,116.275179,4.2,Must-Eat Top 10;Birthday Package
Third Restaurant of the Central Party School,Beijing,40.001430,116.285402,100.0,Chinese Restaurant;Chinese Restaurant,11:00,21:00,Summer Palace,"116.275179,39.999617",39.999617,116.275179,2.9,Must-Eat Top 10;Birthday Package
Central Party School Graduate School Restaurant,Beijing,39.999592,116.287885,100.0,Chinese Restaurant;Chinese Restaurant,11:00,21:00,Summer Palace,"116.275179,39.999617",39.999617,116.275179,3.7,Outdoor Seating
Dongting Chuxiang (Xiangshan Yihe Branch),Beijing,40.006063,116.264753,102.0,Chinese Restaurant;Hunan Cuisine,11:00,21:00,Summer Palace,"116.275179,39.999617",39.999617,116.275179,4.5,Outdoor Seating;Private Room
Green Tea Restaurant (Beijing Longfor Starry Street Mall),Beijing,39.998068,116.289861,70.0,Chinese Restaurant;Chinese Restaurant,11:00,22:00,Summer Palace,"116.275179,39.999617",39.999617,116.275179,4.5,Private Room
Dechang Garden Beijing Cuisine Restaurant (Summer Palace Branch),Beijing,39.996701,116.291357,100.0,Chinese Restaurant;Chinese Restaurant,11:00,21:00,Summer Palace,"116.275179,39.999617",39.999617,116.275179,3.9,Birthday Package
Dechang Garden Restaurant (Liangli Garden Branch),Beijing,39.997009,116.293362,100.0,Chinese Restaurant;Chinese Restaurant,11:00,21:00,Summer Palace,"116.275179,39.999617",39.999617,116.275179,3.5,Waiting Area
Dayou Shangpin Community Restaurant (Central Party School Community Business Unit),Beijing,40.014066,116.277948,90.0,Chinese Restaurant;Chinese Restaurant,17:00,19:30,Summer Palace,"116.275179,39.999617",39.999617,116.275179,4.7,Must-Eat Top 10;Outdoor Seating
Saizeriya Italian Restaurant (Xiaojihe Beijing Hualian BHG Mall Branch),Beijing,40.015633,116.270935,55.0,Foreign Restaurant;Japanese Cuisine,10:00,21:30,Summer Palace,"116.275179,39.999617",39.999617,116.275179,4.5,Must-Eat Top 10;Waiting Area
Huajia Yiyuan (Qinghua West Road Branch),Beijing,39.999401,116.306592,169.0,Chinese Restaurant;北京菜,17:00,21:30,Old Summer Palace Ruins Park,"116.300960,40.008759",40.008759,116.300960,4.5,Private Room;Waiting Area
Yixin Garden Restaurant (Beijing University of Posts and Telecommunications Conference Center Apartment Building Branch),Beijing,39.996687,116.299639,100.0,Chinese Restaurant;Chinese Restaurant,11:00,21:00,Old Summer Palace Ruins Park,"116.300960,40.008759",40.008759,116.300960,4.5,Waiting Area;Birthday Package
Dechang Garden Restaurant (Liangli Garden Branch),Beijing,39.997009,116.293362,100.0,Chinese Restaurant;Chinese Restaurant,11:00,21:00,Old Summer Palace Ruins Park,"116.300960,40.008759",40.008759,116.300960,3.5,Must-Eat Top 10
Mexican Taco Restaurant (Longfor Beijing Yihe Starry Mall Branch),Beijing,39.997965,116.290649,100.0,Foreign Restaurant;Western Restaurant,11:00,21:00,Old Summer Palace Ruins Park,"116.300960,40.008759",40.008759,116.300960,3.8,Birthday Package
Central Party School Graduate School Restaurant,Beijing,39.999592,116.287885,100.0,Chinese Restaurant;Chinese Restaurant,11:00,21:00,Old Summer Palace Ruins Park,"116.300960,40.008759",40.008759,116.300960,3.7,Outdoor Seating;Birthday Package
Green Tea Restaurant (Beijing Longfor Starry Street Mall),Beijing,39.998068,116.289861,70.0,Chinese Restaurant;Chinese Restaurant,11:00,22:00,Old Summer Palace Ruins Park,"116.300960,40.008759",40.008759,116.300960,4.5,Waiting Area
Dechang Garden Beijing Cuisine Restaurant (Summer Palace Branch),Beijing,39.996701,116.291357,100.0,Chinese Restaurant;Chinese Restaurant,11:00,21:00,Old Summer Palace Ruins Park,"116.300960,40.008759",40.008759,116.300960,3.9,Online Queue
Peking University Boya International Hotel - Yanchunyuan Chinese Restaurant,Beijing,39.997804,116.313330,152.0,Food Service Related;Food Service Related,11:00,21:00,Old Summer Palace Ruins Park,"116.300960,40.008759",40.008759,116.300960,4.3,Private Room
Peking University Changchunyuan Restaurant,Beijing,39.993919,116.303733,100.0,Chinese Restaurant;Chinese Restaurant,09:00,21:00,Old Summer Palace Ruins Park,"116.300960,40.008759",40.008759,116.300960,4.6,Must-Eat Top 10
Xinyuecheng Restaurant (Wanlin Building Branch),Beijing,40.024203,116.300609,100.0,Chinese Restaurant;Chinese Restaurant,11:00,21:00,Old Summer Palace Ruins Park,"116.300960,40.008759",40.008759,116.300960,3.9,Must-Eat Top 10;Online Queue
Deyuelou,Beijing,39.895540,116.394553,57.0,Chinese Restaurant;Chinese Restaurant,10:00,23:00,Beijing Dashilan,"116.395042,39.895715",39.895715,116.395042,4.0,Outdoor Seating
Jing B·Dongli Craft Beer Music Restaurant,Beijing,39.896192,116.394755,85.0,Chinese Restaurant;Chinese Restaurant,16:30,03:00,Beijing Dashilan,"116.395042,39.895715",39.895715,116.395042,4.5,Outdoor Seating
Hidden Alley Night · Music Skewer Bar · liveHouse,Beijing,39.896375,116.395958,103.0,Fast Food Restaurant;Fast Food Restaurant,17:00,02:00,Beijing Dashilan,"116.395042,39.895715",39.895715,116.395042,4.5,Private Room
Suzuki Dining Hall (Yangmeizhu Branch),Beijing,39.895977,116.393610,73.0,Foreign Restaurant;Japanese Cuisine,11:30,21:30,Beijing Dashilan,"116.395042,39.895715",39.895715,116.395042,4.7,Must-Eat Top 10;Birthday Package
Taste Restaurant,Beijing,39.896782,116.394354,34.0,Chinese Restaurant;Chinese Restaurant,11:00,21:00,Beijing Dashilan,"116.395042,39.895715",39.895715,116.395042,4.0,Waiting Area
Sixth Master Door Frame Century-old Braised Delicacies (Dashilan West Street Commercial Branch),Beijing,39.896964,116.395585,100.0,Chinese Restaurant;北京菜,10:00,21:30,Beijing Dashilan,"116.395042,39.895715",39.895715,116.395042,4.4,Online Queue
Admiral · TIDU (Beijing Fun Branch),Beijing,39.897546,116.394922,177.0,Chinese Restaurant;北京菜,17:00,21:00,Beijing Dashilan,"116.395042,39.895715",39.895715,116.395042,4.6,Private Room
Capital Jiumenxuan Roast Duck Restaurant (Qianmen Branch),Beijing,39.895127,116.397562,78.0,Chinese Restaurant;Local Specialty Restaurant,10:30,21:30,Beijing Dashilan,"116.395042,39.895715",39.895715,116.395042,4.7,Private Room;Waiting Area
Noah Restaurant,Beijing,39.895318,116.397724,48.0,Chinese Restaurant;Chinese Restaurant,11:00,21:00,Beijing Dashilan,"116.395042,39.895715",39.895715,116.395042,4.2,Private Room;Birthday Package
Jiang·Restaurant PEKING LIANG (Qianmen Branch),Beijing,39.897387,116.397002,102.0,Chinese Restaurant;Chinese Restaurant,11:00,22:00,Beijing Dashilan,"116.395042,39.895715",39.895715,116.395042,4.7,Private Room;Waiting Area
Zhonghong Feast · Bird's Nest Restaurant (Asian Games Village Branch),Beijing,39.992378,116.395075,171.0,Chinese Restaurant;Chinese Restaurant,17:00,21:00,National Aquatics Center (Water Cube),"116.390397,39.992834",39.992834,116.390397,4.5,Must-Eat Top 10
Guofeng · Home Restaurant (Bird's Nest Scenic View Branch),Beijing,39.992725,116.395475,556.0,Chinese Restaurant;Chinese Restaurant,16:30,22:00,National Aquatics Center (Water Cube),"116.390397,39.992834",39.992834,116.390397,4.6,Private Room;Birthday Package
Bird's Nest Cultural Center Guofengjia Restaurant,Beijing,39.992875,116.397025,756.0,Chinese Restaurant;Cantonese Cuisine,11:30,21:30,National Aquatics Center (Water Cube),"116.390397,39.992834",39.992834,116.390397,4.0,Birthday Package;Online Queue
Beijing Academy of Social Sciences Restaurant,Beijing,39.989342,116.385246,40.0,Chinese Restaurant;Chinese Restaurant,16:30,20:00,National Aquatics Center (Water Cube),"116.390397,39.992834",39.992834,116.390397,4.2,Birthday Package
Beijing North Star InterContinental Hotel · Italian Trattoria,Beijing,39.998325,116.388176,414.0,Foreign Restaurant;Italian Restaurant,17:30,22:00,National Aquatics Center (Water Cube),"116.390397,39.992834",39.992834,116.390397,4.3,Birthday Package
Xiangyun Tower Restaurant,Beijing,39.994451,116.381719,100.0,Chinese Restaurant;Chinese Restaurant,11:00,21:00,National Aquatics Center (Water Cube),"116.390397,39.992834",39.992834,116.390397,3.3,Must-Eat Top 10;Outdoor Seating
Yue Xiu Xuan Chinese Restaurant,Beijing,39.999089,116.386255,288.0,Chinese Restaurant;Chinese Restaurant,17:30,22:00,National Aquatics Center (Water Cube),"116.390397,39.992834",39.992834,116.390397,4.1,Must-Eat Top 10
Beijing Grand Skylight Hotel Elysee Western Restaurant (Asian Games Village Branch),Beijing,39.992708,116.400185,100.0,Cafe;Cafe,06:30,21:00,National Aquatics Center (Water Cube),"116.390397,39.992834",39.992834,116.390397,4.1,Online Queue
AmazingThai Authentic Thai Restaurant (Beitou New Aocheng Shopping Center Branch),Beijing,39.999286,116.395925,87.0,Foreign Restaurant;泰国/越南菜品餐厅,11:00,21:00,National Aquatics Center (Water Cube),"116.390397,39.992834",39.992834,116.390397,4.7,Must-Eat Top 10;Online Queue
Little Sheep (Beitou New World Shopping Center Branch),Beijing,40.000038,116.396371,104.0,Chinese Restaurant;Hot Pot,10:00,21:30,National Aquatics Center (Water Cube),"116.390397,39.992834",39.992834,116.390397,4.4,Outdoor Seating
New Zealand Restaurant Cafe Flatwhite (798 Branch),Beijing,39.984441,116.498919,100.0,Foreign Restaurant;Foreign Restaurant,09:00,21:00,798 Art District,"116.503789,39.984456",39.984456,116.503789,4.3,Must-Eat Top 10;Online Queue
Hong Mei Restaurant,Beijing,39.983709,116.498804,108.0,Fast Food Restaurant;Tea Restaurant,10:00,21:00,798 Art District,"116.503789,39.984456",39.984456,116.503789,4.3,Online Queue
Puxian Cuisine,Beijing,39.988739,116.502927,101.0,Food Service Related;Food Service Related,16:30,22:00,798 Art District,"116.503789,39.984456",39.984456,116.503789,4.5,Private Room
Blu. Lan Italian Restaurant,Beijing,39.986562,116.498549,119.0,Foreign Restaurant;Foreign Restaurant,10:00,21:00,798 Art District,"116.503789,39.984456",39.984456,116.503789,4.5,Must-Eat Top 10;Waiting Area
Coconut Thai · Thai Cuisine (798 Branch),Beijing,39.986400,116.497871,78.0,Foreign Restaurant;Foreign Restaurant,10:00,21:30,798 Art District,"116.503789,39.984456",39.984456,116.503789,4.5,Waiting Area;Birthday Package
Xiaowan Canteen (798 Art District Branch),Beijing,39.986677,116.497942,88.0,Chinese Restaurant;Hunan Cuisine,10:00,21:30,798 Art District,"116.503789,39.984456",39.984456,116.503789,4.7,Waiting Area
He Space,Beijing,39.986777,116.497291,100.0,公司企业;公司;公司|Cafe;Cafe,10:00,18:00,798 Art District,"116.503789,39.984456",39.984456,116.503789,4.2,Must-Eat Top 10
Mao Mansion Restaurant,Beijing,39.989188,116.499703,100.0,Chinese Restaurant;Chinese Restaurant,11:00,21:00,798 Art District,"116.503789,39.984456",39.984456,116.503789,4.3,Outdoor Seating
Care Shell·Museum of Love Restaurant,Beijing,39.987656,116.496193,190.0,Chinese Restaurant;Chinese Restaurant,10:00,21:00,798 Art District,"116.503789,39.984456",39.984456,116.503789,4.1,Must-Eat Top 10;Online Queue
Wangxiang Banquet · Courtyard Restaurant · 798 Reception Hall (Jiuxianqiao · Wangjing Branch),Beijing,39.980125,116.496768,99.0,Chinese Restaurant;Chinese Restaurant,10:00,21:00,798 Art District,"116.503789,39.984456",39.984456,116.503789,4.7,Outdoor Seating
Longxian Mansion Specialty Restaurant,Beijing,40.289367,116.236644,100.0,Chinese Restaurant;Chinese Restaurant,11:00,21:00,Ming Tombs - Changling,"116.248804,40.300235",40.300235,116.248804,3.6,Private Room
Tang Garden Chinese Restaurant (Fuxingmen Branch),Beijing,39.908020,116.342580,331.0,Chinese Restaurant;Cantonese Cuisine,17:00,21:30,Capital Museum,"116.342067,39.906412",39.906412,116.342067,4.1,Private Room;Online Queue
Jing Xiaoyan · Hunan-Cantonese Fusion Cuisine · Chinese Restaurant (Fuxingmen Branch),Beijing,39.907965,116.343105,92.0,Chinese Restaurant;Hunan Cuisine|Chinese Restaurant;Sichuan Cuisine,16:00,04:00,Capital Museum,"116.342067,39.906412",39.906412,116.342067,4.3,Must-Eat Top 10;Online Queue
Tang Xiu Wang Music Restaurant Bar (Fuxingmen Branch),Beijing,39.907965,116.343105,100.0,Chinese Restaurant;Chinese Restaurant,18:00,02:00,Capital Museum,"116.342067,39.906412",39.906412,116.342067,4.3,Private Room
Xijin Hui Western Restaurant,Beijing,39.908111,116.343154,152.0,Foreign Restaurant;Western Restaurant,11:00,21:00,Capital Museum,"116.342067,39.906412",39.906412,116.342067,3.8,Must-Eat Top 10
Three-Colored Lotus Indian Restaurant (Chang'an Mall Branch),Beijing,39.907957,116.344377,135.0,Foreign Restaurant;Indian Cuisine,10:30,21:30,Capital Museum,"116.342067,39.906412",39.906412,116.342067,4.6,Birthday Package;Online Queue
China Workers' Home B4 Floor Weishan Restaurant,Beijing,39.905786,116.345617,100.0,Chinese Restaurant;Chinese Restaurant,09:00,22:00,Capital Museum,"116.342067,39.906412",39.906412,116.342067,3.8,Private Room;Birthday Package
Jiayue Restaurant,Beijing,39.906653,116.345942,100.0,Chinese Restaurant;Chinese Restaurant,11:00,21:00,Capital Museum,"116.342067,39.906412",39.906412,116.342067,3.7,Online Queue
Yamei Restaurant (Zhenwumiao Fourth Alley Branch),Beijing,39.903774,116.346399,36.0,Chinese Restaurant;Chinese Restaurant,11:00,21:00,Capital Museum,"116.342067,39.906412",39.906412,116.342067,4.1,Private Room;Online Queue
China People's Public Security University Muxidi Campus West Area Restaurant,Beijing,39.902444,116.336961,100.0,Chinese Restaurant;Chinese Restaurant,11:00,21:00,Capital Museum,"116.342067,39.906412",39.906412,116.342067,3.9,Waiting Area
Beijing Sanli Mingyue Restaurant,Beijing,39.910039,116.336159,123.0,Chinese Restaurant;Chinese Restaurant,11:00,21:00,Capital Museum,"116.342067,39.906412",39.906412,116.342067,4.4,Waiting Area;Birthday Package
